Time;Fraction;Latitude;Longitude;Height_ellipsoid;Height_msl;Accuracy_hor;Accuracy_ver;Speed_gnd;Heading;Satellites;Fix;TimeOfDay;Nanoseconds;Time_Valid;Pressure;Altitude;Vario;Temperature;Acc_X;Acc_Y;Acc_Z;Mag_X;Mag_Y;Mag_Z;Gyro_X;Gyro_Y;Gyro_Z;Roll;Pitch;Yaw;Quat0;Quat1;Quat2;Quat3;Temp_X;Temp_Y;Temp_Z
s;;°/1e7;°/1e7;m;m;dm;dm;dm/s;°/10;;;sec;ns;;mPA;cm;cm/s;°C/10;m/s^2;m/s^2;m/s^2;Gauss;Gauss;Gauss;rad/s;rad/s;rad/s;°;°;°;;;;;;;
1608557719;2;;;;;;;;;;;;;;;;;;0.117680;5.452498;-9.532064;1.282355;-1.334313;1.538878;-0.072082;-0.393092;0.707382;150.273270;-0.675425;164.731674;0.000000;0.000000;0.000000;0.000000;-460.000000;-347.000000;377.000000
1608557719;3;466839504;67418165;907;860;25;35;97;597;10;3;48918;799640980;1;92581989;75496;575;77;0.117680;5.727084;-9.453611;1.254143;-1.330909;1.556267;0.005192;-0.418137;0.759000;150.125168;-0.668882;164.799850;0.000000;0.000000;0.000000;0.000000;-452.000000;-346.000000;382.000000
1608557719;4;;;;;;;;;;;;;;;;;;0.000000;5.805537;-9.532064;1.250617;-1.324100;1.577134;0.000611;-0.375377;0.781602;149.978302;-0.601994;164.925583;0.000000;0.000000;0.000000;0.000000;-451.000000;-344.000000;388.000000
1608557719;5;;;;;;;;;;;;;;92570553;75597;600;77;0.000000;5.099458;-9.924331;1.222406;-1.320695;1.573657;0.003054;-0.355218;0.808175;150.260925;-0.541794;164.389420;0.000000;0.000000;0.000000;0.000000;-443.000000;-343.000000;387.000000
1608557719;6;;;;;;;;;;;;;;;;;;0.156906;5.374045;-9.179025;1.215353;-1.303673;1.594524;0.006109;-0.368046;0.815199;150.200073;-0.572130;164.511826;0.000000;0.000000;0.000000;0.000000;-441.000000;-338.000000;393.000000
1608557719;7;466839602;67418390;908;861;25;35;104;591;10;3;48919;-359547;1;;;;;0.313813;5.570177;-9.335931;1.225932;-1.303673;1.598001;-0.007330;-0.416305;0.811534;150.097885;-0.680261;164.742554;0.000000;0.000000;0.000000;0.000000;-444.000000;-338.000000;394.000000
1608557719;8;;;;;;;;;;;;;;92559493;75696;623;77;0.549172;5.138685;-9.571291;1.211827;-1.296864;1.611913;-0.032681;-0.444710;0.793819;150.265045;-0.901631;164.653595;0.000000;0.000000;0.000000;0.000000;-440.000000;-336.000000;398.000000
1608557719;9;;;;;;;;;;;;;;;;;;0.392266;5.138685;-9.845877;1.218880;-1.290055;1.629302;-0.018326;-0.444099;0.804815;150.482498;-1.013750;164.507095;0.000000;0.000000;0.000000;0.000000;-442.000000;-334.000000;403.000000
1608557719;10;;;;;;;;;;;;;;92549394;75786;641;77;0.235360;5.217138;-9.335931;1.222406;-1.269628;1.636257;-0.001222;-0.443488;0.817032;150.514511;-1.038446;164.681213;0.000000;0.000000;0.000000;0.000000;-443.000000;-328.000000;405.000000
1608557719;11;466839704;67418635;910;862;25;35;110;585;10;3;48919;199639925;1;;;;;0.235360;5.217138;-9.492838;1.215353;-1.259414;1.646691;-0.026878;-0.447153;0.820697;150.583817;-1.059075;164.827896;0.000000;0.000000;0.000000;0.000000;-441.000000;-325.000000;408.000000
1608557719;12;;;;;;;;;;;;;;;;;;0.353039;5.099458;-9.571291;1.211827;-1.242392;1.671035;-0.070249;-0.489303;0.808480;150.720642;-1.139618;164.978699;0.000000;0.000000;0.000000;0.000000;-440.000000;-320.000000;415.000000
1608557719;13;;;;;;;;;;;;;;92539956;75870;652;77;0.274586;5.334818;-9.688971;1.215353;-1.245796;1.681469;-0.087048;-0.489303;0.816116;150.764847;-1.167867;165.232880;0.000000;0.000000;0.000000;0.000000;-441.000000;-321.000000;418.000000
1608557719;14;;;;;;;;;;;;;;;;;;0.235360;5.413271;-9.414384;1.204774;-1.218560;1.716247;-0.078191;-0.480445;0.828333;150.698486;-1.175236;165.796555;0.000000;0.000000;0.000000;0.000000;-438.000000;-313.000000;428.000000
1608557719;15;466839817;67418927;911;864;25;35;122;587;10;3;48919;399639398;1;92531069;75949;656;77;0.235360;5.295591;-9.218252;1.204774;-1.201538;1.740592;-0.069028;-0.476475;0.851851;150.641052;-1.184539;166.421417;0.000000;0.000000;0.000000;0.000000;-438.000000;-308.000000;435.000000
1608557719;16;;;;;;;;;;;;;;;;;;0.313813;5.295591;-9.296705;1.194195;-1.198133;1.757981;-0.054062;-0.481667;0.862847;150.610291;-1.234089;167.004059;0.000000;0.000000;0.000000;0.000000;-435.000000;-307.000000;440.000000
1608557719;17;;;;;;;;;;;;;;;;;;0.274586;5.413271;-9.335931;1.201248;-1.181111;1.782326;-0.049175;-0.490525;0.864680;150.538620;-1.256432;167.722534;0.000000;0.000000;0.000000;0.000000;-437.000000;-302.000000;447.000000
1608557719;18;;;;;;;;;;;;;;92523311;76018;652;77;0.235360;5.295591;-9.335931;1.190668;-1.177706;1.803192;-0.058948;-0.501826;0.860709;150.528458;-1.256407;168.328964;0.000000;0.000000;0.000000;0.000000;-434.000000;-301.000000;453.000000
1608557719;19;466839929;67419261;912;865;25;34;132;600;10;3;48919;599638872;1;;;;;0.156906;5.177911;-9.414384;1.204774;-1.153875;1.834493;-0.064752;-0.521679;0.872315;150.594543;-1.214433;168.909668;0.000000;0.000000;0.000000;0.000000;-438.000000;-294.000000;462.000000
1608557720;0;;;;;;;;;;;;;;92516448;76079;640;77;0.078453;5.099458;-9.296705;1.194195;-1.143661;1.851882;-0.049480;-0.495412;0.885144;150.660522;-1.135381;169.489487;0.000000;0.000000;0.000000;0.000000;-435.000000;-291.000000;467.000000
1608557720;1;;;;;;;;;;;;;;;;;;0.156906;5.099458;-9.296705;1.194195;-1.113021;1.900571;-0.034208;-0.498771;0.898583;150.719910;-1.106621;170.252014;0.000000;0.000000;0.000000;0.000000;-435.000000;-282.000000;481.000000
1608557720;2;;;;;;;;;;;;;;;;;;0.235360;5.295591;-9.375158;1.187142;-1.106212;1.917960;0.004887;-0.517403;0.882700;150.701920;-1.121179;171.134552;0.000000;0.000000;0.000000;0.000000;-433.000000;-280.000000;486.000000
1608557720;3;466840049;67419633;913;866;25;35;143;617;10;3;48919;799638346;1;92510332;76133;622;77;0.470719;5.334818;-9.414384;1.190668;-1.089189;1.956216;0.013439;-0.574213;0.853989;150.677856;-1.258148;172.095978;0.000000;0.000000;0.000000;0.000000;-434.000000;-275.000000;497.000000
1608557720;4;;;;;;;;;;;;;;;;;;0.392266;5.334818;-9.414384;1.197721;-1.072167;1.980561;0.008247;-0.573908;0.857044;150.656204;-1.339945;173.081848;0.000000;0.000000;0.000000;0.000000;-436.000000;-270.000000;504.000000
1608557720;5;;;;;;;;;;;;;;92504189;76188;601;77;0.078453;5.099458;-9.492838;1.197721;-1.061953;2.022295;0.005498;-0.563829;0.858266;150.766174;-1.247664;173.875092;0.000000;0.000000;0.000000;0.000000;-436.000000;-267.000000;516.000000
1608557720;6;;;;;;;;;;;;;;;;;;0.156906;5.295591;-9.453611;1.194195;-1.041526;2.050117;0.000916;-0.525955;0.875981;150.763962;-1.205858;174.922058;0.000000;0.000000;0.000000;0.000000;-435.000000;-261.000000;524.000000
1608557720;7;466840186;67420014;914;867;25;35;151;615;10;3;48920;-362179;1;;;;;0.235360;5.334818;-9.845877;1.208300;-1.031313;2.084896;-0.015272;-0.482583;0.894307;150.842545;-1.205676;175.823425;0.000000;0.000000;0.000000;0.000000;-439.000000;-258.000000;534.000000
1608557720;8;;;;;;;;;;;;;;92498704;76237;578;77;0.156906;5.060232;-9.728197;1.201248;-1.007481;2.109240;-0.069639;-0.467312;0.903164;151.010132;-1.167087;176.609741;0.000000;0.000000;0.000000;0.000000;-437.000000;-251.000000;541.000000
1608557720;9;;;;;;;;;;;;;;;;;;0.196133;5.021005;-9.610517;1.204774;-0.980245;2.154452;-0.097433;-0.481973;0.901637;151.150650;-1.154006;177.538422;0.000000;0.000000;0.000000;0.000000;-438.000000;-243.000000;554.000000
1608557720;10;;;;;;;;;;;;;;;;;;0.353039;5.217138;-9.453611;1.201248;-0.970032;2.178797;-0.095600;-0.485332;0.905608;151.146317;-1.225873;178.688919;0.000000;0.000000;0.000000;0.000000;-437.000000;-240.000000;561.000000
1608557720;11;466840332;67420414;915;868;26;35;160;611;10;3;48920;199637294;1;92494156;76277;552;77;0.117680;5.177911;-9.375158;1.218880;-0.953009;2.217052;-0.102931;-0.438296;0.922101;151.140503;-1.166238;179.900482;0.000000;0.000000;0.000000;0.000000;-442.000000;-235.000000;572.000000
1608557720;12;;;;;;;;;;;;;;;;;;-0.039227;5.177911;-9.845877;1.208300;-0.942796;2.234442;-0.127976;-0.423940;0.929126;151.252487;-1.029411;180.882812;0.000000;0.000000;0.000000;0.000000;-439.000000;-232.000000;577.000000
1608557720;13;;;;;;;;;;;;;;92490311;76311;522;77;0.353039;5.217138;-9.924331;1.215353;-0.915560;2.276175;-0.131947;-0.452956;0.922101;151.354202;-1.106820;181.884598;0.000000;0.000000;0.000000;0.000000;-441.000000;-224.000000;589.000000
1608557720;14;;;;;;;;;;;;;;;;;;0.274586;5.177911;-9.453611;1.208300;-0.905346;2.303998;-0.120646;-0.462119;0.902248;151.347763;-1.142066;183.079132;0.000000;0.000000;0.000000;0.000000;-439.000000;-221.000000;597.000000
1608557720;15;466840475;67420872;916;869;26;35;171;626;10;3;48920;399636768;1;;;;;0.117680;5.295591;-9.492838;1.218880;-0.884919;2.338776;-0.118508;-0.447764;0.922101;151.297501;-1.089886;184.411179;0.000000;0.000000;0.000000;0.000000;-442.000000;-215.000000;607.000000
1608557720;16;;;;;;;;;;;;;;92487150;76340;490;77;0.274586;5.374045;-9.610517;1.225932;-0.878110;2.363121;-0.092241;-0.484111;0.893085;151.246445;-1.123749;185.642548;0.000000;0.000000;0.000000;0.000000;-444.000000;-213.000000;614.000000
1608557720;17;;;;;;;;;;;;;;;;;;0.470719;5.413271;-9.649744;1.229459;-0.861088;2.401377;-0.085521;-0.529009;0.881784;151.192673;-1.254984;186.839508;0.000000;0.000000;0.000000;0.000000;-445.000000;-208.000000;625.000000
1608557720;18;;;;;;;;;;;;;;92485067;76358;453;77;0.117680;5.413271;-9.728197;1.229459;-0.850874;2.418766;-0.081550;-0.530231;0.884533;151.164032;-1.190048;188.055878;0.000000;0.000000;0.000000;0.000000;-445.000000;-205.000000;630.000000
1608557720;19;466840630;67421340;917;870;26;35;181;626;9;3;48920;599636242;1;;;;;0.039227;5.334818;-9.688971;1.240038;-0.830447;2.460500;-0.070249;-0.543670;0.878424;151.163895;-1.091363;189.269180;0.000000;0.000000;0.000000;0.000000;-448.000000;-199.000000;642.000000
1608557721;0;;;;;;;;;;;;;;;;;;0.353039;5.256365;-9.414384;1.236511;-0.820234;2.477889;-0.053756;-0.580627;0.861625;151.129913;-1.169759;190.386032;0.000000;0.000000;0.000000;0.000000;-447.000000;-196.000000;647.000000
1608557721;1;;;;;;;;;;;;;;92483657;76371;412;77;0.117680;5.413271;-9.610517;1.250617;-0.803211;2.519622;-0.048258;-0.556804;0.876286;151.077835;-1.113909;191.625244;0.000000;0.000000;0.000000;0.000000;-451.000000;-191.000000;659.000000
1608557721;2;;;;;;;;;;;;;;;;;;0.039227;5.177911;-10.002784;1.250617;-0.796402;2.540489;-0.087354;-0.550084;0.880257;151.233246;-1.022472;192.471191;0.000000;0.000000;0.000000;0.000000;-451.000000;-189.000000;665.000000
1608557721;3;466840800;67421824;918;871;26;35;191;621;9;3;48920;799635716;1;92481831;76387;376;77;-0.117680;5.256365;-9.571291;1.268249;-0.772571;2.585701;-0.075136;-0.516792;0.912022;151.232468;-0.858480;193.683685;0.000000;0.000000;0.000000;0.000000;-456.000000;-182.000000;678.000000
1608557721;4;;;;;;;;;;;;;;;;;;-0.235360;5.217138;-9.649744;1.271775;-0.769166;2.596134;-0.060170;-0.483500;0.947146;151.269440;-0.649721;194.783035;0.000000;0.000000;0.000000;0.000000;-457.000000;-181.000000;681.000000
1608557721;5;;;;;;;;;;;;;;;;;;-0.196133;5.334818;-10.002784;1.275302;-0.741930;2.627434;-0.070249;-0.463341;0.976773;151.335266;-0.485631;195.838028;0.000000;0.000000;0.000000;0.000000;-458.000000;-173.000000;690.000000
1608557721;6;;;;;;;;;;;;;;92481618;76389;338;77;-0.274586;5.256365;-9.845877;1.275302;-0.741930;2.655257;-0.068111;-0.454789;0.997848;151.392136;-0.296137;196.878967;0.000000;0.000000;0.000000;0.000000;-458.000000;-173.000000;698.000000
1608557721;7;466840988;67422307;919;872;26;35;199;610;9;3;48921;-364810;1;;;;;-0.196133;5.256365;-9.728197;1.292934;-0.728312;2.679602;-0.071471;-0.447764;1.020756;151.414597;-0.164905;197.886658;0.000000;0.000000;0.000000;0.000000;-463.000000;-169.000000;705.000000
1608557721;8;;;;;;;;;;;;;;92481150;76393;300;77;-0.039227;5.256365;-9.688971;1.292934;-0.721503;2.693513;-0.094990;-0.459371;1.028391;151.425125;-0.128025;198.785110;0.000000;0.000000;0.000000;0.000000;-463.000000;-167.000000;709.000000
1608557721;9;;;;;;;;;;;;;;;;;;-0.196133;5.295591;-9.845877;1.310566;-0.707885;2.728291;-0.103847;-0.451124;1.050993;151.455276;-0.014714;199.698502;0.000000;0.000000;0.000000;0.000000;-468.000000;-163.000000;719.000000
1608557721;10;;;;;;;;;;;;;;;;;;-0.313813;5.295591;-9.649744;1.299986;-0.704481;2.745680;-0.076053;-0.429133;1.087034;151.434052;0.150060;200.722610;0.000000;0.000000;0.000000;0.000000;-465.000000;-162.000000;724.000000
1608557721;11;466841188;67422805;921;873;26;35;206;600;9;3;48921;199634662;1;92479531;76407;268;77;0.000000;5.021005;-9.492838;1.317618;-0.687458;2.780458;-0.079718;-0.486249;1.080620;151.503113;0.135054;201.422241;0.000000;0.000000;0.000000;0.000000;-470.000000;-157.000000;734.000000
1608557721;12;;;;;;;;;;;;;;;;;;-0.039227;5.099458;-9.453611;1.321145;-0.677245;2.790892;-0.071471;-0.527787;1.098946;151.518494;0.142473;202.187485;0.000000;0.000000;0.000000;0.000000;-471.000000;-154.000000;737.000000
1608557721;13;;;;;;;;;;;;;;92476521;76434;248;77;0.039227;5.099458;-9.649744;1.338777;-0.684054;2.804803;-0.070555;-0.546419;1.102001;151.581207;0.107633;202.730515;0.000000;0.000000;0.000000;0.000000;-476.000000;-156.000000;741.000000
1608557721;14;;;;;;;;;;;;;;;;;;-0.235360;5.138685;-9.532064;1.345829;-0.670436;2.825670;-0.078802;-0.568715;1.119716;151.590210;0.221379;203.487778;0.000000;0.000000;0.000000;0.000000;-478.000000;-152.000000;747.000000
1608557721;15;466841392;67423311;922;875;26;35;213;593;9;3;48921;399634135;1;;;;;-0.156906;5.060232;-9.571291;1.345829;-0.667031;2.839581;-0.100182;-0.553444;1.152092;151.644714;0.282272;204.086609;0.000000;0.000000;0.000000;0.000000;-478.000000;-151.000000;751.000000
1608557721;16;;;;;;;;;;;;;;92472773;76467;240;77;-0.353039;5.060232;-9.414384;1.349356;-0.660222;2.850015;-0.113315;-0.564439;1.177748;151.654449;0.443229;204.822815;0.000000;0.000000;0.000000;0.000000;-479.000000;-149.000000;754.000000
1608557721;17;;;;;;;;;;;;;;;;;;-0.117680;4.981778;-9.610517;1.366988;-0.656818;2.863926;-0.112094;-0.609338;1.193936;151.748947;0.461191;205.221924;0.000000;0.000000;0.000000;0.000000;-484.000000;-148.000000;758.000000
1608557721;18;;;;;;;;;;;;;;92466744;76521;245;77;-0.156906;5.177911;-9.610517;1.377567;-0.653413;2.870882;-0.105374;-0.628275;1.215622;151.742599;0.497418;205.746918;0.000000;0.000000;0.000000;0.000000;-487.000000;-147.000000;760.000000
1608557721;19;466841605;67423837;923;876;26;35;220;586;9;3;48921;599633608;1;;;;;-0.274586;5.060232;-9.571291;1.384620;-0.660222;2.884793;-0.083078;-0.640492;1.243111;151.781860;0.592960;206.196228;0.000000;0.000000;0.000000;0.000000;-489.000000;-149.000000;764.000000
1608557722;0;;;;;;;;;;;;;;;;;;-0.313813;5.138685;-9.571291;1.398725;-0.653413;2.881315;-0.043066;-0.611171;1.277014;151.780609;0.699128;206.665573;0.000000;0.000000;0.000000;0.000000;-493.000000;-147.000000;763.000000
1608557722;1;;;;;;;;;;;;;;92451847;76654;287;77;-0.509946;5.256365;-9.375158;1.412831;-0.656818;2.884793;0.007941;-0.569937;1.316720;151.674759;0.900851;207.326538;0.000000;0.000000;0.000000;0.000000;-497.000000;-148.000000;764.000000
1608557722;2;;;;;;;;;;;;;;;;;;-0.470719;5.334818;-9.571291;1.419884;-0.663627;2.891748;0.054367;-0.566883;1.320385;151.593872;1.056747;207.851334;0.000000;0.000000;0.000000;0.000000;-499.000000;-150.000000;766.000000
1608557722;3;466841835;67424386;925;877;26;35;230;580;9;3;48921;799633081;1;92427578;76870;391;77;-0.078453;5.374045;-9.806650;1.423410;-0.663627;2.884793;0.072082;-0.627664;1.309389;151.562225;0.991268;208.048203;0.000000;0.000000;0.000000;0.000000;-500.000000;-150.000000;764.000000
1608557722;4;;;;;;;;;;;;;;;;;;0.078453;5.334818;-9.728197;1.441042;-0.670436;2.884793;0.113621;-0.663094;1.276097;151.532043;0.851628;208.111237;0.000000;0.000000;0.000000;0.000000;-505.000000;-152.000000;764.000000
1608557722;5;;;;;;;;;;;;;;;;;;-0.274586;5.138685;-9.688971;1.444568;-0.667031;2.870882;0.134696;-0.675006;1.273348;151.584869;0.909885;208.183777;0.000000;0.000000;0.000000;0.000000;-506.000000;-151.000000;760.000000
1608557722;6;;;;;;;;;;;;;;92401295;77104;535;77;-0.353039;5.295591;-9.924331;1.455148;-0.670436;2.863926;0.116370;-0.664621;1.251968;151.617966;0.998658;208.265305;0.000000;0.000000;0.000000;0.000000;-509.000000;-152.000000;758.000000
1608557722;7;466842076;67424934;926;879;26;35;237;572;9;3;48922;-367446;1;;;;;-0.353039;5.217138;-9.688971;1.458674;-0.684054;2.856970;0.101098;-0.649961;1.233642;151.626114;1.082546;208.321213;0.000000;0.000000;0.000000;0.000000;-510.000000;-156.000000;756.000000
1608557722;8;;;;;;;;;;;;;;92371480;77369;704;77;-0.470719;5.138685;-9.571291;1.476306;-0.687458;2.846537;0.084605;-0.606284;1.225090;151.640442;1.222401;208.360535;0.000000;0.000000;0.000000;0.000000;-515.000000;-157.000000;753.000000
1608557722;9;;;;;;;;;;;;;;;;;;-0.392266;5.060232;-9.571291;1.476306;-0.690863;2.829148;0.054672;-0.566577;1.217760;151.689926;1.307662;208.263855;0.000000;0.000000;0.000000;0.000000;-515.000000;-158.000000;748.000000
1608557722;10;;;;;;;;;;;;;;;;;;-0.353039;5.060232;-9.767424;1.479832;-0.714694;2.808281;0.022297;-0.537256;1.186911;151.782211;1.360714;207.970413;0.000000;0.000000;0.000000;0.000000;-516.000000;-165.000000;742.000000
1608557722;11;466842344;67425465;927;880;26;35;243;553;9;3;48922;199632026;1;92339952;77649;883;77;-0.313813;4.981778;-9.571291;1.479832;-0.718099;2.801325;0.009163;-0.526566;1.146288;151.854340;1.391231;207.689499;0.000000;0.000000;0.000000;0.000000;-516.000000;-166.000000;740.000000
1608557722;12;;;;;;;;;;;;;;;;;;-0.353039;5.217138;-9.845877;1.486885;-0.738526;2.763069;0.019548;-0.482889;1.127962;151.877090;1.433580;207.384384;0.000000;0.000000;0.000000;0.000000;-518.000000;-172.000000;729.000000
1608557722;13;;;;;;;;;;;;;;92312788;77891;1036;77;-0.274586;5.413271;-9.571291;1.497464;-0.758953;2.752636;0.014966;-0.458149;1.096503;151.740265;1.433267;207.239700;0.000000;0.000000;0.000000;0.000000;-521.000000;-178.000000;726.000000
1608557722;14;;;;;;;;;;;;;;;;;;-0.274586;5.334818;-9.688971;1.500991;-0.775975;2.710902;-0.021686;-0.408363;1.053131;151.682495;1.432152;206.882568;0.000000;0.000000;0.000000;0.000000;-522.000000;-183.000000;714.000000
1608557722;15;466842627;67425994;928;881;26;35;248;536;9;3;48922;399631499;1;;;;;-0.117680;5.217138;-9.728197;1.497464;-0.782784;2.703947;-0.039706;-0.371406;1.000903;151.693832;1.350015;206.377380;0.000000;0.000000;0.000000;0.000000;-521.000000;-185.000000;712.000000
1608557722;16;;;;;;;;;;;;;;92287336;78118;1160;77;-0.078453;5.413271;-9.492838;1.497464;-0.803211;2.665691;-0.011301;-0.321926;0.957531;151.555084;1.256147;206.024536;0.000000;0.000000;0.000000;0.000000;-521.000000;-191.000000;701.000000
1608557722;17;;;;;;;;;;;;;;;;;;-0.078453;5.334818;-9.532064;1.500991;-0.813425;2.641346;0.009774;-0.300240;0.887587;151.476135;1.171682;205.560623;0.000000;0.000000;0.000000;0.000000;-522.000000;-194.000000;694.000000
1608557722;18;;;;;;;;;;;;;;92265423;78314;1248;77;-0.039227;5.452498;-9.571291;1.497464;-0.837256;2.613523;0.040928;-0.305127;0.815199;151.361633;1.074917;205.087830;0.000000;0.000000;0.000000;0.000000;-521.000000;-201.000000;686.000000
1608557722;19;466842947;67426543;929;882;26;35;257;519;10;3;48922;599630972;1;;;;;0.274586;5.570177;-9.375158;1.500991;-0.850874;2.599612;0.089797;-0.332616;0.709825;151.153854;0.823187;204.661697;0.000000;0.000000;0.000000;0.000000;-522.000000;-205.000000;682.000000
1608557723;0;;;;;;;;;;;;;;;;;;0.196133;5.570177;-8.982892;1.504517;-0.854279;2.575267;0.138361;-0.309403;0.634078;150.858231;0.634561;204.406876;0.000000;0.000000;0.000000;0.000000;-523.000000;-206.000000;675.000000
1608557723;1;;;;;;;;;;;;;;92248559;78467;1292;77;0.039227;5.491724;-9.296705;1.508043;-0.874706;2.557878;0.158214;-0.269392;0.561691;150.715317;0.550290;203.951019;0.000000;0.000000;0.000000;0.000000;-524.000000;-212.000000;670.000000
1608557723;2;;;;;;;;;;;;;;;;;;-0.078453;5.609404;-9.414384;1.508043;-0.881515;2.543967;0.179900;-0.227853;0.479529;150.565002;0.536278;203.565689;0.000000;0.000000;0.000000;0.000000;-524.000000;-214.000000;666.000000
1608557723;3;466843278;67427084;931;883;26;35;262;506;10;3;48922;799630444;1;92232855;78609;1305;77;-0.156906;5.687857;-9.610517;1.497464;-0.874706;2.537011;0.185398;-0.180511;0.407142;150.446655;0.563147;203.236328;0.000000;0.000000;0.000000;0.000000;-521.000000;-212.000000;664.000000
1608557723;4;;;;;;;;;;;;;;;;;;-0.078453;5.687857;-9.492838;1.511570;-0.888324;2.526578;0.203418;-0.142332;0.327729;150.309113;0.547450;202.889633;0.000000;0.000000;0.000000;0.000000;-525.000000;-216.000000;661.000000
1608557723;5;;;;;;;;;;;;;;;;;;-0.039227;5.687857;-9.296705;1.508043;-0.888324;2.519622;0.200975;-0.083078;0.247095;150.132324;0.513327;202.640228;0.000000;0.000000;0.000000;0.000000;-524.000000;-216.000000;659.000000
1608557723;6;;;;;;;;;;;;;;92216503;78758;1299;77;-0.117680;5.609404;-9.335931;1.500991;-0.888324;2.523100;0.174097;-0.042150;0.162185;150.019196;0.523899;202.383179;0.000000;0.000000;0.000000;0.000000;-522.000000;-216.000000;660.000000
1608557723;7;466843610;67427620;932;884;26;35;265;496;10;3;48923;-370082;1;;;;;-0.078453;5.609404;-9.610517;1.500991;-0.888324;2.512667;0.137139;-0.014966;0.079718;149.990189;0.511903;202.006577;0.000000;0.000000;0.000000;0.000000;-522.000000;-216.000000;657.000000
1608557723;8;;;;;;;;;;;;;;92201054;78898;1286;77;-0.117680;5.570177;-9.845877;1.500991;-0.884919;2.526578;0.105985;0.061087;-0.007025;150.041336;0.520314;201.588715;0.000000;0.000000;0.000000;0.000000;-522.000000;-215.000000;661.000000
1608557723;9;;;;;;;;;;;;;;;;;;-0.274586;5.491724;-9.649744;1.504517;-0.888324;2.516145;0.083383;0.170737;-0.059559;150.072769;0.609951;201.247375;0.000000;0.000000;0.000000;0.000000;-523.000000;-216.000000;658.000000
1608557723;10;;;;;;;;;;;;;;;;;;-0.509946;5.491724;-9.414384;1.493938;-0.888324;2.530056;0.035430;0.259923;-0.135001;150.039856;0.816837;201.156342;0.000000;0.000000;0.000000;0.000000;-520.000000;-216.000000;662.000000
1608557723;11;466843959;67428159;933;886;27;35;269;487;10;3;48923;199629390;1;92187816;79018;1263;77;-0.117680;5.609404;-9.492838;1.493938;-0.884919;2.530056;0.009468;0.307265;-0.206472;149.977966;0.796300;201.012207;0.000000;0.000000;0.000000;0.000000;-520.000000;-215.000000;662.000000
1608557723;12;;;;;;;;;;;;;;;;;;0.235360;5.530951;-9.885103;1.493938;-0.881515;2.540489;-0.009468;0.346361;-0.304211;150.057373;0.597637;200.603363;0.000000;0.000000;0.000000;0.000000;-520.000000;-214.000000;665.000000
1608557723;13;;;;;;;;;;;;;;92172711;79155;1237;77;0.000000;5.413271;-9.453611;1.493938;-0.871301;2.554400;-0.009774;0.355218;-0.392175;150.072037;0.537874;200.438904;0.000000;0.000000;0.000000;0.000000;-520.000000;-211.000000;669.000000
1608557723;14;;;;;;;;;;;;;;;;;;0.078453;5.609404;-9.179025;1.483359;-0.878110;2.564834;-0.021380;0.361327;-0.492663;149.921890;0.442301;200.532654;0.000000;0.000000;0.000000;0.000000;-517.000000;-213.000000;672.000000
1608557723;15;466844326;67428695;934;887;27;36;274;476;10;3;48923;399628863;1;;;;;0.078453;5.452498;-9.061345;1.493938;-0.864492;2.575267;0.000305;0.392481;-0.593455;149.826050;0.355567;200.599274;0.000000;0.000000;0.000000;0.000000;-520.000000;-209.000000;675.000000
1608557723;16;;;;;;;;;;;;;;92157798;79290;1216;77;-0.274586;5.570177;-9.257478;1.490411;-0.861088;2.582223;0.016188;0.425162;-0.679587;149.739944;0.465597;200.804062;0.000000;0.000000;0.000000;0.000000;-519.000000;-208.000000;677.000000
1608557723;17;;;;;;;;;;;;;;;;;;0.078453;5.570177;-9.100572;1.486885;-0.847470;2.603090;0.040317;0.435547;-0.779464;149.619019;0.376909;201.012909;0.000000;0.000000;0.000000;0.000000;-518.000000;-204.000000;683.000000
1608557723;18;;;;;;;;;;;;;;92145979;79397;1190;77;-0.039227;5.609404;-9.296705;1.476306;-0.844065;2.617001;0.091935;0.466396;-0.849408;149.546555;0.359918;201.233917;0.000000;0.000000;0.000000;0.000000;-515.000000;-203.000000;687.000000
1608557723;19;466844708;67429224;935;888;27;36;277;464;10;3;48923;599628336;1;;;;;-0.117680;5.491724;-9.414384;1.476306;-0.827043;2.641346;0.157909;0.503964;-0.928820;149.566269;0.385787;201.418121;0.000000;0.000000;0.000000;0.000000;-515.000000;-198.000000;694.000000
1608557724;0;;;;;;;;;;;;;;;;;;-0.196133;5.609404;-9.532064;1.476306;-0.813425;2.658735;0.180511;0.532980;-0.978911;149.562073;0.448803;201.714890;0.000000;0.000000;0.000000;0.000000;-515.000000;-194.000000;699.000000
1608557724;1;;;;;;;;;;;;;;92133458;79510;1156;77;-0.235360;5.530951;-9.453611;1.469253;-0.792998;2.696991;0.173791;0.598037;-1.023504;149.572845;0.527025;202.109268;0.000000;0.000000;0.000000;0.000000;-513.000000;-188.000000;710.000000
1608557724;2;;;;;;;;;;;;;;;;;;-0.549172;5.334818;-9.688971;1.469253;-0.782784;2.710902;0.172875;0.667370;-1.048855;149.731827;0.758570;202.402557;0.000000;0.000000;0.000000;0.000000;-513.000000;-185.000000;714.000000
1608557724;3;466845124;67429772;937;889;27;36;284;453;10;3;48923;799627808;1;92120711;79626;1125;77;-0.470719;5.256365;-10.159690;1.462200;-0.762357;2.738725;0.126755;0.725708;-1.080620;150.023071;0.918357;202.497574;0.000000;0.000000;0.000000;0.000000;-511.000000;-179.000000;722.000000
1608557724;4;;;;;;;;;;;;;;;;;;-0.274586;5.609404;-9.885103;1.451621;-0.758953;2.763069;0.079412;0.761138;-1.115440;150.063461;0.964915;202.942398;0.000000;0.000000;0.000000;0.000000;-508.000000;-178.000000;729.000000
1608557724;5;;;;;;;;;;;;;;;;;;-0.509946;5.099458;-9.688971;1.455148;-0.745335;2.780458;0.039706;0.797179;-1.121548;150.281281;1.135084;203.213715;0.000000;0.000000;0.000000;0.000000;-509.000000;-174.000000;734.000000
1608557724;6;;;;;;;;;;;;;;92109273;79730;1092;77;-0.392266;5.217138;-9.845877;1.437515;-0.735121;2.790892;0.010385;0.821919;-1.148426;150.461334;1.223196;203.508560;0.000000;0.000000;0.000000;0.000000;-504.000000;-171.000000;737.000000
1608557724;7;466845555;67430333;938;890;27;36;292;443;10;3;48924;-372718;1;;;;;-0.431493;5.138685;-9.649744;1.437515;-0.721503;2.804803;-0.030238;0.827722;-1.168280;150.611588;1.326895;203.878891;0.000000;0.000000;0.000000;0.000000;-504.000000;-167.000000;741.000000
1608557724;8;;;;;;;;;;;;;;92096727;79843;1064;77;-0.431493;4.981778;-9.963557;1.419884;-0.721503;2.808281;-0.104458;0.795041;-1.194852;150.893936;1.416030;203.991440;0.000000;0.000000;0.000000;0.000000;-499.000000;-167.000000;742.000000
1608557724;9;;;;;;;;;;;;;;;;;;-0.274586;5.060232;-10.277370;1.416357;-0.724908;2.811759;-0.164323;0.718988;-1.229671;151.183151;1.411737;203.962372;0.000000;0.000000;0.000000;0.000000;-498.000000;-168.000000;743.000000
1608557724;10;;;;;;;;;;;;;;;;;;-0.117680;5.177911;-10.002784;1.405778;-0.721503;2.811759;-0.200058;0.638659;-1.266018;151.328033;1.330423;204.100677;0.000000;0.000000;0.000000;0.000000;-495.000000;-167.000000;743.000000
1608557724;11;466845991;67430872;939;892;27;37;297;431;10;3;48924;199626753;1;92086880;79933;1031;77;-0.117680;5.138685;-9.845877;1.391672;-0.741930;2.801325;-0.207083;0.550695;-1.267240;151.439178;1.258088;204.202530;0.000000;0.000000;0.000000;0.000000;-491.000000;-173.000000;740.000000
1608557724;12;;;;;;;;;;;;;;;;;;-0.078453;5.217138;-9.571291;1.391672;-0.735121;2.794370;-0.176845;0.489608;-1.261131;151.435867;1.173515;204.459473;0.000000;0.000000;0.000000;0.000000;-491.000000;-171.000000;738.000000
1608557724;13;;;;;;;;;;;;;;92091731;79889;946;77;-0.274586;5.295591;-9.414384;1.370514;-0.745335;2.773503;-0.118202;0.445932;-1.228144;151.356522;1.201783;204.879288;0.000000;0.000000;0.000000;0.000000;-485.000000;-174.000000;732.000000
1608557724;14;;;;;;;;;;;;;;;;;;-0.470719;5.491724;-9.571291;1.374041;-0.755548;2.766547;-0.064446;0.433409;-1.185995;151.236298;1.325866;205.381775;0.000000;0.000000;0.000000;0.000000;-486.000000;-177.000000;730.000000
1608557724;15;466846427;67431433;940;893;28;37;302;426;10;3;48924;399626225;1;;;;;-0.470719;5.374045;-9.649744;1.359935;-0.758953;2.752636;-0.010079;0.419664;-1.137736;151.201294;1.437311;205.703018;0.000000;0.000000;0.000000;0.000000;-482.000000;-178.000000;726.000000
1608557724;16;;;;;;;;;;;;;;92108220;79739;785;77;-0.470719;5.374045;-9.571291;1.356409;-0.765762;2.745680;0.029627;0.426689;-1.095587;151.149872;1.539132;206.001099;0.000000;0.000000;0.000000;0.000000;-481.000000;-180.000000;724.000000
1608557724;17;;;;;;;;;;;;;;;;;;-0.706079;5.374045;-9.649744;1.352882;-0.772571;2.731769;0.054978;0.446542;-1.013425;151.123505;1.750990;206.313965;0.000000;0.000000;0.000000;0.000000;-480.000000;-182.000000;720.000000
1608557724;18;;;;;;;;;;;;;;92130951;79533;567;77;-0.862985;5.295591;-9.728197;1.352882;-0.775975;2.721336;0.062614;0.490219;-0.921795;151.154984;2.021404;206.546875;0.000000;0.000000;0.000000;0.000000;-480.000000;-183.000000;717.000000
1608557724;19;466846860;67432005;942;894;28;37;307;425;10;3;48924;599625697;1;;;;;-0.627626;5.138685;-9.924331;1.345829;-0.782784;2.707424;0.052229;0.542754;-0.846354;151.302048;2.140696;206.374146;0.000000;0.000000;0.000000;0.000000;-478.000000;-185.000000;713.000000
1608557725;0;;;;;;;;;;;;;;;;;;-0.745305;5.295591;-9.845877;1.338777;-0.779380;2.696991;0.043677;0.554666;-0.777020;151.344498;2.308032;206.450531;0.000000;0.000000;0.000000;0.000000;-476.000000;-184.000000;710.000000
1608557725;1;;;;;;;;;;;;;;92153838;79326;323;77;-0.353039;5.295591;-9.924331;1.321145;-0.789593;2.679602;0.032070;0.540005;-0.745561;151.401642;2.256990;206.263840;0.000000;0.000000;0.000000;0.000000;-471.000000;-187.000000;705.000000
1608557725;2;;;;;;;;;;;;;;;;;;-0.156906;5.256365;-9.963557;1.328198;-0.792998;2.672646;-0.003054;0.490525;-0.719599;151.480057;2.111091;205.930405;0.000000;0.000000;0.000000;0.000000;-473.000000;-188.000000;703.000000
1608557725;3;466847280;67432580;943;896;28;37;309;429;10;3;48924;799625170;1;92176248;79123;85;77;-0.039227;5.177911;-9.963557;1.324671;-0.799807;2.655257;-0.043371;0.448070;-0.713185;151.586044;1.919998;205.474854;0.000000;0.000000;0.000000;0.000000;-472.000000;-190.000000;698.000000
1608557725;4;;;;;;;;;;;;;;;;;;0.000000;5.217138;-9.688971;1.314092;-0.810020;2.644824;-0.070860;0.404698;-0.707993;151.597382;1.727998;205.163940;0.000000;0.000000;0.000000;0.000000;-469.000000;-193.000000;695.000000
1608557725;5;;;;;;;;;;;;;;;;;;0.000000;5.295591;-9.845877;1.296460;-0.823638;2.623957;-0.072082;0.346055;-0.719294;151.610306;1.555198;204.823730;0.000000;0.000000;0.000000;0.000000;-464.000000;-197.000000;689.000000
1608557725;6;;;;;;;;;;;;;;92194798;78954;-120;77;0.078453;5.334818;-9.492838;1.310566;-0.827043;2.606568;-0.055894;0.310625;-0.729984;151.515762;1.358399;204.610413;0.000000;0.000000;0.000000;0.000000;-468.000000;-198.000000;684.000000
1608557725;7;466847683;67433112;945;897;28;37;306;426;10;3;48925;-375356;1;;;;;0.039227;5.295591;-9.571291;1.296460;-0.850874;2.589179;-0.058032;0.279776;-0.737620;151.468719;1.202013;204.278412;0.000000;0.000000;0.000000;0.000000;-464.000000;-205.000000;679.000000
1608557725;8;;;;;;;;;;;;;;92209136;78824;-277;77;0.078453;5.060232;-9.532064;1.299986;-0.847470;2.568312;-0.070555;0.274889;-0.745561;151.525635;1.040160;203.756149;0.000000;0.000000;0.000000;0.000000;-465.000000;-204.000000;673.000000
1608557725;9;;;;;;;;;;;;;;;;;;0.000000;5.138685;-9.414384;1.282355;-0.861088;2.550923;-0.060476;0.276416;-0.748004;151.510361;0.936144;203.378967;0.000000;0.000000;0.000000;0.000000;-460.000000;-208.000000;668.000000
1608557725;10;;;;;;;;;;;;;;;;;;0.039227;5.177911;-9.610517;1.289407;-0.878110;2.523100;-0.046426;0.294437;-0.738231;151.527863;0.821942;202.847702;0.000000;0.000000;0.000000;0.000000;-462.000000;-213.000000;660.000000
1608557725;11;466848074;67433643;946;899;28;37;303;428;10;3;48925;199624116;1;92219403;78731;-385;77;0.000000;5.256365;-9.296705;1.285881;-0.891728;2.505711;-0.023213;0.329256;-0.722348;151.426697;0.739748;202.519501;0.000000;0.000000;0.000000;0.000000;-461.000000;-217.000000;655.000000
1608557725;12;;;;;;;;;;;;;;;;;;0.039227;5.256365;-9.375158;1.289407;-0.895133;2.481366;0.012217;0.350331;-0.706466;151.356232;0.644862;202.110077;0.000000;0.000000;0.000000;0.000000;-462.000000;-218.000000;648.000000
1608557725;13;;;;;;;;;;;;;;92226260;78669;-446;77;0.274586;5.334818;-9.100572;1.282355;-0.905346;2.474411;0.059865;0.357662;-0.703717;151.182709;0.431271;201.820633;0.000000;0.000000;0.000000;0.000000;-460.000000;-221.000000;646.000000
1608557725;14;;;;;;;;;;;;;;;;;;0.313813;5.177911;-9.218252;1.271775;-0.915560;2.450066;0.082467;0.352469;-0.704633;151.132156;0.218135;201.297791;0.000000;0.000000;0.000000;0.000000;-457.000000;-224.000000;639.000000
1608557725;15;466848473;67434193;948;900;28;37;303;431;10;3;48925;399623588;1;;;;;0.117680;5.177911;-9.414384;1.271775;-0.918964;2.439633;0.093768;0.366214;-0.700051;151.137878;0.133570;200.758789;0.000000;0.000000;0.000000;0.000000;-457.000000;-225.000000;636.000000
1608557725;16;;;;;;;;;;;;;;92230442;78631;-469;77;0.313813;5.138685;-9.532064;1.271775;-0.925773;2.418766;0.080940;0.403171;-0.704327;151.191223;-0.045779;200.072388;0.000000;0.000000;0.000000;0.000000;-457.000000;-227.000000;630.000000
1608557725;17;;;;;;;;;;;;;;;;;;0.392266;4.785646;-9.453611;1.268249;-0.935987;2.404855;0.075442;0.419970;-0.703411;151.387146;-0.253216;199.109314;0.000000;0.000000;0.000000;0.000000;-456.000000;-230.000000;626.000000
1608557725;18;;;;;;;;;;;;;;92231651;78620;-460;77;0.353039;5.177911;-9.728197;1.257670;-0.949605;2.383987;0.073304;0.427300;-0.724791;151.445999;-0.411380;198.387344;0.000000;0.000000;0.000000;0.000000;-453.000000;-234.000000;620.000000
1608557725;19;466848858;67434726;949;902;28;37;299;433;9;3;48925;599623061;1;;;;;0.470719;5.374045;-9.688971;1.264723;-0.956414;2.370076;0.107207;0.415999;-0.755335;151.399887;-0.613519;197.835251;0.000000;0.000000;0.000000;0.000000;-455.000000;-236.000000;616.000000
1608557726;0;;;;;;;;;;;;;;;;;;0.666852;5.374045;-9.728197;1.261196;-0.966627;2.349209;0.120035;0.370490;-0.814283;151.368195;-0.895541;197.213242;0.000000;0.000000;0.000000;0.000000;-454.000000;-239.000000;610.000000
1608557726;1;;;;;;;;;;;;;;92229929;78636;-422;77;0.745305;5.099458;-9.532064;1.261196;-0.970032;2.338776;0.122478;0.342084;-0.853073;151.416809;-1.200380;196.474442;0.000000;0.000000;0.000000;0.000000;-454.000000;-240.000000;607.000000
1608557726;2;;;;;;;;;;;;;;;;;;0.549172;5.021005;-9.335931;1.254143;-0.987054;2.307476;0.113010;0.340252;-0.867123;151.447937;-1.376906;195.746384;0.000000;0.000000;0.000000;0.000000;-452.000000;-245.000000;598.000000
1608557726;3;466849236;67435252;951;903;28;37;296;434;9;3;48925;799622534;1;92223513;78694;-352;77;0.431493;5.021005;-9.728197;1.254143;-0.993863;2.293564;0.122478;0.397979;-0.868345;151.573196;-1.464928;194.883560;0.000000;0.000000;0.000000;0.000000;-452.000000;-247.000000;594.000000
1608557726;4;;;;;;;;;;;;;;;;;;0.392266;5.177911;-10.042010;1.254143;-1.004077;2.262264;0.125838;0.432798;-0.870483;151.688217;-1.517280;194.010422;0.000000;0.000000;0.000000;0.000000;-452.000000;-250.000000;585.000000
1608557726;5;;;;;;;;;;;;;;;;;;0.549172;5.177911;-9.571291;1.250617;-1.017695;2.251831;0.146608;0.439212;-0.879951;151.678146;-1.654453;193.341171;0.000000;0.000000;0.000000;0.000000;-451.000000;-254.000000;582.000000
1608557726;6;;;;;;;;;;;;;;92212682;78792;-253;77;0.823759;5.021005;-9.414384;1.250617;-1.027908;2.220530;0.133474;0.402866;-0.911105;151.703094;-1.930490;192.556290;0.000000;0.000000;0.000000;0.000000;-451.000000;-257.000000;573.000000
1608557726;7;466849639;67435786;952;905;29;37;298;427;9;3;48926;-377992;1;;;;;0.902212;5.021005;-9.571291;1.247091;-1.041526;2.217052;0.121868;0.360105;-0.923628;151.764694;-2.214604;191.726166;0.000000;0.000000;0.000000;0.000000;-450.000000;-261.000000;572.000000
1608557726;8;;;;;;;;;;;;;;92197104;78934;-126;77;0.862985;4.942552;-9.806650;1.247091;-1.048335;2.189230;0.114537;0.337198;-0.933096;151.913422;-2.442471;190.749924;0.000000;0.000000;0.000000;0.000000;-450.000000;-263.000000;564.000000
1608557726;9;;;;;;;;;;;;;;;;;;0.549172;5.099458;-9.335931;1.247091;-1.061953;2.171841;0.116370;0.362243;-0.897972;151.857666;-2.493747;190.130386;0.000000;0.000000;0.000000;0.000000;-450.000000;-267.000000;559.000000
1608557726;10;;;;;;;;;;;;;;;;;;0.431493;5.021005;-9.571291;1.257670;-1.072167;2.147496;0.097433;0.386372;-0.867428;151.903809;-2.472989;189.321320;0.000000;0.000000;0.000000;0.000000;-453.000000;-270.000000;552.000000
1608557726;11;466850037;67436312;954;906;29;37;297;421;9;3;48926;199621481;1;92178658;79101;19;77;0.431493;5.099458;-10.002784;1.247091;-1.078976;2.140541;0.072388;0.412029;-0.837802;152.012177;-2.445776;188.436035;0.000000;0.000000;0.000000;0.000000;-450.000000;-272.000000;550.000000
1608557726;12;;;;;;;;;;;;;;;;;;0.509946;4.942552;-9.728197;1.247091;-1.099403;2.109240;0.020464;0.419970;-0.808480;152.117615;-2.468768;187.487885;0.000000;0.000000;0.000000;0.000000;-450.000000;-278.000000;541.000000
1608557726;13;;;;;;;;;;;;;;92157330;79294;180;77;0.588399;4.785646;-9.139798;1.254143;-1.102807;2.095329;-0.016493;0.412945;-0.793819;152.142181;-2.548311;186.718292;0.000000;0.000000;0.000000;0.000000;-452.000000;-279.000000;537.000000
1608557726;14;;;;;;;;;;;;;;;;;;0.588399;4.707192;-8.982892;1.250617;-1.116425;2.070984;-0.061697;0.396146;-0.774882;152.162445;-2.625532;185.932159;0.000000;0.000000;0.000000;0.000000;-451.000000;-283.000000;530.000000
1608557726;15;466850419;67436833;955;908;29;37;295;418;9;3;48926;399620955;1;;;;;0.627626;5.060232;-9.100572;1.247091;-1.126639;2.050117;-0.073304;0.382402;-0.737009;152.038651;-2.707909;185.386993;0.000000;0.000000;0.000000;0.000000;-450.000000;-286.000000;524.000000
1608557726;16;;;;;;;;;;;;;;92132700;79517;354;77;0.470719;5.021005;-9.022118;1.250617;-1.143661;2.025773;-0.043982;0.403782;-0.688750;151.925110;-2.698146;184.788177;0.000000;0.000000;0.000000;0.000000;-451.000000;-291.000000;517.000000
1608557726;17;;;;;;;;;;;;;;;;;;0.470719;5.374045;-8.786759;1.254143;-1.147066;2.004906;0.006720;0.386983;-0.645684;151.587585;-2.689999;184.593964;0.000000;0.000000;0.000000;0.000000;-452.000000;-292.000000;511.000000
1608557726;18;;;;;;;;;;;;;;92106182;79758;532;77;0.588399;5.138685;-9.414384;1.247091;-1.157279;1.980561;0.045204;0.389732;-0.600480;151.566116;-2.735008;183.855148;0.000000;0.000000;0.000000;0.000000;-450.000000;-295.000000;504.000000
1608557726;19;466850788;67437318;956;909;29;37;290;409;9;3;48926;599620430;1;;;;;0.509946;5.021005;-9.257478;1.247091;-1.170897;1.977083;0.075442;0.367130;-0.542754;151.562103;-2.738724;183.104156;0.000000;0.000000;0.000000;0.000000;-450.000000;-299.000000;503.000000
1608557727;0;;;;;;;;;;;;;;;;;;0.588399;5.256365;-8.590626;1.250617;-1.177706;1.963172;0.080023;0.353996;-0.482889;151.259781;-2.799218;182.876862;0.000000;0.000000;0.000000;0.000000;-451.000000;-301.000000;499.000000
1608557727;1;;;;;;;;;;;;;;92076371;80028;711;77;0.431493;5.021005;-8.747532;1.247091;-1.174302;1.945783;0.100182;0.331089;-0.431576;151.148270;-2.764263;182.376755;0.000000;0.000000;0.000000;0.000000;-450.000000;-300.000000;494.000000
1608557727;2;;;;;;;;;;;;;;;;;;0.588399;5.099458;-9.022118;1.250617;-1.181111;1.931872;0.099266;0.308487;-0.389121;151.085861;-2.812790;181.816345;0.000000;0.000000;0.000000;0.000000;-451.000000;-302.000000;490.000000
1608557727;3;466851143;67437792;957;910;29;36;285;407;9;3;48926;799619904;1;92047566;80289;883;77;0.745305;4.942552;-8.904439;1.247091;-1.187920;1.928394;0.114232;0.250760;-0.350637;151.073975;-2.950070;181.217545;0.000000;0.000000;0.000000;0.000000;-450.000000;-304.000000;489.000000
1608557727;4;;;;;;;;;;;;;;;;;;0.980665;4.864099;-8.119907;1.240038;-1.194729;1.924916;0.133779;0.174097;-0.332922;150.874283;-3.246572;180.956299;0.000000;0.000000;0.000000;0.000000;-448.000000;-306.000000;488.000000
1608557727;5;;;;;;;;;;;;;;;;;;0.470719;4.864099;-8.355266;1.254143;-1.194729;1.921438;0.140804;0.138972;-0.276416;150.766251;-3.200660;180.584183;0.000000;0.000000;0.000000;0.000000;-452.000000;-306.000000;487.000000
1608557727;6;;;;;;;;;;;;;;92018522;80552;1043;77;0.588399;4.981778;-8.747532;1.243564;-1.198133;1.917960;0.131641;0.114537;-0.237321;150.723465;-3.215109;180.142609;0.000000;0.000000;0.000000;0.000000;-449.000000;-307.000000;486.000000
1608557727;7;466851497;67438271;958;911;29;36;282;408;9;3;48927;-380621;1;;;;;0.353039;4.903325;-8.904439;1.243564;-1.198133;1.914483;0.131947;0.090713;-0.167377;150.767151;-3.092507;179.583298;0.000000;0.000000;0.000000;0.000000;-449.000000;-307.000000;485.000000
1608557727;8;;;;;;;;;;;;;;91991784;80795;1178;77;0.313813;5.021005;-9.100572;1.247091;-1.201538;1.911005;0.125227;0.108429;-0.112399;150.801788;-2.956193;179.065033;0.000000;0.000000;0.000000;0.000000;-450.000000;-308.000000;484.000000
1608557727;9;;;;;;;;;;;;;;;;;;0.313813;5.138685;-9.179025;1.250617;-1.201538;1.907527;0.116981;0.089797;-0.047037;150.797485;-2.831445;178.652573;0.000000;0.000000;0.000000;0.000000;-451.000000;-308.000000;483.000000
1608557727;10;;;;;;;;;;;;;;;;;;0.313813;5.021005;-9.061345;1.243564;-1.204942;1.917960;0.087048;0.068111;0.010079;150.818604;-2.721810;178.245636;0.000000;0.000000;0.000000;0.000000;-449.000000;-309.000000;486.000000
1608557727;11;466851852;67438752;960;913;29;36;280;413;9;3;48927;199618851;1;91969118;81000;1271;77;0.313813;4.981778;-9.139798;1.254143;-1.194729;1.907527;0.072693;0.059254;0.084910;150.877426;-2.622308;177.832962;0.000000;0.000000;0.000000;0.000000;-452.000000;-306.000000;483.000000
1608557727;12;;;;;;;;;;;;;;;;;;0.235360;4.981778;-9.100572;1.243564;-1.198133;1.917960;0.076664;0.040012;0.147218;150.920013;-2.490034;177.476135;0.000000;0.000000;0.000000;0.000000;-449.000000;-307.000000;486.000000
1608557727;13;;;;;;;;;;;;;;91947970;81192;1333;77;0.353039;5.060232;-8.747532;1.254143;-1.191324;1.917960;0.079412;0.012828;0.217163;150.823196;-2.441110;177.424164;0.000000;0.000000;0.000000;0.000000;-452.000000;-305.000000;486.000000
1608557727;14;;;;;;;;;;;;;;;;;;0.274586;5.021005;-8.629853;1.243564;-1.194729;1.921438;0.086132;-0.010690;0.282831;150.721725;-2.354534;177.390610;0.000000;0.000000;0.000000;0.000000;-449.000000;-306.000000;487.000000
1608557727;15;466852196;67439217;961;914;29;36;278;414;9;3;48927;399618324;1;;;;;0.196133;5.138685;-8.747532;1.250617;-1.181111;1.928394;0.096211;-0.023518;0.346666;150.606384;-2.229835;177.467270;0.000000;0.000000;0.000000;0.000000;-451.000000;-302.000000;489.000000
1608557727;16;;;;;;;;;;;;;;91927012;81382;1372;77;0.549172;5.334818;-8.747532;1.243564;-1.184515;1.931872;0.119424;-0.067806;0.398284;150.408005;-2.313657;177.697815;0.000000;0.000000;0.000000;0.000000;-449.000000;-303.000000;490.000000
1608557727;17;;;;;;;;;;;;;;;;;;0.549172;5.334818;-9.218252;1.240038;-1.177706;1.945783;0.104458;-0.127671;0.431882;150.361328;-2.377461;177.739197;0.000000;0.000000;0.000000;0.000000;-448.000000;-301.000000;494.000000
1608557727;18;;;;;;;;;;;;;;91910119;81535;1385;77;0.666852;5.295591;-9.767424;1.236511;-1.164088;1.959694;0.083078;-0.179289;0.458149;150.478699;-2.483189;177.592453;0.000000;0.000000;0.000000;0.000000;-447.000000;-297.000000;498.000000
1608557727;19;466852546;67439683;963;915;29;36;277;413;9;3;48927;599617798;1;;;;;0.706079;5.099458;-8.904439;1.225932;-1.160684;1.973606;0.057727;-0.254120;0.497855;150.450928;-2.628503;177.723618;0.000000;0.000000;0.000000;0.000000;-444.000000;-296.000000;502.000000
1608557728;0;;;;;;;;;;;;;;;;;;0.706079;5.060232;-9.571291;1.240038;-1.157279;1.973606;0.079718;-0.268781;0.525955;150.619354;-2.738790;177.535934;0.000000;0.000000;0.000000;0.000000;-448.000000;-295.000000;502.000000
1608557728;1;;;;;;;;;;;;;;91893826;81683;1376;77;0.666852;5.138685;-8.982892;1.240038;-1.136852;2.001428;0.058032;-0.313679;0.549779;150.580246;-2.833601;177.811310;0.000000;0.000000;0.000000;0.000000;-448.000000;-289.000000;510.000000
1608557728;2;;;;;;;;;;;;;;;;;;0.706079;5.177911;-9.649744;1.229459;-1.133448;2.008384;0.037874;-0.337808;0.580933;150.700500;-2.919146;177.825500;0.000000;0.000000;0.000000;0.000000;-445.000000;-288.000000;512.000000
1608557728;3;466852866;67440149;964;917;30;36;273;420;10;3;48927;799617271;1;91882568;81785;1342;77;0.509946;5.138685;-9.492838;1.232985;-1.126639;2.029250;0.024129;-0.340252;0.614530;150.787689;-2.897704;177.937164;0.000000;0.000000;0.000000;0.000000;-446.000000;-286.000000;518.000000
1608557728;4;;;;;;;;;;;;;;;;;;0.470719;5.413271;-9.414384;1.240038;-1.116425;2.039684;0.032376;-0.325286;0.670730;150.719040;-2.856129;178.352463;0.000000;0.000000;0.000000;0.000000;-448.000000;-283.000000;521.000000
1608557728;5;;;;;;;;;;;;;;;;;;0.313813;5.256365;-9.492838;1.243564;-1.113021;2.064029;0.033903;-0.343306;0.716545;150.749741;-2.736171;178.631424;0.000000;0.000000;0.000000;0.000000;-449.000000;-282.000000;528.000000
1608557728;6;;;;;;;;;;;;;;91874874;81854;1277;77;0.784532;5.060232;-9.924331;1.232985;-1.102807;2.074462;0.038485;-0.344222;0.752891;150.973160;-2.865396;178.603378;0.000000;0.000000;0.000000;0.000000;-446.000000;-279.000000;531.000000
1608557728;7;466853181;67440618;966;919;30;36;268;426;10;3;48928;-383255;1;;;;;0.431493;5.413271;-9.375158;1.240038;-1.092594;2.098807;0.041539;-0.372322;0.768468;150.875610;-2.807105;179.186050;0.000000;0.000000;0.000000;0.000000;-448.000000;-276.000000;538.000000
1608557728;8;;;;;;;;;;;;;;91870494;81894;1188;77;0.470719;5.138685;-9.845877;1.236511;-1.072167;2.116196;0.048564;-0.372017;0.793819;151.031998;-2.769089;179.390259;0.000000;0.000000;0.000000;0.000000;-447.000000;-270.000000;543.000000
1608557728;9;;;;;;;;;;;;;;;;;;0.235360;5.099458;-9.179025;1.236511;-1.058549;2.147496;0.062308;-0.362243;0.834442;151.023346;-2.620583;179.972107;0.000000;0.000000;0.000000;0.000000;-447.000000;-266.000000;552.000000
1608557728;10;;;;;;;;;;;;;;;;;;0.666852;4.981778;-9.610517;1.229459;-1.051740;2.164885;0.063225;-0.387288;0.839940;151.180954;-2.711039;180.235397;0.000000;0.000000;0.000000;0.000000;-445.000000;-264.000000;557.000000
1608557728;11;466853512;67441126;968;921;30;36;271;436;10;3;48928;199616216;1;91870398;81895;1074;77;0.823759;5.138685;-9.414384;1.240038;-1.027908;2.196186;0.080940;-0.403171;0.842078;151.200150;-2.879126;180.813965;0.000000;0.000000;0.000000;0.000000;-448.000000;-257.000000;566.000000
1608557728;12;;;;;;;;;;;;;;;;;;0.941438;5.021005;-9.022118;1.250617;-1.021099;2.210097;0.079107;-0.456316;0.838412;151.170456;-3.112190;181.442261;0.000000;0.000000;0.000000;0.000000;-451.000000;-255.000000;570.000000
1608557728;13;;;;;;;;;;;;;;91873325;81868;943;77;0.509946;4.785646;-8.747532;1.243564;-1.007481;2.248353;0.080634;-0.500604;0.819476;151.185181;-3.093742;182.110672;0.000000;0.000000;0.000000;0.000000;-449.000000;-251.000000;581.000000
1608557728;14;;;;;;;;;;;;;;;;;;0.470719;5.021005;-8.708306;1.243564;-0.993863;2.265742;0.118202;-0.494801;0.828333;151.070007;-3.052476;183.027695;0.000000;0.000000;0.000000;0.000000;-449.000000;-247.000000;586.000000
1608557728;15;466853869;67441655;969;922;30;36;277;436;10;3;48928;399615690;1;;;;;0.588399;4.942552;-8.590626;1.247091;-0.973436;2.300520;0.131947;-0.482889;0.834136;150.971649;-3.086986;183.955048;0.000000;0.000000;0.000000;0.000000;-450.000000;-241.000000;596.000000
1608557728;16;;;;;;;;;;;;;;91877880;81827;800;77;0.588399;5.021005;-8.786759;1.257670;-0.966627;2.321387;0.154243;-0.472199;0.844826;150.900009;-3.111038;184.817368;0.000000;0.000000;0.000000;0.000000;-453.000000;-239.000000;602.000000
1608557728;17;;;;;;;;;;;;;;;;;;0.706079;4.942552;-9.218252;1.257670;-0.946200;2.356165;0.148135;-0.456622;0.839329;150.990128;-3.186122;185.445389;0.000000;0.000000;0.000000;0.000000;-453.000000;-233.000000;612.000000
1608557728;18;;;;;;;;;;;;;;91884479;81767;651;77;0.588399;4.785646;-8.904439;1.257670;-0.932582;2.380510;0.128893;-0.436769;0.833525;151.065567;-3.200628;186.129181;0.000000;0.000000;0.000000;0.000000;-453.000000;-229.000000;619.000000
1608557728;19;466854234;67442183;971;923;30;36;281;435;10;3;48928;599615164;1;;;;;0.706079;4.707192;-9.022118;1.268249;-0.918964;2.415288;0.102320;-0.437379;0.822530;151.203735;-3.277476;186.700302;0.000000;0.000000;0.000000;0.000000;-456.000000;-225.000000;629.000000
1608557729;0;;;;;;;;;;;;;;;;;;0.706079;4.707192;-9.100572;1.271775;-0.901942;2.432677;0.118813;-0.429744;0.811840;151.348389;-3.343950;187.265076;0.000000;0.000000;0.000000;0.000000;-457.000000;-220.000000;634.000000
1608557729;1;;;;;;;;;;;;;;91888959;81727;516;77;0.862985;4.707192;-8.590626;1.268249;-0.891728;2.470933;0.116981;-0.455095;0.771217;151.341522;-3.513020;188.059341;0.000000;0.000000;0.000000;0.000000;-456.000000;-217.000000;645.000000
1608557729;2;;;;;;;;;;;;;;;;;;0.666852;4.471833;-8.825985;1.275302;-0.881515;2.484844;0.083689;-0.482278;0.754724;151.520401;-3.547299;188.562271;0.000000;0.000000;0.000000;0.000000;-458.000000;-214.000000;649.000000
1608557729;3;466854601;67442716;972;925;30;36;285;434;10;3;48928;799614638;1;91894992;81672;394;77;0.509946;4.236473;-8.747532;1.285881;-0.854279;2.512667;0.039706;-0.489914;0.730900;151.784256;-3.492906;188.998535;0.000000;0.000000;0.000000;0.000000;-461.000000;-206.000000;657.000000
1608557729;4;;;;;;;;;;;;;;;;;;0.627626;4.314926;-8.433719;1.285881;-0.854279;2.537011;0.013134;-0.469144;0.723264;151.896286;-3.522652;189.614548;0.000000;0.000000;0.000000;0.000000;-461.000000;-206.000000;664.000000
1608557729;5;;;;;;;;;;;;;;;;;;0.392266;4.236473;-8.747532;1.296460;-0.847470;2.554400;0.010690;-0.431271;0.735787;152.122559;-3.401502;190.056427;0.000000;0.000000;0.000000;0.000000;-464.000000;-204.000000;669.000000
1608557729;6;;;;;;;;;;;;;;91902391;81605;277;77;0.274586;4.314926;-8.512172;1.292934;-0.840661;2.578745;0.010079;-0.400422;0.748310;152.222214;-3.226161;190.740967;0.000000;0.000000;0.000000;0.000000;-463.000000;-202.000000;676.000000
1608557729;7;466854971;67443248;973;926;30;36;288;435;10;3;48929;-385887;1;;;;;0.078453;4.314926;-7.923773;1.296460;-0.830447;2.589179;0.027183;-0.372017;0.762054;152.142944;-2.953364;191.775848;0.000000;0.000000;0.000000;0.000000;-464.000000;-199.000000;679.000000
1608557729;8;;;;;;;;;;;;;;91910978;81527;165;77;0.431493;4.354153;-8.512172;1.310566;-0.813425;2.613523;0.030238;-0.386067;0.753197;152.219589;-2.916427;192.402283;0.000000;0.000000;0.000000;0.000000;-468.000000;-194.000000;686.000000
1608557729;9;;;;;;;;;;;;;;;;;;0.392266;4.432606;-7.845320;1.310566;-0.820234;2.620479;0.054672;-0.370795;0.762054;152.050995;-2.874048;193.357697;0.000000;0.000000;0.000000;0.000000;-468.000000;-196.000000;688.000000
1608557729;10;;;;;;;;;;;;;;;;;;0.313813;4.197247;-8.355266;1.310566;-0.799807;2.644824;0.079107;-0.360716;0.777326;152.178650;-2.778867;193.885605;0.000000;0.000000;0.000000;0.000000;-468.000000;-190.000000;695.000000
1608557729;11;466855339;67443802;975;928;30;36;291;439;10;3;48929;199613586;1;91918621;81458;64;77;0.235360;4.158020;-8.551399;1.310566;-0.799807;2.655257;0.110567;-0.357967;0.792292;152.367722;-2.642770;194.274872;0.000000;0.000000;0.000000;0.000000;-468.000000;-190.000000;698.000000
1608557729;12;;;;;;;;;;;;;;;;;;0.196133;4.393379;-8.786759;1.321145;-0.775975;2.676124;0.123395;-0.386983;0.790459;152.474457;-2.492869;194.855011;0.000000;0.000000;0.000000;0.000000;-471.000000;-183.000000;704.000000
1608557729;13;;;;;;;;;;;;;;;;;;-0.039227;4.118793;-8.865212;1.331724;-0.775975;2.686558;0.131336;-0.424857;0.794736;152.735062;-2.220590;195.166153;0.000000;0.000000;0.000000;0.000000;-474.000000;-183.000000;707.000000
1608557729;14;;;;;;;;;;;;;;91924706;81403;-16;77;0.117680;4.354153;-9.061345;1.335250;-0.765762;2.714380;0.111177;-0.478613;0.790459;152.895050;-2.065597;195.603622;0.000000;0.000000;0.000000;0.000000;-475.000000;-180.000000;715.000000
1608557729;15;466855719;67444365;977;929;30;36;295;442;10;3;48929;399613059;1;;;;;0.000000;4.511059;-8.159133;1.342303;-0.755548;2.724813;0.121562;-0.528398;0.790459;152.711807;-1.859037;196.651932;0.000000;0.000000;0.000000;0.000000;-477.000000;-177.000000;718.000000
1608557729;16;;;;;;;;;;;;;;91933153;81326;-90;77;-0.117680;4.667966;-8.825985;1.349356;-0.745335;2.745680;0.136223;-0.551917;0.806342;152.653259;-1.605605;197.525589;0.000000;0.000000;0.000000;0.000000;-479.000000;-174.000000;724.000000
1608557729;17;;;;;;;;;;;;;;;;;;-0.156906;4.667966;-8.786759;1.359935;-0.741930;2.752636;0.161574;-0.564134;0.829555;152.589996;-1.354697;198.353210;0.000000;0.000000;0.000000;0.000000;-482.000000;-173.000000;726.000000
1608557729;18;;;;;;;;;;;;;;;;;;-0.196133;4.667966;-8.825985;1.363461;-0.735121;2.780458;0.145691;-0.605673;0.846659;152.543625;-1.106690;199.160431;0.000000;0.000000;0.000000;0.000000;-483.000000;-171.000000;734.000000
1608557729;19;466856090;67444960;978;931;30;35;300;449;10;3;48929;599612531;1;91941010;81255;-157;77;-0.078453;4.824872;-8.982892;1.374041;-0.724908;2.787414;0.147524;-0.657902;0.843910;152.465179;-0.951939;199.914780;0.000000;0.000000;0.000000;0.000000;-486.000000;-168.000000;736.000000
1608557730;0;;;;;;;;;;;;;;;;;;-0.156906;4.628739;-9.375158;1.377567;-0.724908;2.797848;0.130114;-0.686307;0.871094;152.591003;-0.770767;200.302719;0.000000;0.000000;0.000000;0.000000;-487.000000;-168.000000;739.000000
1608557730;1;;;;;;;;;;;;;;91943810;81230;-198;77;-0.313813;4.511059;-9.139798;1.391672;-0.718099;2.808281;0.096211;-0.678060;0.915687;152.705002;-0.517339;200.740005;0.000000;0.000000;0.000000;0.000000;-491.000000;-166.000000;742.000000
1608557730;2;;;;;;;;;;;;;;;;;;-0.823759;4.511059;-8.825985;1.402252;-0.714694;2.825670;0.083994;-0.648128;0.982882;152.727310;0.009473;201.586472;0.000000;0.000000;0.000000;0.000000;-494.000000;-165.000000;747.000000
1608557730;3;466856466;67445548;980;932;30;35;303;453;10;3;48929;799612004;1;;;;;-0.941438;4.511059;-9.061345;1.405778;-0.707885;2.825670;0.075136;-0.628580;1.039082;152.808014;0.539893;202.311432;0.000000;0.000000;0.000000;0.000000;-495.000000;-163.000000;747.000000
1608557730;4;;;;;;;;;;;;;;91940021;81264;-199;77;-0.862985;4.471833;-8.865212;1.423410;-0.711290;2.825670;0.088575;-0.634994;1.089783;152.850479;0.982635;202.935028;0.000000;0.000000;0.000000;0.000000;-500.000000;-164.000000;747.000000
1608557730;5;;;;;;;;;;;;;;;;;;-0.706079;4.393379;-8.708306;1.419884;-0.714694;2.825670;0.075442;-0.683864;1.151175;152.888336;1.298415;203.407806;0.000000;0.000000;0.000000;0.000000;-499.000000;-165.000000;747.000000
1608557730;6;;;;;;;;;;;;;;91927971;81373;-143;77;-0.862985;4.432606;-8.512172;1.437515;-0.707885;2.825670;0.067806;-0.695165;1.203710;152.848755;1.682402;204.056473;0.000000;0.000000;0.000000;0.000000;-504.000000;-163.000000;747.000000
1608557730;7;466856856;67446145;981;934;30;35;307;455;10;3;48930;-388522;1;;;;;-0.745305;4.511059;-8.590626;1.437515;-0.711290;2.822192;0.057421;-0.682642;1.261131;152.793427;1.953399;204.579407;0.000000;0.000000;0.000000;0.000000;-504.000000;-164.000000;746.000000
1608557730;8;;;;;;;;;;;;;;;;;;-1.059118;4.393379;-8.904439;1.448095;-0.721503;2.811759;0.027489;-0.664316;1.312444;152.887955;2.366909;204.888657;0.000000;0.000000;0.000000;0.000000;-507.000000;-167.000000;743.000000
1608557730;9;;;;;;;;;;;;;;91902100;81608;-10;77;-1.059118;4.236473;-8.865212;1.458674;-0.721503;2.804803;0.018021;-0.632856;1.339322;153.044968;2.745453;204.998032;0.000000;0.000000;0.000000;0.000000;-510.000000;-167.000000;741.000000
1608557730;10;;;;;;;;;;;;;;;;;;-0.706079;4.197247;-8.786759;1.462200;-0.741930;2.780458;-0.001222;-0.652709;1.355815;153.187210;2.885630;204.785736;0.000000;0.000000;0.000000;0.000000;-511.000000;-173.000000;734.000000
1608557730;11;466857239;67446736;982;935;30;35;309;456;9;3;48930;199610950;1;91864386;81950;215;77;-0.509946;4.158020;-8.669079;1.462200;-0.745335;2.770025;-0.001527;-0.671035;1.358259;153.306091;2.900670;204.493301;0.000000;0.000000;0.000000;0.000000;-511.000000;-174.000000;731.000000
1608557730;12;;;;;;;;;;;;;;;;;;-0.862985;4.393379;-8.433719;1.476306;-0.775975;2.738725;0.012217;-0.670730;1.339322;153.223862;3.129144;204.578552;0.000000;0.000000;0.000000;0.000000;-515.000000;-183.000000;722.000000
1608557730;13;;;;;;;;;;;;;;;;;;-0.549172;4.589512;-8.433719;1.476306;-0.779380;2.721336;0.034819;-0.666454;1.324661;153.046051;3.143581;204.629547;0.000000;0.000000;0.000000;0.000000;-515.000000;-184.000000;717.000000
1608557730;14;;;;;;;;;;;;;;91815131;82396;525;77;-0.706079;4.785646;-8.002227;1.486885;-0.799807;2.690035;0.074220;-0.640797;1.302059;152.653351;3.262278;205.019135;0.000000;0.000000;0.000000;0.000000;-518.000000;-190.000000;708.000000
1608557730;15;466857646;67447314;984;937;30;36;312;449;10;3;48930;399610423;1;;;;;-0.392266;4.628739;-8.551399;1.493938;-0.816829;2.669168;0.080023;-0.660651;1.256244;152.545425;3.167062;204.694748;0.000000;0.000000;0.000000;0.000000;-520.000000;-195.000000;702.000000
1608557730;16;;;;;;;;;;;;;;91763218;82867;870;77;-0.353039;4.511059;-8.982892;1.490411;-0.840661;2.630912;0.080329;-0.669508;1.184467;152.624390;3.051504;203.937775;0.000000;0.000000;0.000000;0.000000;-519.000000;-202.000000;691.000000
1608557730;17;;;;;;;;;;;;;;;;;;-0.353039;4.667966;-9.257478;1.490411;-0.850874;2.617001;0.053451;-0.709520;1.109942;152.686066;2.941380;203.211761;0.000000;0.000000;0.000000;0.000000;-519.000000;-205.000000;687.000000
1608557730;18;;;;;;;;;;;;;;;;;;-0.274586;4.785646;-8.512172;1.490411;-0.864492;2.575267;0.061392;-0.698524;1.033584;152.482956;2.808308;202.867477;0.000000;0.000000;0.000000;0.000000;-519.000000;-209.000000;675.000000
1608557730;19;466858078;67447901;985;938;31;36;319;441;10;3;48930;599609896;1;91721267;83247;1177;77;-0.313813;4.785646;-8.551399;1.497464;-0.867897;2.554400;0.061087;-0.676533;0.962723;152.311386;2.710896;202.495178;0.000000;0.000000;0.000000;0.000000;-521.000000;-210.000000;669.000000
1608557731;0;;;;;;;;;;;;;;;;;;-0.392266;4.511059;-9.139798;1.504517;-0.895133;2.505711;0.027183;-0.637438;0.890947;152.453339;2.660207;201.478317;0.000000;0.000000;0.000000;0.000000;-523.000000;-218.000000;655.000000
1608557731;1;;;;;;;;;;;;;;91686410;83563;1411;77;-0.274586;4.785646;-8.865212;1.508043;-0.901942;2.491800;-0.014050;-0.599870;0.815810;152.371902;2.550312;200.849823;0.000000;0.000000;0.000000;0.000000;-524.000000;-220.000000;651.000000
1608557731;2;;;;;;;;;;;;;;;;;;-0.353039;4.824872;-9.022118;1.500991;-0.922369;2.460500;-0.031765;-0.563218;0.743728;152.321014;2.492907;200.147018;0.000000;0.000000;0.000000;0.000000;-522.000000;-226.000000;642.000000
1608557731;3;466858491;67448484;987;939;31;36;320;440;10;3;48930;799609369;1;;;;;-0.235360;4.824872;-8.786759;1.504517;-0.932582;2.436155;-0.054367;-0.519235;0.650266;152.211777;2.378116;199.514450;0.000000;0.000000;0.000000;0.000000;-523.000000;-229.000000;635.000000
1608557731;4;;;;;;;;;;;;;;91656291;83836;1571;77;-0.588399;5.021005;-8.865212;1.504517;-0.953009;2.404855;-0.045204;-0.446542;0.576046;152.038010;2.470833;199.035461;0.000000;0.000000;0.000000;0.000000;-523.000000;-235.000000;626.000000
1608557731;5;;;;;;;;;;;;;;;;;;-0.745305;5.138685;-8.512172;1.504517;-0.970032;2.373554;-0.020769;-0.352164;0.519846;151.722336;2.652425;198.813705;0.000000;0.000000;0.000000;0.000000;-523.000000;-240.000000;617.000000
1608557731;6;;;;;;;;;;;;;;91630686;84068;1666;77;-0.549172;5.217138;-8.316040;1.493938;-0.980245;2.363121;-0.028711;-0.263894;0.434325;151.339874;2.707365;198.680817;0.000000;0.000000;0.000000;0.000000;-520.000000;-243.000000;614.000000
1608557731;7;466858918;67449079;988;941;31;36;324;439;10;3;48931;-391156;1;;;;;-0.392266;5.138685;-8.747532;1.508043;-0.983650;2.335298;-0.042150;-0.195171;0.331700;151.162720;2.658053;198.148300;0.000000;0.000000;0.000000;0.000000;-524.000000;-244.000000;606.000000
1608557731;8;;;;;;;;;;;;;;;;;;-0.666852;5.099458;-8.590626;1.493938;-0.997268;2.331820;-0.005192;-0.138666;0.244957;150.977097;2.774136;197.744934;0.000000;0.000000;0.000000;0.000000;-520.000000;-248.000000;605.000000
1608557731;9;;;;;;;;;;;;;;91608745;84267;1708;77;-0.235360;5.334818;-8.237586;1.493938;-0.997268;2.310953;0.047647;-0.058032;0.157909;150.586609;2.634101;197.599701;0.000000;0.000000;0.000000;0.000000;-520.000000;-248.000000;599.000000
1608557731;10;;;;;;;;;;;;;;;;;;-0.274586;5.413271;-7.845320;1.497464;-1.004077;2.310953;0.105069;0.013744;0.065057;150.067398;2.535702;197.722198;0.000000;0.000000;0.000000;0.000000;-521.000000;-250.000000;599.000000
