Time;Fraction;Latitude;Longitude;Height_ellipsoid;Height_msl;Accuracy_hor;Accuracy_ver;Speed_gnd;Heading;Satellites;Fix;TimeOfDay;Nanoseconds;Time_Valid;Pressure;Altitude;Vario;Temperature;Acc_X;Acc_Y;Acc_Z;Mag_X;Mag_Y;Mag_Z;Gyro_X;Gyro_Y;Gyro_Z;Roll;Pitch;Yaw;Quat0;Quat1;Quat2;Quat3;Temp_X;Temp_Y;Temp_Z
s;;°/1e7;°/1e7;m;m;dm;dm;dm/s;°/10;;;sec;ns;;mPA;cm;cm/s;°C/10;m/s^2;m/s^2;m/s^2;Gauss;Gauss;Gauss;rad/s;rad/s;rad/s;°;°;°;;;;;;;
1608555284;2;;;;;;;;;;;;;;;;;;0.392266;5.413271;-9.375158;1.363461;-0.929178;2.164885;0.040623;-0.632856;0.898277;149.892853;-2.150211;186.873444;0.000000;0.000000;0.000000;0.000000;-483.000000;-228.000000;557.000000
1608555284;3;466827295;67408581;876;828;24;30;94;1511;10;3;46483;799925801;1;92830912;73280;450;82;0.431493;5.413271;-9.375158;1.370514;-0.915560;2.203141;0.098655;-0.631329;0.865596;149.903336;-2.163439;187.377350;0.000000;0.000000;0.000000;0.000000;-485.000000;-224.000000;568.000000
1608555284;4;;;;;;;;;;;;;;;;;;0.509946;5.374045;-9.492838;1.381093;-0.918964;2.199663;0.082772;-0.634078;0.841772;149.961533;-2.214745;187.718506;0.000000;0.000000;0.000000;0.000000;-488.000000;-225.000000;567.000000
1608555284;5;;;;;;;;;;;;;;;;;;0.392266;5.648631;-9.453611;1.359935;-0.915560;2.199663;0.076969;-0.621555;0.846048;149.879517;-2.197270;188.281158;0.000000;0.000000;0.000000;0.000000;-482.000000;-224.000000;567.000000
1608555284;6;466827140;67408722;876;829;25;30;98;1499;10;3;46484;-74681;1;92825620;73327;445;82;0.470719;5.530951;-8.982892;1.381093;-0.908751;2.206619;0.078191;-0.619112;0.839634;149.729431;-2.233037;188.899918;0.000000;0.000000;0.000000;0.000000;-488.000000;-222.000000;569.000000
1608555284;7;;;;;;;;;;;;;;;;;;0.627626;5.374045;-9.296705;1.377567;-0.915560;2.210097;0.079107;-0.620944;0.822224;149.753464;-2.344235;189.179779;0.000000;0.000000;0.000000;0.000000;-487.000000;-224.000000;570.000000
1608555284;8;;;;;;;;;;;;;;92820431;73374;438;82;0.353039;6.001670;-9.296705;1.391672;-0.915560;2.192708;0.071777;-0.615447;0.820697;149.493622;-2.292547;189.861160;0.000000;0.000000;0.000000;0.000000;-491.000000;-224.000000;565.000000
1608555284;9;;;;;;;;;;;;;;;;;;0.353039;5.727084;-9.100572;1.391672;-0.912155;2.203141;0.053451;-0.599870;0.818254;149.326004;-2.251342;190.404373;0.000000;0.000000;0.000000;0.000000;-491.000000;-223.000000;568.000000
1608555284;10;466826983;67408872;877;830;25;30;101;1490;10;3;46484;199924836;1;;;;;0.470719;5.570177;-9.532064;1.405778;-0.912155;2.185752;0.016493;-0.587347;0.814283;149.363373;-2.270350;190.547333;0.000000;0.000000;0.000000;0.000000;-495.000000;-223.000000;563.000000
1608555284;11;;;;;;;;;;;;;;92814761;73424;431;82;0.313813;5.491724;-9.453611;1.409304;-0.918964;2.189230;0.018937;-0.546419;0.835969;149.411758;-2.207728;190.660095;0.000000;0.000000;0.000000;0.000000;-496.000000;-225.000000;564.000000
1608555284;12;;;;;;;;;;;;;;;;;;0.274586;5.570177;-9.532064;1.416357;-0.925773;2.175319;0.008858;-0.501520;0.844826;149.440552;-2.129429;190.737671;0.000000;0.000000;0.000000;0.000000;-498.000000;-227.000000;560.000000
1608555284;13;;;;;;;;;;;;;;92809215;73473;425;82;0.274586;5.413271;-9.414384;1.412831;-0.922369;2.168363;0.012217;-0.500299;0.844216;149.506622;-2.061326;190.745972;0.000000;0.000000;0.000000;0.000000;-497.000000;-226.000000;558.000000
1608555284;14;466826836;67409022;878;830;25;31;103;1481;10;3;46484;399924353;1;;;;;0.353039;5.727084;-9.335931;1.426936;-0.932582;2.154452;0.060781;-0.515876;0.837191;149.403290;-2.039814;190.917191;0.000000;0.000000;0.000000;0.000000;-501.000000;-229.000000;554.000000
1608555284;15;;;;;;;;;;;;;;;;;;0.392266;5.570177;-9.375158;1.419884;-0.939391;2.154452;0.067195;-0.514959;0.827111;149.391342;-2.041842;190.928238;0.000000;0.000000;0.000000;0.000000;-499.000000;-231.000000;554.000000
1608555284;16;;;;;;;;;;;;;;92804034;73519;418;82;0.431493;5.452498;-9.335931;1.430463;-0.935987;2.144018;0.062308;-0.521373;0.811229;149.423584;-2.066207;190.852463;0.000000;0.000000;0.000000;0.000000;-502.000000;-230.000000;551.000000
1608555284;17;;;;;;;;;;;;;;;;;;0.588399;5.609404;-9.218252;1.419884;-0.939391;2.144018;0.090713;-0.559552;0.786183;149.349136;-2.171699;190.909698;0.000000;0.000000;0.000000;0.000000;-499.000000;-231.000000;551.000000
1608555284;18;466826685;67409183;878;831;25;31;106;1469;10;3;46484;599923870;1;92798970;73565;411;82;0.627626;5.609404;-9.296705;1.433989;-0.956414;2.119674;0.105069;-0.599870;0.760527;149.303665;-2.285351;190.819595;0.000000;0.000000;0.000000;0.000000;-503.000000;-236.000000;544.000000
1608555284;19;;;;;;;;;;;;;;;;;;0.588399;5.687857;-9.375158;1.433989;-0.956414;2.119674;0.076969;-0.613614;0.757473;149.248810;-2.363961;190.764343;0.000000;0.000000;0.000000;0.000000;-503.000000;-236.000000;544.000000
1608555285;0;;;;;;;;;;;;;;;;;;0.431493;5.687857;-9.532064;1.441042;-0.959818;2.091851;0.060781;-0.625831;0.743117;149.241455;-2.350179;190.608078;0.000000;0.000000;0.000000;0.000000;-505.000000;-237.000000;536.000000
1608555285;1;;;;;;;;;;;;;;92794352;73606;402;82;0.353039;5.687857;-9.728197;1.444568;-0.959818;2.098807;0.028405;-0.638965;0.755640;149.285934;-2.294601;190.412888;0.000000;0.000000;0.000000;0.000000;-506.000000;-237.000000;538.000000
1608555285;2;466826529;67409356;879;832;25;31;109;1457;10;3;46484;799923387;1;;;;;0.431493;5.648631;-9.610517;1.451621;-0.966627;2.081418;0.004887;-0.635911;0.749532;149.312836;-2.286807;190.190063;0.000000;0.000000;0.000000;0.000000;-508.000000;-239.000000;533.000000
1608555285;3;;;;;;;;;;;;;;;;;;0.509946;5.570177;-9.532064;1.458674;-0.973436;2.070984;-0.018021;-0.627358;0.756556;149.351532;-2.322586;189.916534;0.000000;0.000000;0.000000;0.000000;-510.000000;-241.000000;530.000000
1608555285;4;;;;;;;;;;;;;;92789223;73651;395;82;0.274586;5.687857;-9.492838;1.451621;-0.993863;2.053595;-0.025962;-0.606894;0.786794;149.323502;-2.232463;189.691620;0.000000;0.000000;0.000000;0.000000;-508.000000;-247.000000;525.000000
1608555285;5;;;;;;;;;;;;;;;;;;0.156906;5.727084;-9.414384;1.448095;-0.993863;2.036206;-0.031765;-0.597426;0.800844;149.259811;-2.090795;189.526840;0.000000;0.000000;0.000000;0.000000;-507.000000;-247.000000;520.000000
1608555285;6;466826378;67409542;880;833;25;31;112;1438;10;3;46485;-77096;1;92783154;73705;392;82;0.313813;5.766310;-9.335931;1.469253;-1.010886;2.001428;-0.005498;-0.584598;0.816116;149.163696;-2.045527;189.287079;0.000000;0.000000;0.000000;0.000000;-513.000000;-252.000000;510.000000
1608555285;7;;;;;;;;;;;;;;;;;;0.431493;5.883990;-9.335931;1.451621;-1.017695;1.997950;0.016799;-0.579406;0.834747;149.025208;-2.064890;189.115234;0.000000;0.000000;0.000000;0.000000;-508.000000;-254.000000;509.000000
1608555285;8;;;;;;;;;;;;;;;;;;0.353039;5.805537;-9.610517;1.458674;-1.027908;1.966650;0.035430;-0.587652;0.857655;149.009155;-2.038497;188.716370;0.000000;0.000000;0.000000;0.000000;-510.000000;-257.000000;500.000000
1608555285;9;;;;;;;;;;;;;;92776888;73761;392;82;0.509946;5.648631;-9.375158;1.455148;-1.038122;1.952739;0.049480;-0.605367;0.851851;149.001312;-2.101397;188.280380;0.000000;0.000000;0.000000;0.000000;-509.000000;-260.000000;496.000000
1608555285;10;466826233;67409746;881;834;25;31;117;1415;10;3;46485;199922419;1;;;;;0.392266;5.570177;-9.375158;1.458674;-1.051740;1.928394;0.075442;-0.629802;0.872926;149.029556;-2.097267;187.753387;0.000000;0.000000;0.000000;0.000000;-510.000000;-264.000000;489.000000
1608555285;11;;;;;;;;;;;;;;92770831;73815;394;82;0.353039;5.570177;-9.453611;1.462200;-1.055144;1.911005;0.065057;-0.639270;0.888809;149.075912;-2.071824;187.206253;0.000000;0.000000;0.000000;0.000000;-511.000000;-265.000000;484.000000
1608555285;12;;;;;;;;;;;;;;;;;;0.588399;5.530951;-9.688971;1.458674;-1.068762;1.879704;0.058948;-0.656985;0.893696;149.196350;-2.166543;186.499146;0.000000;0.000000;0.000000;0.000000;-510.000000;-269.000000;475.000000
1608555285;13;;;;;;;;;;;;;;;;;;0.353039;5.530951;-9.688971;1.462200;-1.082380;1.869271;0.034819;-0.665843;0.917519;149.304733;-2.131137;185.799438;0.000000;0.000000;0.000000;0.000000;-511.000000;-273.000000;472.000000
1608555285;14;466826075;67409957;882;835;26;31;122;1403;10;3;46485;399921936;1;92764310;73873;397;81;0.392266;5.452498;-9.649744;1.469253;-1.095998;1.841449;-0.009163;-0.684474;0.931264;149.427460;-2.120716;185.040237;0.000000;0.000000;0.000000;0.000000;-513.000000;-277.000000;464.000000
1608555285;15;;;;;;;;;;;;;;;;;;0.392266;5.452498;-9.728197;1.462200;-1.109616;1.803192;-0.033598;-0.691194;0.939511;149.557739;-2.110096;184.214478;0.000000;0.000000;0.000000;0.000000;-511.000000;-281.000000;453.000000
1608555285;16;;;;;;;;;;;;;;92757363;73935;404;81;0.313813;5.491724;-9.532064;1.465727;-1.119830;1.782326;-0.053451;-0.690278;0.967305;149.607224;-2.062485;183.490662;0.000000;0.000000;0.000000;0.000000;-512.000000;-284.000000;447.000000
1608555285;17;;;;;;;;;;;;;;;;;;0.431493;5.413271;-9.414384;1.458674;-1.150470;1.751025;-0.067195;-0.700662;0.983493;149.656631;-2.083772;182.679504;0.000000;0.000000;0.000000;0.000000;-510.000000;-293.000000;438.000000
1608555285;18;466825918;67410176;883;836;26;31;126;1390;10;3;46485;599921452;1;;;;;0.509946;5.530951;-9.610517;1.455148;-1.157279;1.730158;-0.062614;-0.737009;0.996016;149.698898;-2.138707;181.895035;0.000000;0.000000;0.000000;0.000000;-509.000000;-295.000000;432.000000
1608555285;19;;;;;;;;;;;;;;92749914;74001;414;82;0.470719;5.491724;-9.375158;1.455148;-1.177706;1.684947;-0.056810;-0.755029;1.007011;149.692963;-2.172907;181.096588;0.000000;0.000000;0.000000;0.000000;-509.000000;-301.000000;419.000000
1608555286;0;;;;;;;;;;;;;;;;;;0.431493;5.491724;-9.492838;1.455148;-1.187920;1.667558;-0.072388;-0.752586;1.032668;149.718689;-2.180930;180.269119;0.000000;0.000000;0.000000;0.000000;-509.000000;-304.000000;414.000000
1608555286;1;;;;;;;;;;;;;;92739708;74092;434;82;0.509946;5.295591;-9.296705;1.448095;-1.204942;1.625824;-0.083078;-0.789849;1.047023;149.780167;-2.235715;179.349304;0.000000;0.000000;0.000000;0.000000;-507.000000;-309.000000;402.000000
1608555286;2;466825760;67410402;884;837;26;31;129;1378;10;3;46485;799920969;1;;;;;0.353039;5.256365;-9.296705;1.448095;-1.208347;1.601479;-0.077580;-0.804815;1.055880;149.853775;-2.201476;178.425903;0.000000;0.000000;0.000000;0.000000;-507.000000;-310.000000;395.000000
1608555286;3;;;;;;;;;;;;;;;;;;0.509946;5.217138;-9.257478;1.444568;-1.238987;1.559745;-0.094379;-0.806037;1.088256;149.928024;-2.256073;177.430237;0.000000;0.000000;0.000000;0.000000;-506.000000;-319.000000;383.000000
1608555286;4;;;;;;;;;;;;;;92731149;74168;458;82;0.509946;5.217138;-9.335931;1.444568;-1.242392;1.542356;-0.108734;-0.819170;1.110247;150.015488;-2.303456;176.466980;0.000000;0.000000;0.000000;0.000000;-506.000000;-320.000000;378.000000
1608555286;5;;;;;;;;;;;;;;;;;;0.392266;5.491724;-9.532064;1.430463;-1.259414;1.493667;-0.095295;-0.829860;1.129184;150.019196;-2.277328;175.521179;0.000000;0.000000;0.000000;0.000000;-502.000000;-325.000000;364.000000
1608555286;6;466825616;67410639;885;838;26;31;132;1358;10;3;46486;-79513;1;92722571;74244;478;82;0.274586;5.530951;-9.492838;1.430463;-1.273032;1.476278;-0.088575;-0.828944;1.150259;149.994598;-2.192764;174.611954;0.000000;0.000000;0.000000;0.000000;-502.000000;-329.000000;359.000000
1608555286;7;;;;;;;;;;;;;;;;;;0.470719;5.609404;-9.610517;1.430463;-1.293459;1.431066;-0.097128;-0.825279;1.190576;149.968048;-2.215711;173.681335;0.000000;0.000000;0.000000;0.000000;-502.000000;-335.000000;346.000000
1608555286;8;;;;;;;;;;;;;;;;;;0.353039;5.570177;-9.453611;1.416357;-1.300268;1.427588;-0.085827;-0.822530;1.211040;149.920547;-2.178424;172.813354;0.000000;0.000000;0.000000;0.000000;-498.000000;-337.000000;345.000000
1608555286;9;;;;;;;;;;;;;;92714044;74320;496;82;0.509946;5.295591;-9.218252;1.409304;-1.310482;1.392810;-0.079107;-0.833220;1.222647;149.940903;-2.235205;171.884995;0.000000;0.000000;0.000000;0.000000;-496.000000;-340.000000;335.000000
1608555286;10;466825473;67410902;886;839;26;31;136;1333;10;3;46486;199920002;1;;;;;0.627626;5.295591;-9.414384;1.405778;-1.317291;1.375421;-0.068417;-0.858266;1.224174;150.011047;-2.344228;170.954880;0.000000;0.000000;0.000000;0.000000;-495.000000;-342.000000;330.000000
1608555286;11;;;;;;;;;;;;;;92704318;74407;516;82;0.549172;5.334818;-9.492838;1.398725;-1.334313;1.347599;-0.086132;-0.855517;1.243416;150.076431;-2.398520;169.992905;0.000000;0.000000;0.000000;0.000000;-493.000000;-347.000000;322.000000
1608555286;12;;;;;;;;;;;;;;;;;;0.627626;5.295591;-9.728197;1.398725;-1.337718;1.333687;-0.113621;-0.843299;1.263574;150.212616;-2.482986;169.021667;0.000000;0.000000;0.000000;0.000000;-493.000000;-348.000000;318.000000
1608555286;13;;;;;;;;;;;;;;;;;;0.509946;5.413271;-9.963557;1.377567;-1.351336;1.305865;-0.135307;-0.850935;1.261436;150.339813;-2.492186;168.003036;0.000000;0.000000;0.000000;0.000000;-487.000000;-352.000000;310.000000
1608555286;14;466825327;67411185;887;840;26;31;142;1311;10;3;46486;399919519;1;92694660;74493;537;82;0.666852;5.374045;-9.885103;1.381093;-1.358145;1.295431;-0.166155;-0.835969;1.271210;150.452774;-2.582151;167.087036;0.000000;0.000000;0.000000;0.000000;-488.000000;-354.000000;307.000000
1608555286;15;;;;;;;;;;;;;;;;;;0.509946;5.413271;-9.924331;1.366988;-1.364954;1.278042;-0.185703;-0.834136;1.286482;150.546463;-2.582218;166.170746;0.000000;0.000000;0.000000;0.000000;-484.000000;-356.000000;302.000000
1608555286;16;;;;;;;;;;;;;;92687973;74552;548;82;0.549172;5.295591;-9.688971;1.363461;-1.364954;1.260653;-0.211359;-0.828333;1.284039;150.625916;-2.608729;165.327927;0.000000;0.000000;0.000000;0.000000;-483.000000;-356.000000;297.000000
1608555286;17;;;;;;;;;;;;;;;;;;0.666852;5.491724;-9.571291;1.345829;-1.368358;1.257175;-0.215941;-0.824668;1.266323;150.578751;-2.693682;164.679596;0.000000;0.000000;0.000000;0.000000;-478.000000;-357.000000;296.000000
1608555286;18;466825172;67411493;888;841;26;31;146;1292;10;3;46486;599919036;1;;;;;0.706079;5.334818;-9.728197;1.338777;-1.368358;1.253698;-0.199753;-0.833831;1.266934;150.646912;-2.788451;163.970673;0.000000;0.000000;0.000000;0.000000;-476.000000;-357.000000;295.000000
1608555286;19;;;;;;;;;;;;;;92683231;74595;542;82;0.588399;5.374045;-9.728197;1.331724;-1.371763;1.239786;-0.172875;-0.823752;1.260826;150.690521;-2.812663;163.282104;0.000000;0.000000;0.000000;0.000000;-474.000000;-358.000000;291.000000
1608555287;0;;;;;;;;;;;;;;;;;;0.470719;5.452498;-9.688971;1.331724;-1.364954;1.246742;-0.151495;-0.792903;1.274570;150.684601;-2.773838;162.717133;0.000000;0.000000;0.000000;0.000000;-474.000000;-356.000000;293.000000
1608555287;1;;;;;;;;;;;;;;92683630;74591;509;82;0.392266;5.452498;-9.492838;1.314092;-1.361549;1.246742;-0.129503;-0.784656;1.276097;150.628937;-2.701669;162.232361;0.000000;0.000000;0.000000;0.000000;-469.000000;-355.000000;293.000000
1608555287;2;466825026;67411813;889;842;26;31;149;1271;10;3;46486;799918553;1;;;;;0.549172;5.295591;-9.492838;1.307039;-1.358145;1.246742;-0.123700;-0.802677;1.259604;150.650558;-2.720725;161.754196;0.000000;0.000000;0.000000;0.000000;-467.000000;-354.000000;293.000000
1608555287;3;;;;;;;;;;;;;;;;;;0.706079;5.334818;-9.571291;1.292934;-1.347931;1.260653;-0.120951;-0.807869;1.256244;150.672089;-2.817341;161.390442;0.000000;0.000000;0.000000;0.000000;-463.000000;-351.000000;297.000000
1608555287;4;;;;;;;;;;;;;;92687885;74553;447;82;0.627626;5.452498;-9.688971;1.299986;-1.344527;1.264131;-0.124311;-0.796568;1.249219;150.668015;-2.858711;161.096420;0.000000;0.000000;0.000000;0.000000;-465.000000;-350.000000;298.000000
1608555287;5;;;;;;;;;;;;;;;;;;0.431493;5.413271;-9.845877;1.289407;-1.330909;1.298909;-0.127976;-0.789543;1.241889;150.721024;-2.792766;160.814758;0.000000;0.000000;0.000000;0.000000;-462.000000;-346.000000;308.000000
1608555287;6;466824879;67412138;890;843;26;31;151;1257;10;3;46487;-81929;1;92693447;74504;365;82;0.431493;5.530951;-9.885103;1.278828;-1.320695;1.312821;-0.135307;-0.788016;1.252579;150.726135;-2.731643;160.652557;0.000000;0.000000;0.000000;0.000000;-459.000000;-343.000000;312.000000
1608555287;7;;;;;;;;;;;;;;;;;;0.509946;5.413271;-10.159690;1.282355;-1.303673;1.340643;-0.151189;-0.778242;1.246776;150.848587;-2.712119;160.495209;0.000000;0.000000;0.000000;0.000000;-460.000000;-338.000000;320.000000
1608555287;8;;;;;;;;;;;;;;;;;;0.392266;5.491724;-9.963557;1.271775;-1.290055;1.351076;-0.174097;-0.730900;1.258077;150.877472;-2.638381;160.474747;0.000000;0.000000;0.000000;0.000000;-457.000000;-334.000000;323.000000
1608555287;9;;;;;;;;;;;;;;92700362;74442;272;82;0.392266;5.491724;-9.924331;1.261196;-1.273032;1.385855;-0.189979;-0.710436;1.267240;150.893906;-2.572615;160.577332;0.000000;0.000000;0.000000;0.000000;-454.000000;-329.000000;333.000000
1608555287;10;466824739;67412493;891;843;26;31;155;1232;10;3;46487;199917586;1;;;;;0.392266;5.413271;-9.963557;1.250617;-1.259414;1.399766;-0.195782;-0.686612;1.268156;150.952972;-2.513484;160.673508;0.000000;0.000000;0.000000;0.000000;-451.000000;-325.000000;337.000000
1608555287;11;;;;;;;;;;;;;;92707112;74382;181;82;0.313813;5.334818;-9.767424;1.254143;-1.238987;1.438022;-0.207694;-0.676533;1.273654;150.993423;-2.423649;160.911026;0.000000;0.000000;0.000000;0.000000;-452.000000;-319.000000;348.000000
1608555287;12;;;;;;;;;;;;;;;;;;0.392266;5.334818;-9.571291;1.257670;-1.211751;1.458889;-0.189979;-0.668286;1.270599;150.980667;-2.386306;161.346115;0.000000;0.000000;0.000000;0.000000;-453.000000;-311.000000;354.000000
1608555287;13;;;;;;;;;;;;;;;;;;0.470719;5.570177;-9.610517;1.240038;-1.204942;1.504100;-0.172875;-0.680809;1.265407;150.872986;-2.390329;161.979263;0.000000;0.000000;0.000000;0.000000;-448.000000;-309.000000;367.000000
1608555287;14;466824614;67412873;891;844;26;32;159;1198;10;3;46487;399917103;1;92713852;74322;98;82;0.549172;5.413271;-9.806650;1.232985;-1.167493;1.549312;-0.160047;-0.696997;1.255328;150.895828;-2.431974;162.615982;0.000000;0.000000;0.000000;0.000000;-446.000000;-298.000000;380.000000
1608555287;15;;;;;;;;;;;;;;;;;;0.392266;5.491724;-9.610517;1.243564;-1.153875;1.570179;-0.145386;-0.719599;1.266018;150.831772;-2.391739;163.390045;0.000000;0.000000;0.000000;0.000000;-449.000000;-294.000000;386.000000
1608555287;16;;;;;;;;;;;;;;92720783;74260;21;82;0.470719;5.374045;-9.532064;1.232985;-1.130043;1.622346;-0.132863;-0.729984;1.259909;150.807236;-2.398884;164.239899;0.000000;0.000000;0.000000;0.000000;-446.000000;-287.000000;401.000000
1608555287;17;;;;;;;;;;;;;;;;;;0.392266;5.491724;-10.042010;1.236511;-1.109616;1.657124;-0.124616;-0.742812;1.278235;150.859207;-2.355284;165.036621;0.000000;0.000000;0.000000;0.000000;-447.000000;-281.000000;411.000000
1608555287;18;466824489;67413266;892;845;26;32;163;1175;10;3;46487;599916620;1;;;;;0.353039;5.413271;-9.806650;1.225932;-1.078976;1.702336;-0.108123;-0.748615;1.290758;150.883423;-2.300276;165.992416;0.000000;0.000000;0.000000;0.000000;-444.000000;-272.000000;424.000000
1608555287;19;;;;;;;;;;;;;;92727287;74202;-47;82;0.196133;5.570177;-9.767424;1.232985;-1.061953;1.737114;-0.107818;-0.714712;1.324050;150.825562;-2.170181;167.113556;0.000000;0.000000;0.000000;0.000000;-446.000000;-267.000000;434.000000
1608555288;0;;;;;;;;;;;;;;;;;;0.039227;5.413271;-10.002784;1.232985;-1.024504;1.799715;-0.122478;-0.696386;1.346347;150.900894;-1.972924;168.196930;0.000000;0.000000;0.000000;0.000000;-446.000000;-256.000000;452.000000
1608555288;1;;;;;;;;;;;;;;92731029;74169;-96;82;0.156906;5.295591;-9.845877;1.232985;-1.007481;1.837971;-0.133169;-0.709214;1.365589;150.983459;-1.856041;169.301559;0.000000;0.000000;0.000000;0.000000;-446.000000;-251.000000;463.000000
1608555288;2;466824351;67413692;892;845;26;32;170;1156;10;3;46487;799916138;1;;;;;0.313813;5.374045;-9.845877;1.240038;-0.973436;1.897094;-0.142637;-0.707993;1.369865;151.022476;-1.830688;170.611389;0.000000;0.000000;0.000000;0.000000;-448.000000;-241.000000;480.000000
1608555288;3;;;;;;;;;;;;;;;;;;0.313813;5.530951;-9.767424;1.240038;-0.959818;1.928394;-0.130114;-0.716545;1.373836;150.968109;-1.807762;172.055939;0.000000;0.000000;0.000000;0.000000;-448.000000;-237.000000;489.000000
1608555288;4;;;;;;;;;;;;;;92727962;74196;-107;82;0.509946;5.413271;-9.688971;1.247091;-0.925773;1.987517;-0.130420;-0.722043;1.377501;150.952087;-1.890056;173.533234;0.000000;0.000000;0.000000;0.000000;-450.000000;-227.000000;506.000000
1608555288;5;;;;;;;;;;;;;;;;;;0.392266;5.374045;-9.885103;1.236511;-0.912155;2.025773;-0.129198;-0.751059;1.387886;151.003815;-1.900723;174.901291;0.000000;0.000000;0.000000;0.000000;-447.000000;-223.000000;517.000000
1608555288;6;466824239;67414136;893;846;26;32;175;1129;10;3;46488;-84344;1;92719789;74269;-74;82;0.313813;5.413271;-9.728197;1.250617;-0.871301;2.077940;-0.123089;-0.758084;1.393078;150.994064;-1.872113;176.484863;0.000000;0.000000;0.000000;0.000000;-451.000000;-211.000000;532.000000
1608555288;7;;;;;;;;;;;;;;;;;;0.313813;5.256365;-9.845877;1.250617;-0.857683;2.119674;-0.127976;-0.770606;1.389413;151.085052;-1.845955;177.878418;0.000000;0.000000;0.000000;0.000000;-451.000000;-207.000000;544.000000
1608555288;8;;;;;;;;;;;;;;;;;;0.235360;5.334818;-9.649744;1.254143;-0.830447;2.171841;-0.109956;-0.775799;1.396438;151.082977;-1.783642;179.487061;0.000000;0.000000;0.000000;0.000000;-452.000000;-199.000000;559.000000
1608555288;9;;;;;;;;;;;;;;92705522;74396;6;82;0.196133;5.570177;-9.806650;1.264723;-0.813425;2.203141;-0.079718;-0.765719;1.405295;151.015030;-1.704908;181.165359;0.000000;0.000000;0.000000;0.000000;-455.000000;-194.000000;568.000000
1608555288;10;466824133;67414583;893;846;27;32;179;1112;10;3;46488;199915172;1;;;;;0.235360;5.413271;-9.649744;1.271775;-0.779380;2.258786;-0.064446;-0.758389;1.410488;150.984406;-1.656277;182.833145;0.000000;0.000000;0.000000;0.000000;-457.000000;-184.000000;584.000000
1608555288;11;;;;;;;;;;;;;;92688305;74549;117;82;0.313813;5.413271;-9.571291;1.282355;-0.769166;2.279653;-0.053756;-0.746477;1.416902;150.936844;-1.654120;184.404800;0.000000;0.000000;0.000000;0.000000;-460.000000;-181.000000;590.000000
1608555288;12;;;;;;;;;;;;;;;;;;0.353039;5.374045;-9.688971;1.296460;-0.741930;2.338776;-0.043371;-0.721737;1.415680;150.941650;-1.671214;185.912842;0.000000;0.000000;0.000000;0.000000;-464.000000;-173.000000;607.000000
1608555288;13;;;;;;;;;;;;;;;;;;0.353039;5.374045;-9.649744;1.299986;-0.728312;2.359643;-0.024740;-0.716545;1.375057;150.936111;-1.687164;187.361084;0.000000;0.000000;0.000000;0.000000;-465.000000;-169.000000;613.000000
1608555288;14;466824035;67415059;894;847;27;32;185;1094;10;3;46488;399914688;1;92667158;74738;252;82;0.431493;5.374045;-9.728197;1.317618;-0.707885;2.404855;-0.008858;-0.721432;1.346347;150.950806;-1.740785;188.729843;0.000000;0.000000;0.000000;0.000000;-470.000000;-163.000000;626.000000
1608555288;15;;;;;;;;;;;;;;;;;;0.313813;5.334818;-9.688971;1.321145;-0.697672;2.429199;0.000916;-0.712574;1.316720;150.971985;-1.729224;190.052307;0.000000;0.000000;0.000000;0.000000;-471.000000;-160.000000;633.000000
1608555288;16;;;;;;;;;;;;;;92645611;74929;393;82;0.313813;5.413271;-9.806650;1.328198;-0.677245;2.460500;-0.018631;-0.682031;1.296867;150.984924;-1.716775;191.357819;0.000000;0.000000;0.000000;0.000000;-473.000000;-154.000000;642.000000
1608555288;17;;;;;;;;;;;;;;;;;;0.353039;5.217138;-9.688971;1.331724;-0.667031;2.481366;-0.024740;-0.651488;1.272127;151.056366;-1.728851;192.487823;0.000000;0.000000;0.000000;0.000000;-474.000000;-151.000000;648.000000
1608555288;18;466823932;67415576;895;847;27;32;193;1075;10;3;46488;599914206;1;;;;;0.313813;5.295591;-9.806650;1.345829;-0.653413;2.498755;-0.053756;-0.623999;1.236391;151.113831;-1.717251;193.577728;0.000000;0.000000;0.000000;0.000000;-478.000000;-147.000000;653.000000
1608555288;19;;;;;;;;;;;;;;92626067;75103;525;82;0.313813;5.530951;-9.728197;1.352882;-0.656818;2.509189;-0.089797;-0.613309;1.215927;151.040436;-1.706156;194.739166;0.000000;0.000000;0.000000;0.000000;-480.000000;-148.000000;656.000000
1608555289;0;;;;;;;;;;;;;;;;;;0.313813;5.687857;-9.610517;1.359935;-0.643200;2.526578;-0.097128;-0.595899;1.168585;150.874542;-1.696502;195.980698;0.000000;0.000000;0.000000;0.000000;-482.000000;-144.000000;661.000000
1608555289;1;;;;;;;;;;;;;;92607195;75271;639;82;0.353039;5.687857;-9.610517;1.363461;-0.639795;2.530056;-0.083689;-0.584292;1.125824;150.725235;-1.707921;197.093170;0.000000;0.000000;0.000000;0.000000;-483.000000;-143.000000;662.000000
1608555289;2;466823848;67416100;895;848;27;32;198;1056;10;3;46488;799913723;1;;;;;0.431493;5.648631;-9.453611;1.381093;-0.643200;2.540489;-0.054978;-0.580627;1.082758;150.566849;-1.761508;198.076721;0.000000;0.000000;0.000000;0.000000;-488.000000;-144.000000;665.000000
1608555289;3;;;;;;;;;;;;;;;;;;0.549172;5.687857;-9.335931;1.381093;-0.643200;2.537011;-0.037263;-0.575740;1.034195;150.375015;-1.872940;198.980927;0.000000;0.000000;0.000000;0.000000;-488.000000;-144.000000;664.000000
1608555289;4;;;;;;;;;;;;;;92590550;75419;730;82;0.431493;5.609404;-9.610517;1.395199;-0.639795;2.537011;-0.019853;-0.552222;1.006400;150.310425;-1.907706;199.679260;0.000000;0.000000;0.000000;0.000000;-492.000000;-143.000000;664.000000
1608555289;5;;;;;;;;;;;;;;;;;;0.392266;5.530951;-9.414384;1.395199;-0.646604;2.550923;0.018021;-0.513127;0.966999;150.235977;-1.922685;200.343552;0.000000;0.000000;0.000000;0.000000;-492.000000;-145.000000;668.000000
1608555289;6;466823777;67416641;895;848;27;32;202;1036;10;3;46489;-86759;1;92576262;75546;788;82;0.235360;5.609404;-9.414384;1.412831;-0.643200;2.537011;0.043982;-0.491441;0.932486;150.133606;-1.853450;201.005768;0.000000;0.000000;0.000000;0.000000;-497.000000;-144.000000;664.000000
1608555289;7;;;;;;;;;;;;;;;;;;0.313813;5.648631;-9.453611;1.412831;-0.636391;2.540489;0.076969;-0.464868;0.900721;150.034378;-1.831330;201.607666;0.000000;0.000000;0.000000;0.000000;-497.000000;-142.000000;665.000000
1608555289;8;;;;;;;;;;;;;;;;;;0.235360;5.687857;-9.453611;1.426936;-0.646604;2.537011;0.085827;-0.406531;0.879951;149.927582;-1.770406;202.146103;0.000000;0.000000;0.000000;0.000000;-501.000000;-145.000000;664.000000
1608555289;9;;;;;;;;;;;;;;92560489;75687;835;81;0.431493;5.727084;-9.296705;1.419884;-0.646604;2.537011;0.086132;-0.386678;0.831693;149.771393;-1.819663;202.652283;0.000000;0.000000;0.000000;0.000000;-499.000000;-145.000000;664.000000
1608555289;10;466823715;67417191;896;849;27;32;206;1018;10;3;46489;199912757;1;;;;;0.392266;5.491724;-9.218252;1.419884;-0.653413;2.533534;0.072998;-0.368657;0.767247;149.715851;-1.847063;202.982529;0.000000;0.000000;0.000000;0.000000;-499.000000;-147.000000;663.000000
1608555289;11;;;;;;;;;;;;;;92547138;75806;867;81;0.431493;5.491724;-9.414384;1.426936;-0.660222;2.533534;0.072082;-0.359189;0.712880;149.718628;-1.889072;203.168564;0.000000;0.000000;0.000000;0.000000;-501.000000;-149.000000;663.000000
1608555289;12;;;;;;;;;;;;;;;;;;0.313813;5.648631;-9.061345;1.430463;-0.656818;2.516145;0.061392;-0.336587;0.666759;149.552933;-1.868505;203.575775;0.000000;0.000000;0.000000;0.000000;-502.000000;-148.000000;658.000000
1608555289;13;;;;;;;;;;;;;;;;;;0.313813;5.648631;-9.296705;1.441042;-0.667031;2.512667;0.010996;-0.310625;0.621250;149.469391;-1.846894;203.809158;0.000000;0.000000;0.000000;0.000000;-505.000000;-151.000000;657.000000
1608555289;14;466823680;67417738;897;849;27;32;207;995;10;3;46489;399912273;1;92538675;75881;870;82;0.235360;5.648631;-9.532064;1.448095;-0.667031;2.512667;-0.021075;-0.285579;0.574519;149.457397;-1.783893;203.950912;0.000000;0.000000;0.000000;0.000000;-507.000000;-151.000000;657.000000
1608555289;15;;;;;;;;;;;;;;;;;;0.392266;5.570177;-9.218252;1.448095;-0.670436;2.498755;-0.021075;-0.249233;0.523511;149.397400;-1.814086;204.060349;0.000000;0.000000;0.000000;0.000000;-507.000000;-152.000000;653.000000
1608555289;16;;;;;;;;;;;;;;92532555;75935;842;82;0.353039;5.609404;-9.335931;1.448095;-0.667031;2.491800;0.013744;-0.233350;0.479835;149.357758;-1.818332;204.151901;0.000000;0.000000;0.000000;0.000000;-507.000000;-151.000000;651.000000
1608555289;17;;;;;;;;;;;;;;;;;;0.235360;5.530951;-9.022118;1.451621;-0.684054;2.477889;0.050091;-0.180205;0.440739;149.270981;-1.763906;204.266418;0.000000;0.000000;0.000000;0.000000;-508.000000;-156.000000;647.000000
1608555289;18;466823682;67418282;897;850;27;33;207;965;10;3;46489;599911790;1;;;;;0.549172;5.530951;-9.610517;1.458674;-0.694267;2.474411;0.052840;-0.163712;0.393703;149.351807;-1.871050;204.021393;0.000000;0.000000;0.000000;0.000000;-510.000000;-159.000000;646.000000
1608555289;19;;;;;;;;;;;;;;92527158;75983;802;82;0.431493;5.648631;-9.375158;1.462200;-0.687458;2.467455;0.061392;-0.153327;0.359189;149.309692;-1.909703;203.990845;0.000000;0.000000;0.000000;0.000000;-511.000000;-157.000000;644.000000
1608555290;0;;;;;;;;;;;;;;;;;;0.431493;5.687857;-9.335931;1.465727;-0.690863;2.470933;0.091630;-0.113010;0.328035;149.243576;-1.944763;203.992279;0.000000;0.000000;0.000000;0.000000;-512.000000;-158.000000;645.000000
1608555290;1;;;;;;;;;;;;;;92522226;76027;753;82;0.431493;5.687857;-9.139798;1.451621;-0.697672;2.463977;0.118508;-0.063835;0.287412;149.129761;-1.979820;204.054092;0.000000;0.000000;0.000000;0.000000;-508.000000;-160.000000;643.000000
1608555290;2;466823706;67418838;898;851;28;33;209;937;10;3;46489;799911306;1;;;;;0.353039;5.687857;-9.453611;1.462200;-0.690863;2.460500;0.126755;-0.029932;0.244957;149.113434;-1.965117;204.019867;0.000000;0.000000;0.000000;0.000000;-511.000000;-158.000000;642.000000
1608555290;3;;;;;;;;;;;;;;;;;;0.235360;5.609404;-9.414384;1.455148;-0.694267;2.460500;0.103542;0.008247;0.194561;149.123322;-1.891639;203.991455;0.000000;0.000000;0.000000;0.000000;-509.000000;-159.000000;642.000000
1608555290;4;;;;;;;;;;;;;;92511894;76119;723;82;0.509946;5.844764;-9.728197;1.462200;-0.697672;2.460500;0.075442;0.038790;0.131031;149.111237;-1.959750;203.898666;0.000000;0.000000;0.000000;0.000000;-511.000000;-160.000000;642.000000
1608555290;5;;;;;;;;;;;;;;;;;;0.627626;6.040897;-9.688971;1.455148;-0.694267;2.460500;0.043371;0.063835;0.069028;149.005844;-2.078405;203.926086;0.000000;0.000000;0.000000;0.000000;-509.000000;-159.000000;642.000000
1608555290;6;466823742;67419397;899;852;28;33;211;911;10;3;46490;-89177;1;92501459;76212;710;82;0.549172;6.080123;-9.453611;1.451621;-0.694267;2.457022;0.041233;0.085521;0.006109;148.830551;-2.150281;204.073822;0.000000;0.000000;0.000000;0.000000;-508.000000;-159.000000;641.000000
1608555290;7;;;;;;;;;;;;;;;;;;0.549172;6.197803;-9.610517;1.455148;-0.690863;2.460500;0.036041;0.099876;-0.054367;148.665726;-2.210192;204.227646;0.000000;0.000000;0.000000;0.000000;-509.000000;-158.000000;642.000000
1608555290;8;;;;;;;;;;;;;;;;;;0.784532;6.040897;-9.924331;1.451621;-0.690863;2.460500;-0.000916;0.099876;-0.135307;148.666290;-2.375480;204.117020;0.000000;0.000000;0.000000;0.000000;-508.000000;-158.000000;642.000000
1608555290;9;;;;;;;;;;;;;;92495864;76262;688;82;0.666852;6.276256;-9.649744;1.448095;-0.701076;2.467455;-0.006109;0.098044;-0.203724;148.495651;-2.469479;204.256699;0.000000;0.000000;0.000000;0.000000;-507.000000;-161.000000;644.000000
1608555290;10;466823775;67419965;900;852;28;33;214;894;10;3;46490;199910339;1;;;;;0.431493;6.197803;-9.610517;1.455148;-0.687458;2.463977;0.009163;0.128282;-0.250149;148.364319;-2.438618;204.441544;0.000000;0.000000;0.000000;0.000000;-509.000000;-157.000000;643.000000
1608555290;11;;;;;;;;;;;;;;92490431;76310;658;82;0.235360;5.962444;-10.238143;1.441042;-0.684054;2.477889;0.049175;0.201585;-0.277333;148.506348;-2.308561;204.373093;0.000000;0.000000;0.000000;0.000000;-505.000000;-156.000000;647.000000
1608555290;12;;;;;;;;;;;;;;;;;;0.117680;6.001670;-9.845877;1.444568;-0.687458;2.481366;0.085216;0.286190;-0.308792;148.519241;-2.136176;204.496811;0.000000;0.000000;0.000000;0.000000;-506.000000;-157.000000;648.000000
1608555290;13;;;;;;;;;;;;;;;;;;0.117680;6.040897;-9.414384;1.441042;-0.684054;2.484844;0.097128;0.332922;-0.342084;148.398636;-1.982834;204.805176;0.000000;0.000000;0.000000;0.000000;-505.000000;-156.000000;649.000000
1608555290;14;466823815;67420537;900;853;28;33;217;877;9;3;46490;399909855;1;92482682;76379;633;82;0.235360;5.844764;-9.492838;1.444568;-0.690863;2.488322;0.098349;0.393703;-0.386067;148.396713;-1.905499;204.882339;0.000000;0.000000;0.000000;0.000000;-506.000000;-158.000000;650.000000
1608555290;15;;;;;;;;;;;;;;;;;;0.392266;5.883990;-9.728197;1.433989;-0.677245;2.495278;0.086132;0.456927;-0.420275;148.440338;-1.912555;204.905426;0.000000;0.000000;0.000000;0.000000;-503.000000;-154.000000;652.000000
1608555290;16;;;;;;;;;;;;;;92474894;76449;614;82;0.353039;5.962444;-9.806650;1.437515;-0.673840;2.509189;0.078191;0.504269;-0.447459;148.466354;-1.897490;204.982971;0.000000;0.000000;0.000000;0.000000;-504.000000;-153.000000;656.000000
1608555290;17;;;;;;;;;;;;;;;;;;0.353039;5.923217;-9.924331;1.419884;-0.667031;2.519622;0.081550;0.523206;-0.511905;148.536697;-1.882703;205.050598;0.000000;0.000000;0.000000;0.000000;-499.000000;-151.000000;659.000000
1608555290;18;466823855;67421114;901;854;28;33;219;863;9;3;46490;599909373;1;;;;;0.392266;5.805537;-9.806650;1.419884;-0.660222;2.512667;0.055589;0.547641;-0.578489;148.620483;-1.891571;205.077026;0.000000;0.000000;0.000000;0.000000;-499.000000;-149.000000;657.000000
1608555290;19;;;;;;;;;;;;;;92461133;76571;621;81;0.392266;5.844764;-9.924331;1.409304;-0.663627;2.526578;0.040012;0.534812;-0.647212;148.708923;-1.897477;205.112122;0.000000;0.000000;0.000000;0.000000;-496.000000;-150.000000;661.000000
1608555291;0;;;;;;;;;;;;;;;;;;0.862985;5.805537;-9.688971;1.412831;-0.660222;2.523100;0.023213;0.496328;-0.724791;148.745087;-2.144639;205.055603;0.000000;0.000000;0.000000;0.000000;-497.000000;-149.000000;660.000000
1608555291;1;;;;;;;;;;;;;;92448194;76686;648;82;0.706079;5.962444;-9.806650;1.395199;-0.656818;2.530056;0.017104;0.470366;-0.782824;148.740631;-2.282223;205.147064;0.000000;0.000000;0.000000;0.000000;-492.000000;-148.000000;662.000000
1608555291;2;466823904;67421703;901;854;29;33;223;851;9;3;46490;799908890;1;;;;;0.431493;5.923217;-10.002784;1.384620;-0.656818;2.530056;0.028711;0.478307;-0.831387;148.803360;-2.266572;205.243835;0.000000;0.000000;0.000000;0.000000;-489.000000;-148.000000;662.000000
1608555291;3;;;;;;;;;;;;;;;;;;0.313813;5.805537;-9.688971;1.384620;-0.656818;2.533534;0.037568;0.490525;-0.860404;148.830078;-2.199059;205.413269;0.000000;0.000000;0.000000;0.000000;-489.000000;-148.000000;663.000000
1608555291;4;;;;;;;;;;;;;;92438937;76769;667;82;0.156906;5.766310;-9.414384;1.377567;-0.656818;2.530056;0.041233;0.527482;-0.873537;148.798340;-2.060579;205.703735;0.000000;0.000000;0.000000;0.000000;-487.000000;-148.000000;662.000000
1608555291;5;;;;;;;;;;;;;;;;;;0.117680;5.648631;-9.610517;1.377567;-0.660222;2.537011;0.044593;0.579100;-0.868345;148.874008;-1.915004;205.836334;0.000000;0.000000;0.000000;0.000000;-487.000000;-149.000000;664.000000
1608555291;6;466823961;67422288;902;855;29;33;224;844;8;3;46491;-91592;1;92431252;76837;668;82;0.039227;5.491724;-9.728197;1.366988;-0.660222;2.523100;0.041844;0.638965;-0.859793;149.042084;-1.743622;205.833710;0.000000;0.000000;0.000000;0.000000;-484.000000;-149.000000;660.000000
1608555291;7;;;;;;;;;;;;;;;;;;0.039227;5.687857;-9.492838;1.363461;-0.663627;2.516145;0.047647;0.681115;-0.854295;149.044998;-1.589569;206.031754;0.000000;0.000000;0.000000;0.000000;-483.000000;-150.000000;658.000000
1608555291;8;;;;;;;;;;;;;;;;;;0.078453;5.609404;-9.218252;1.359935;-0.667031;2.509189;0.056810;0.689972;-0.867428;149.008423;-1.472268;206.234528;0.000000;0.000000;0.000000;0.000000;-482.000000;-151.000000;656.000000
1608555291;9;;;;;;;;;;;;;;92427651;76869;648;82;0.274586;5.334818;-9.296705;1.335250;-0.670436;2.498755;0.052534;0.696081;-0.884533;149.122696;-1.471787;206.144196;0.000000;0.000000;0.000000;0.000000;-475.000000;-152.000000;653.000000
1608555291;10;466824052;67422883;903;856;29;33;228;826;8;3;46491;199907923;1;;;;;0.470719;5.413271;-9.453611;1.331724;-0.684054;2.474411;0.029322;0.679587;-0.894917;149.230835;-1.572030;205.915710;0.000000;0.000000;0.000000;0.000000;-474.000000;-156.000000;646.000000
1608555291;11;;;;;;;;;;;;;;;;;;0.509946;5.530951;-9.571291;1.328198;-0.684054;2.470933;0.025351;0.642936;-0.928515;149.305542;-1.678947;205.732040;0.000000;0.000000;0.000000;0.000000;-473.000000;-156.000000;645.000000
1608555291;12;;;;;;;;;;;;;;92425966;76884;608;82;0.313813;5.609404;-9.532064;1.317618;-0.701076;2.443110;0.027183;0.620639;-0.935845;149.327423;-1.673577;205.618500;0.000000;0.000000;0.000000;0.000000;-470.000000;-161.000000;637.000000
1608555291;13;;;;;;;;;;;;;;;;;;0.274586;5.648631;-9.375158;1.303513;-0.704481;2.429199;0.031765;0.617890;-0.949590;149.287750;-1.649927;205.604767;0.000000;0.000000;0.000000;0.000000;-466.000000;-162.000000;633.000000
1608555291;14;466824161;67423485;904;857;30;33;231;810;8;3;46491;399907439;1;92424931;76893;556;82;0.353039;5.570177;-9.610517;1.303513;-0.718099;2.394421;0.038485;0.583682;-0.964556;149.349365;-1.666972;205.321686;0.000000;0.000000;0.000000;0.000000;-466.000000;-166.000000;623.000000
1608555291;15;;;;;;;;;;;;;;;;;;0.313813;5.530951;-9.532064;1.292934;-0.728312;2.380510;0.030849;0.570853;-0.969138;149.402008;-1.663383;205.042603;0.000000;0.000000;0.000000;0.000000;-463.000000;-169.000000;619.000000
1608555291;16;;;;;;;;;;;;;;;;;;0.156906;5.413271;-9.728197;1.289407;-0.745335;2.349209;0.017715;0.551611;-0.968527;149.552429;-1.577792;204.573975;0.000000;0.000000;0.000000;0.000000;-462.000000;-174.000000;610.000000
1608555291;17;;;;;;;;;;;;;;92426805;76877;492;82;0.196133;5.374045;-9.571291;1.282355;-0.755548;2.331820;-0.001222;0.565661;-0.948368;149.665894;-1.522377;204.118576;0.000000;0.000000;0.000000;0.000000;-460.000000;-177.000000;605.000000
1608555291;18;466824320;67424089;905;858;30;33;234;783;10;3;46491;599906955;1;;;;;0.039227;5.491724;-9.296705;1.268249;-0.775975;2.290087;0.000916;0.594372;-0.921490;149.642212;-1.390955;203.832123;0.000000;0.000000;0.000000;0.000000;-456.000000;-183.000000;593.000000
1608555291;19;;;;;;;;;;;;;;92434449;76809;402;81;0.078453;5.334818;-9.375158;1.271775;-0.789593;2.272697;-0.010996;0.609338;-0.895223;149.713852;-1.293530;203.324738;0.000000;0.000000;0.000000;0.000000;-457.000000;-187.000000;588.000000
1608555292;0;;;;;;;;;;;;;;;;;;0.196133;5.256365;-9.453611;1.271775;-0.803211;2.237919;-0.012217;0.607505;-0.873232;149.835007;-1.268058;202.627289;0.000000;0.000000;0.000000;0.000000;-457.000000;-191.000000;578.000000
1608555292;1;;;;;;;;;;;;;;;;;;0.235360;5.413271;-9.492838;1.254143;-0.813425;2.217052;-0.028100;0.577268;-0.877508;149.882141;-1.264634;202.036270;0.000000;0.000000;0.000000;0.000000;-452.000000;-194.000000;572.000000
1608555292;2;466824443;67424704;906;858;30;33;236;774;10;3;46491;799906472;1;92446222;76704;287;81;0.117680;5.530951;-9.335931;1.257670;-0.844065;2.171841;-0.031460;0.537256;-0.878424;149.829529;-1.200304;201.486343;0.000000;0.000000;0.000000;0.000000;-453.000000;-203.000000;559.000000
1608555292;3;;;;;;;;;;;;;;;;;;0.235360;5.452498;-9.571291;1.250617;-0.854279;2.147496;-0.034819;0.512516;-0.872010;149.879700;-1.202676;200.724289;0.000000;0.000000;0.000000;0.000000;-451.000000;-206.000000;552.000000
1608555292;4;;;;;;;;;;;;;;92462631;76558;148;81;0.235360;5.217138;-9.179025;1.247091;-0.881515;2.105762;-0.003054;0.479529;-0.866207;149.930450;-1.210110;199.845154;0.000000;0.000000;0.000000;0.000000;-450.000000;-214.000000;540.000000
1608555292;5;;;;;;;;;;;;;;;;;;0.313813;5.530951;-9.335931;1.243564;-0.895133;2.084896;0.033598;0.434020;-0.880257;149.873016;-1.254749;199.121307;0.000000;0.000000;0.000000;0.000000;-449.000000;-218.000000;534.000000
1608555292;6;466824564;67425327;906;859;30;33;239;768;10;3;46492;-94011;1;;;;;0.588399;5.491724;-9.218252;1.250617;-0.918964;2.046639;0.062919;0.407142;-0.877202;149.807312;-1.443149;198.275085;0.000000;0.000000;0.000000;0.000000;-451.000000;-225.000000;523.000000
1608555292;7;;;;;;;;;;;;;;92479662;76406;-5;81;0.509946;5.138685;-9.296705;1.247091;-0.925773;2.018817;0.058032;0.385150;-0.872010;149.933472;-1.573681;197.149246;0.000000;0.000000;0.000000;0.000000;-450.000000;-227.000000;515.000000
1608555292;8;;;;;;;;;;;;;;;;;;0.274586;5.295591;-9.453611;1.236511;-0.953009;1.984039;0.035430;0.374155;-0.853989;150.014526;-1.561474;196.044891;0.000000;0.000000;0.000000;0.000000;-447.000000;-235.000000;505.000000
1608555292;9;;;;;;;;;;;;;;92496088;76260;-153;81;0.078453;5.177911;-9.296705;1.236511;-0.963223;1.963172;0.032376;0.406225;-0.838107;150.101471;-1.447567;194.959244;0.000000;0.000000;0.000000;0.000000;-447.000000;-238.000000;499.000000
1608555292;10;466824700;67425942;907;860;30;34;241;754;10;3;46492;199905505;1;;;;;0.196133;5.374045;-9.375158;1.240038;-0.983650;1.921438;0.022297;0.425468;-0.817643;150.109116;-1.406791;193.920044;0.000000;0.000000;0.000000;0.000000;-448.000000;-244.000000;487.000000
1608555292;11;;;;;;;;;;;;;;;;;;0.235360;5.374045;-9.571291;1.243564;-0.987054;1.893616;0.003360;0.452651;-0.797790;150.166901;-1.388944;192.822968;0.000000;0.000000;0.000000;0.000000;-449.000000;-245.000000;479.000000
1608555292;12;;;;;;;;;;;;;;92507069;76162;-269;82;0.353039;5.452498;-9.571291;1.229459;-1.021099;1.855360;-0.040623;0.456316;-0.789849;150.183334;-1.433618;191.678284;0.000000;0.000000;0.000000;0.000000;-445.000000;-255.000000;468.000000
1608555292;13;;;;;;;;;;;;;;;;;;0.470719;5.413271;-9.335931;1.229459;-1.027908;1.841449;-0.064141;0.448070;-0.789238;150.154358;-1.540012;190.659943;0.000000;0.000000;0.000000;0.000000;-445.000000;-257.000000;464.000000
1608555292;14;466824858;67426543;907;860;30;34;241;734;10;3;46492;399905022;1;92515111;76091;-345;82;0.431493;5.530951;-9.296705;1.236511;-1.058549;1.785803;-0.050702;0.444099;-0.805426;150.063934;-1.614431;189.608475;0.000000;0.000000;0.000000;0.000000;-447.000000;-266.000000;448.000000
1608555292;15;;;;;;;;;;;;;;;;;;0.549172;5.648631;-9.414384;1.247091;-1.065358;1.771892;-0.023824;0.427911;-0.821308;149.961182;-1.739346;188.639526;0.000000;0.000000;0.000000;0.000000;-450.000000;-268.000000;444.000000
1608555292;16;;;;;;;;;;;;;;;;;;0.706079;5.570177;-9.571291;1.243564;-1.085785;1.730158;0.003665;0.393397;-0.846354;149.945282;-1.930231;187.490845;0.000000;0.000000;0.000000;0.000000;-449.000000;-274.000000;432.000000
1608555292;17;;;;;;;;;;;;;;92520981;76038;-388;82;0.823759;5.530951;-9.218252;1.232985;-1.099403;1.712769;0.039095;0.358272;-0.874453;149.854385;-2.175393;186.487396;0.000000;0.000000;0.000000;0.000000;-446.000000;-278.000000;427.000000
1608555292;18;466825031;67427152;908;861;31;34;244;721;10;3;46492;599904537;1;;;;;0.509946;5.452498;-9.257478;1.243564;-1.123234;1.671035;0.073304;0.352775;-0.879646;149.819229;-2.229598;185.326859;0.000000;0.000000;0.000000;0.000000;-449.000000;-285.000000;415.000000
1608555292;19;;;;;;;;;;;;;;92522072;76029;-394;82;0.313813;5.374045;-9.453611;1.243564;-1.133448;1.650169;0.111483;0.382707;-0.869261;149.875656;-2.171937;184.050095;0.000000;0.000000;0.000000;0.000000;-449.000000;-288.000000;409.000000
1608555293;0;;;;;;;;;;;;;;;;;;0.588399;5.452498;-9.335931;1.243564;-1.153875;1.611913;0.110261;0.383929;-0.875064;149.859467;-2.266259;182.870605;0.000000;0.000000;0.000000;0.000000;-449.000000;-294.000000;398.000000
1608555293;1;;;;;;;;;;;;;;;;;;0.431493;5.413271;-9.610517;1.243564;-1.170897;1.604957;0.108734;0.404698;-0.868956;149.934433;-2.263655;181.584290;0.000000;0.000000;0.000000;0.000000;-449.000000;-299.000000;396.000000
1608555293;2;466825203;67427742;909;862;31;34;243;707;10;3;46492;799904053;1;92521351;76035;-370;82;0.509946;5.491724;-9.649744;1.250617;-1.187920;1.563223;0.098044;0.423330;-0.863763;149.976562;-2.300257;180.329803;0.000000;0.000000;0.000000;0.000000;-451.000000;-304.000000;384.000000
1608555293;3;;;;;;;;;;;;;;;;;;0.588399;5.374045;-9.492838;1.257670;-1.194729;1.552790;0.071471;0.445015;-0.855822;150.027435;-2.378984;179.155151;0.000000;0.000000;0.000000;0.000000;-453.000000;-306.000000;381.000000
1608555293;4;;;;;;;;;;;;;;92519705;76050;-330;82;0.470719;5.295591;-9.296705;1.254143;-1.211751;1.514534;0.046120;0.459371;-0.862236;150.058029;-2.393002;177.961670;0.000000;0.000000;0.000000;0.000000;-452.000000;-311.000000;370.000000
1608555293;5;;;;;;;;;;;;;;;;;;0.549172;5.452498;-9.335931;1.257670;-1.218560;1.493667;0.030849;0.443183;-0.875064;150.023605;-2.444486;176.919220;0.000000;0.000000;0.000000;0.000000;-453.000000;-313.000000;364.000000
1608555293;6;466825394;67428322;910;863;31;34;242;687;10;3;46493;-96429;1;;;;;0.706079;5.491724;-9.218252;1.257670;-1.242392;1.462367;0.042150;0.420275;-0.890031;149.942841;-2.576521;175.925400;0.000000;0.000000;0.000000;0.000000;-453.000000;-320.000000;355.000000
1608555293;7;;;;;;;;;;;;;;92516441;76079;-279;82;0.706079;5.452498;-9.414384;1.264723;-1.249201;1.455411;0.044593;0.385150;-0.918741;149.940765;-2.690203;174.907745;0.000000;0.000000;0.000000;0.000000;-455.000000;-322.000000;353.000000
1608555293;8;;;;;;;;;;;;;;;;;;0.862985;5.491724;-9.218252;1.271775;-1.262819;1.424111;0.060170;0.366214;-0.938900;149.868286;-2.881003;174.007156;0.000000;0.000000;0.000000;0.000000;-457.000000;-326.000000;344.000000
1608555293;9;;;;;;;;;;;;;;92509596;76140;-209;82;0.666852;5.530951;-9.100572;1.275302;-1.290055;1.389332;0.095600;0.364992;-0.937373;149.752518;-2.951211;173.072983;0.000000;0.000000;0.000000;0.000000;-458.000000;-334.000000;334.000000
1608555293;10;466825604;67428890;911;864;31;34;242;667;10;3;46493;199903086;1;;;;;0.392266;5.413271;-9.296705;1.285881;-1.290055;1.378899;0.155160;0.393703;-0.918436;149.756149;-2.864916;172.036255;0.000000;0.000000;0.000000;0.000000;-461.000000;-334.000000;331.000000
1608555293;11;;;;;;;;;;;;;;;;;;0.353039;5.609404;-8.865212;1.289407;-1.310482;1.358032;0.204029;0.414167;-0.898888;149.548218;-2.771165;171.256439;0.000000;0.000000;0.000000;0.000000;-462.000000;-340.000000;325.000000
1608555293;12;;;;;;;;;;;;;;92497700;76246;-117;82;0.549172;5.413271;-9.296705;1.289407;-1.310482;1.354554;0.217468;0.437074;-0.876897;149.572281;-2.786280;170.322678;0.000000;0.000000;0.000000;0.000000;-462.000000;-340.000000;324.000000
1608555293;13;;;;;;;;;;;;;;;;;;0.509946;5.217138;-9.375158;1.296460;-1.324100;1.344121;0.186314;0.442877;-0.870177;149.705536;-2.779772;169.288010;0.000000;0.000000;0.000000;0.000000;-464.000000;-344.000000;321.000000
1608555293;14;466825800;67429442;912;864;31;34;238;656;10;3;46493;399902602;1;92481269;76392;1;82;0.509946;5.452498;-9.571291;1.296460;-1.324100;1.330210;0.162185;0.452956;-0.848186;149.768097;-2.766850;168.395187;0.000000;0.000000;0.000000;0.000000;-464.000000;-344.000000;317.000000
1608555293;15;;;;;;;;;;;;;;;;;;0.549172;5.256365;-9.492838;1.307039;-1.337718;1.323254;0.135307;0.467617;-0.842078;149.893890;-2.779895;167.480148;0.000000;0.000000;0.000000;0.000000;-467.000000;-348.000000;315.000000
1608555293;16;;;;;;;;;;;;;;;;;;0.666852;5.491724;-9.453611;1.307039;-1.344527;1.312821;0.119424;0.450818;-0.849103;149.889221;-2.850946;166.774460;0.000000;0.000000;0.000000;0.000000;-467.000000;-350.000000;312.000000
1608555293;17;;;;;;;;;;;;;;92464487;76541;129;82;0.706079;5.452498;-9.649744;1.317618;-1.347931;1.302387;0.112399;0.438296;-0.850935;149.953491;-2.930360;166.052307;0.000000;0.000000;0.000000;0.000000;-470.000000;-351.000000;309.000000
1608555293;18;466826002;67429992;912;865;31;34;237;645;10;3;46493;599902118;1;;;;;0.784532;5.256365;-9.179025;1.321145;-1.347931;1.295431;0.103542;0.415388;-0.860098;149.978394;-3.061509;165.453598;0.000000;0.000000;0.000000;0.000000;-471.000000;-351.000000;307.000000
1608555293;19;;;;;;;;;;;;;;92447126;76696;258;82;0.666852;5.413271;-9.257478;1.324671;-1.361549;1.291954;0.093462;0.385150;-0.859182;149.948883;-3.111183;164.903748;0.000000;0.000000;0.000000;0.000000;-472.000000;-355.000000;306.000000
1608555294;0;;;;;;;;;;;;;;;;;;0.470719;5.491724;-9.218252;1.324671;-1.351336;1.281520;0.107207;0.397979;-0.846659;149.875595;-3.051255;164.432251;0.000000;0.000000;0.000000;0.000000;-472.000000;-352.000000;303.000000
1608555294;1;;;;;;;;;;;;;;;;;;0.431493;5.648631;-8.747532;1.338777;-1.364954;1.288476;0.145386;0.388205;-0.824363;149.602859;-2.983420;164.231079;0.000000;0.000000;0.000000;0.000000;-476.000000;-356.000000;305.000000
1608555294;2;466826211;67430535;913;866;32;35;236;634;10;3;46493;799901634;1;92428178;76864;383;82;0.274586;5.805537;-9.061345;1.342303;-1.361549;1.284998;0.148746;0.383929;-0.792598;149.377853;-2.831239;163.999893;0.000000;0.000000;0.000000;0.000000;-477.000000;-355.000000;304.000000
1608555294;3;;;;;;;;;;;;;;;;;;0.313813;5.687857;-8.904439;1.345829;-1.364954;1.284998;0.182954;0.392175;-0.732427;149.183167;-2.718234;163.785309;0.000000;0.000000;0.000000;0.000000;-478.000000;-356.000000;304.000000
1608555294;4;;;;;;;;;;;;;;92406946;77053;515;82;0.235360;5.491724;-8.943665;1.356409;-1.371763;1.288476;0.194561;0.416305;-0.685391;149.109726;-2.574878;163.456268;0.000000;0.000000;0.000000;0.000000;-481.000000;-358.000000;305.000000
1608555294;5;;;;;;;;;;;;;;;;;;0.431493;5.491724;-8.982892;1.356409;-1.364954;1.291954;0.191506;0.404393;-0.644157;149.054794;-2.552074;163.216217;0.000000;0.000000;0.000000;0.000000;-481.000000;-356.000000;306.000000
1608555294;6;466826431;67431065;914;867;32;35;236;620;10;3;46494;-98849;1;;;;;0.353039;5.491724;-9.335931;1.363461;-1.364954;1.302387;0.167377;0.386372;-0.609949;149.102768;-2.483552;162.899399;0.000000;0.000000;0.000000;0.000000;-483.000000;-356.000000;309.000000
1608555294;7;;;;;;;;;;;;;;92390875;77196;616;82;0.470719;5.452498;-9.414384;1.363461;-1.354740;1.305865;0.132252;0.390037;-0.572991;149.184708;-2.482945;162.632004;0.000000;0.000000;0.000000;0.000000;-483.000000;-353.000000;310.000000
1608555294;8;;;;;;;;;;;;;;;;;;0.431493;5.256365;-9.296705;1.363461;-1.358145;1.305865;0.093157;0.359800;-0.539394;149.317871;-2.466015;162.308548;0.000000;0.000000;0.000000;0.000000;-483.000000;-354.000000;310.000000
1608555294;9;;;;;;;;;;;;;;92375389;77334;695;82;0.627626;5.374045;-8.982892;1.366988;-1.354740;1.316298;0.093462;0.328951;-0.522290;149.297089;-2.562539;162.249817;0.000000;0.000000;0.000000;0.000000;-484.000000;-353.000000;313.000000
1608555294;10;466826661;67431593;915;868;32;35;237;609;10;3;46494;199900665;1;;;;;0.549172;5.452498;-8.708306;1.370514;-1.358145;1.312821;0.098960;0.290466;-0.495717;149.162216;-2.612242;162.303070;0.000000;0.000000;0.000000;0.000000;-485.000000;-354.000000;312.000000
1608555294;11;;;;;;;;;;;;;;;;;;0.549172;5.413271;-8.629853;1.370514;-1.358145;1.316298;0.122784;0.227242;-0.488387;149.036118;-2.659592;162.364044;0.000000;0.000000;0.000000;0.000000;-485.000000;-354.000000;313.000000
1608555294;12;;;;;;;;;;;;;;92360500;77467;756;82;0.627626;5.374045;-8.629853;1.374041;-1.358145;1.326732;0.132558;0.186314;-0.458760;148.941360;-2.746903;162.436371;0.000000;0.000000;0.000000;0.000000;-486.000000;-354.000000;316.000000
1608555294;13;;;;;;;;;;;;;;;;;;0.392266;5.452498;-8.747532;1.377567;-1.351336;1.330210;0.146302;0.168904;-0.423635;148.853638;-2.690150;162.489624;0.000000;0.000000;0.000000;0.000000;-487.000000;-352.000000;317.000000
1608555294;14;466826892;67432112;916;868;32;35;237;597;10;3;46494;399900182;1;92352243;77540;777;82;0.353039;5.530951;-8.747532;1.384620;-1.351336;1.340643;0.162185;0.151189;-0.360105;148.737823;-2.616507;162.601349;0.000000;0.000000;0.000000;0.000000;-489.000000;-352.000000;320.000000
1608555294;15;;;;;;;;;;;;;;;;;;0.235360;5.491724;-8.904439;1.388146;-1.344527;1.344121;0.187536;0.157298;-0.304211;148.697678;-2.483734;162.634628;0.000000;0.000000;0.000000;0.000000;-490.000000;-350.000000;321.000000
1608555294;16;;;;;;;;;;;;;;;;;;0.274586;5.374045;-9.022118;1.384620;-1.344527;1.358032;0.182954;0.172875;-0.230907;148.749893;-2.385142;162.590454;0.000000;0.000000;0.000000;0.000000;-489.000000;-350.000000;325.000000
1608555294;17;;;;;;;;;;;;;;92343178;77621;776;82;0.196133;5.334818;-9.022118;1.384620;-1.341122;1.364988;0.161574;0.183870;-0.167377;148.815308;-2.253830;162.536697;0.000000;0.000000;0.000000;0.000000;-489.000000;-349.000000;327.000000
1608555294;18;466827126;67432619;917;869;32;35;235;587;10;3;46494;599899698;1;;;;;0.235360;5.177911;-9.100572;1.388146;-1.334313;1.364988;0.103236;0.195477;-0.097738;148.969955;-2.157217;162.409683;0.000000;0.000000;0.000000;0.000000;-490.000000;-347.000000;327.000000
1608555294;19;;;;;;;;;;;;;;92334269;77700;768;82;0.353039;5.295591;-8.786759;1.381093;-1.337718;1.364988;0.069028;0.192423;-0.036346;148.965332;-2.138585;162.470169;0.000000;0.000000;0.000000;0.000000;-488.000000;-348.000000;327.000000
1608555295;0;;;;;;;;;;;;;;;;;;0.274586;5.295591;-8.865212;1.391672;-1.341122;1.371943;0.062614;0.171959;-0.008552;148.983643;-2.077043;162.496628;0.000000;0.000000;0.000000;0.000000;-491.000000;-349.000000;329.000000
1608555295;1;;;;;;;;;;;;;;;;;;0.588399;5.295591;-8.904439;1.381093;-1.337718;1.371943;0.030543;0.129809;0.019242;149.011246;-2.194399;162.565948;0.000000;0.000000;0.000000;0.000000;-488.000000;-348.000000;329.000000
1608555295;2;466827368;67433127;917;870;32;35;235;578;10;3;46494;799899214;1;92327905;77757;745;82;0.627626;5.413271;-8.982892;1.377567;-1.341122;1.368466;0.002749;0.053145;0.022602;149.002731;-2.317425;162.652145;0.000000;0.000000;0.000000;0.000000;-487.000000;-349.000000;328.000000
1608555295;3;;;;;;;;;;;;;;;;;;0.666852;5.374045;-8.865212;1.377567;-1.337718;1.368466;-0.012523;-0.014661;0.038485;148.980072;-2.453732;162.765518;0.000000;0.000000;0.000000;0.000000;-487.000000;-348.000000;328.000000
1608555295;4;;;;;;;;;;;;;;92322947;77801;711;82;0.509946;5.295591;-8.629853;1.381093;-1.337718;1.364988;-0.003971;-0.068111;0.054978;148.928604;-2.496683;162.875092;0.000000;0.000000;0.000000;0.000000;-488.000000;-348.000000;327.000000
1608555295;5;;;;;;;;;;;;;;;;;;0.509946;5.413271;-8.394493;1.384620;-1.337718;1.375421;0.024740;-0.103236;0.093462;148.754120;-2.539274;163.150650;0.000000;0.000000;0.000000;0.000000;-489.000000;-348.000000;330.000000
1608555295;6;466827602;67433623;918;871;32;35;233;572;10;3;46495;-101268;1;;;;;0.392266;5.491724;-8.551399;1.384620;-1.337718;1.364988;0.070249;-0.129503;0.134085;148.607849;-2.506385;163.343201;0.000000;0.000000;0.000000;0.000000;-489.000000;-348.000000;327.000000
1608555295;7;;;;;;;;;;;;;;92317176;77852;673;82;0.392266;5.648631;-8.590626;1.381093;-1.334313;1.371943;0.093462;-0.139888;0.190590;148.414444;-2.474243;163.611938;0.000000;0.000000;0.000000;0.000000;-488.000000;-347.000000;329.000000
1608555295;8;;;;;;;;;;;;;;;;;;0.235360;5.413271;-8.904439;1.381093;-1.341122;1.368466;0.101709;-0.142942;0.262977;148.443344;-2.356203;163.550446;0.000000;0.000000;0.000000;0.000000;-488.000000;-349.000000;328.000000
1608555295;9;;;;;;;;;;;;;;92310823;77909;641;82;0.156906;5.334818;-8.708306;1.374041;-1.334313;1.375421;0.120951;-0.125533;0.329562;148.449799;-2.208606;163.531067;0.000000;0.000000;0.000000;0.000000;-486.000000;-347.000000;330.000000
1608555295;10;466827860;67434118;919;872;32;35;234;561;10;3;46495;199898247;1;;;;;0.196133;5.256365;-8.747532;1.377567;-1.341122;1.378899;0.115454;-0.123395;0.387288;148.504684;-2.097847;163.451141;0.000000;0.000000;0.000000;0.000000;-487.000000;-349.000000;331.000000
1608555295;11;;;;;;;;;;;;;;;;;;0.431493;5.413271;-8.629853;1.377567;-1.341122;1.371943;0.097128;-0.129809;0.433103;148.444336;-2.130603;163.543655;0.000000;0.000000;0.000000;0.000000;-487.000000;-349.000000;329.000000
1608555295;12;;;;;;;;;;;;;;92303914;77970;616;82;0.313813;5.334818;-8.904439;1.374041;-1.334313;1.368466;0.083994;-0.131641;0.483500;148.507248;-2.090705;163.473816;0.000000;0.000000;0.000000;0.000000;-486.000000;-347.000000;328.000000
1608555295;13;;;;;;;;;;;;;;;;;;0.588399;5.374045;-8.708306;1.363461;-1.344527;1.375421;0.056810;-0.163712;0.497550;148.488586;-2.210723;163.524078;0.000000;0.000000;0.000000;0.000000;-483.000000;-350.000000;330.000000
1608555295;14;466828112;67434612;920;873;32;35;234;552;10;3;46495;399897763;1;92295997;78041;599;82;0.509946;5.295591;-8.865212;1.363461;-1.344527;1.364988;0.040317;-0.216857;0.522901;148.554565;-2.272363;163.436157;0.000000;0.000000;0.000000;0.000000;-483.000000;-350.000000;327.000000
1608555295;15;;;;;;;;;;;;;;;;;;0.706079;5.217138;-8.669079;1.359935;-1.344527;1.375421;0.024435;-0.266948;0.542143;148.595123;-2.444320;163.434280;0.000000;0.000000;0.000000;0.000000;-482.000000;-350.000000;330.000000
1608555295;16;;;;;;;;;;;;;;;;;;0.588399;5.138685;-8.708306;1.349356;-1.341122;1.364988;0.000305;-0.319177;0.555582;148.681183;-2.532926;163.331619;0.000000;0.000000;0.000000;0.000000;-479.000000;-349.000000;327.000000
1608555295;17;;;;;;;;;;;;;;92284660;78142;600;82;0.470719;5.217138;-8.590626;1.352882;-1.337718;1.368466;-0.008858;-0.353385;0.590707;148.686020;-2.547778;163.323212;0.000000;0.000000;0.000000;0.000000;-480.000000;-348.000000;328.000000
1608555295;18;466828371;67435112;921;874;32;35;237;545;10;3;46495;599897280;1;;;;;0.353039;5.256365;-8.472946;1.356409;-1.347931;1.368466;0.007330;-0.369879;0.640797;148.636002;-2.495781;163.330383;0.000000;0.000000;0.000000;0.000000;-481.000000;-351.000000;328.000000
1608555295;19;;;;;;;;;;;;;;92270108;78272;625;82;0.392266;5.177911;-8.316040;1.345829;-1.344527;1.361510;0.032070;-0.403782;0.665538;148.581604;-2.475507;163.342621;0.000000;0.000000;0.000000;0.000000;-478.000000;-350.000000;326.000000
1608555296;0;;;;;;;;;;;;;;;;;;0.470719;5.099458;-8.629853;1.345829;-1.344527;1.364988;0.032376;-0.423940;0.701273;148.665527;-2.496818;163.215637;0.000000;0.000000;0.000000;0.000000;-478.000000;-350.000000;327.000000
1608555296;1;;;;;;;;;;;;;;;;;;0.156906;5.138685;-8.865212;1.345829;-1.341122;1.375421;0.020464;-0.433103;0.749226;148.789139;-2.334864;163.003922;0.000000;0.000000;0.000000;0.000000;-478.000000;-349.000000;330.000000
1608555296;2;466828626;67435605;922;875;31;35;236;543;10;3;46495;799896796;1;92257883;78383;657;82;0.392266;5.217138;-8.669079;1.331724;-1.337718;1.368466;0.023518;-0.418748;0.797790;148.806244;-2.323400;162.960159;0.000000;0.000000;0.000000;0.000000;-474.000000;-348.000000;328.000000
1608555296;3;;;;;;;;;;;;;;;;;;0.235360;5.177911;-8.669079;1.331724;-1.334313;1.378899;0.040928;-0.409891;0.853989;148.840714;-2.224582;162.895355;0.000000;0.000000;0.000000;0.000000;-474.000000;-347.000000;331.000000
1608555296;4;;;;;;;;;;;;;;92247455;78477;681;82;0.431493;5.099458;-8.708306;1.310566;-1.327504;1.385855;0.051007;-0.409585;0.888503;148.921387;-2.246960;162.828629;0.000000;0.000000;0.000000;0.000000;-468.000000;-345.000000;333.000000
1608555296;5;;;;;;;;;;;;;;;;;;0.549172;5.295591;-8.982892;1.321145;-1.330909;1.389332;0.047342;-0.436463;0.902553;148.977249;-2.323734;162.818146;0.000000;0.000000;0.000000;0.000000;-471.000000;-346.000000;334.000000
1608555296;6;466828880;67436089;923;876;31;35;235;538;10;3;46496;-103687;1;;;;;0.627626;5.256365;-9.100572;1.317618;-1.330909;1.396288;0.044593;-0.438601;0.930958;149.078522;-2.433124;162.771072;0.000000;0.000000;0.000000;0.000000;-470.000000;-346.000000;336.000000
1608555296;7;;;;;;;;;;;;;;92238599;78557;691;82;0.627626;5.374045;-9.453611;1.310566;-1.310482;1.410199;0.041539;-0.458454;0.949284;149.209015;-2.520135;162.759491;0.000000;0.000000;0.000000;0.000000;-468.000000;-340.000000;340.000000
1608555296;8;;;;;;;;;;;;;;;;;;0.549172;5.530951;-9.532064;1.307039;-1.307077;1.427588;0.030543;-0.467923;0.955088;149.275696;-2.553401;162.835388;0.000000;0.000000;0.000000;0.000000;-467.000000;-339.000000;345.000000
1608555296;9;;;;;;;;;;;;;;92229716;78638;693;82;0.784532;5.413271;-9.257478;1.303513;-1.303673;1.431066;0.022907;-0.525039;0.944703;149.316467;-2.716473;162.986420;0.000000;0.000000;0.000000;0.000000;-466.000000;-338.000000;346.000000
1608555296;10;466829128;67436562;924;876;31;35;233;533;10;3;46496;199895828;1;;;;;0.706079;5.413271;-10.042010;1.296460;-1.290055;1.448455;-0.002138;-0.547641;0.943787;149.552094;-2.798992;162.924789;0.000000;0.000000;0.000000;0.000000;-464.000000;-334.000000;351.000000
