Time;Fraction;Latitude;Longitude;Height_ellipsoid;Height_msl;Accuracy_hor;Accuracy_ver;Speed_gnd;Heading;Satellites;Fix;TimeOfDay;Nanoseconds;Time_Valid;Pressure;Altitude;Vario;Temperature;Acc_X;Acc_Y;Acc_Z;Mag_X;Mag_Y;Mag_Z;Gyro_X;Gyro_Y;Gyro_Z;Roll;Pitch;Yaw;Quat0;Quat1;Quat2;Quat3;Temp_X;Temp_Y;Temp_Z
s;;°/1e7;°/1e7;m;m;dm;dm;dm/s;°/10;;;sec;ns;;mPA;cm;cm/s;°C/10;m/s^2;m/s^2;m/s^2;Gauss;Gauss;Gauss;rad/s;rad/s;rad/s;°;°;°;;;;;;;
1608557957;2;;;;;;;;;;;;;;;;;;-0.196133;5.648631;-9.571291;1.359935;-0.694267;2.825670;-0.138056;-0.362548;0.494190;150.640228;0.558084;207.194382;0.000000;0.000000;0.000000;0.000000;-482.000000;-159.000000;747.000000
1608557957;3;466839988;67422174;891;844;26;39;144;753;10;3;49156;800016768;1;92572685;75578;526;78;-0.392266;5.805537;-9.061345;1.345829;-0.697672;2.839581;0.068111;-0.230296;0.554055;150.311478;0.711030;208.195145;0.000000;0.000000;0.000000;0.000000;-478.000000;-160.000000;751.000000
1608557957;4;;;;;;;;;;;;;;;;;;-0.392266;5.452498;-8.982892;1.359935;-0.697672;2.853492;0.126144;-0.202502;0.562301;150.154617;0.853710;208.893417;0.000000;0.000000;0.000000;0.000000;-482.000000;-160.000000;755.000000
1608557957;5;;;;;;;;;;;;;;92564178;75654;533;78;-0.392266;5.334818;-8.982892;1.342303;-0.694267;2.856970;0.201585;-0.192117;0.575740;150.068619;0.983361;209.493256;0.000000;0.000000;0.000000;0.000000;-477.000000;-159.000000;756.000000
1608557957;6;;;;;;;;;;;;;;;;;;-0.235360;6.158576;-8.904439;1.366988;-0.690863;2.874359;0.240986;-0.207083;0.568410;149.594879;1.009560;210.466751;0.000000;0.000000;0.000000;0.000000;-484.000000;-158.000000;761.000000
1608557957;7;466840064;67422589;892;845;26;39;149;751;10;3;49157;16245;1;;;;;-0.235360;5.923217;-9.179025;1.363461;-0.684054;2.881315;0.258396;-0.215635;0.580627;149.351990;1.032027;211.135788;0.000000;0.000000;0.000000;0.000000;-483.000000;-156.000000;763.000000
1608557957;8;;;;;;;;;;;;;;92555017;75736;542;78;-0.196133;5.413271;-9.728197;1.381093;-0.673840;2.891748;0.252898;-0.214414;0.587958;149.507416;1.029754;211.178085;0.000000;0.000000;0.000000;0.000000;-488.000000;-153.000000;766.000000
1608557957;9;;;;;;;;;;;;;;;;;;-0.431493;5.687857;-10.081236;1.388146;-0.653413;2.898704;0.230296;-0.202502;0.603535;149.613510;1.140265;211.432953;0.000000;0.000000;0.000000;0.000000;-490.000000;-147.000000;768.000000
1608557957;10;;;;;;;;;;;;;;92546027;75816;553;78;-0.313813;5.687857;-9.728197;1.391672;-0.653413;2.902182;0.218995;-0.229685;0.595594;149.620789;1.185752;211.736420;0.000000;0.000000;0.000000;0.000000;-491.000000;-147.000000;769.000000
1608557957;11;466840161;67423026;893;846;26;39;155;739;10;3;49157;200015721;1;;;;;-0.117680;5.452498;-9.728197;1.398725;-0.650009;2.909138;0.182343;-0.222049;0.583987;149.731735;1.127635;211.763336;0.000000;0.000000;0.000000;0.000000;-493.000000;-146.000000;771.000000
1608557957;12;;;;;;;;;;;;;;;;;;-0.196133;5.413271;-10.002784;1.402252;-0.643200;2.916093;0.123089;-0.242513;0.572381;149.916458;1.113666;211.716629;0.000000;0.000000;0.000000;0.000000;-494.000000;-144.000000;773.000000
1608557957;13;;;;;;;;;;;;;;92535879;75906;566;78;-0.039227;5.374045;-10.081236;1.409304;-0.639795;2.916093;0.031460;-0.285885;0.547030;150.118729;1.021973;211.542557;0.000000;0.000000;0.000000;0.000000;-496.000000;-143.000000;773.000000
1608557957;14;;;;;;;;;;;;;;;;;;-0.039227;5.138685;-9.885103;1.405778;-0.636391;2.926527;-0.046426;-0.308487;0.510378;150.360138;0.939949;211.324585;0.000000;0.000000;0.000000;0.000000;-495.000000;-142.000000;776.000000
1608557957;15;466840270;67423483;894;847;26;39;163;727;10;3;49157;400015198;1;92524190;76010;587;78;-0.117680;5.021005;-9.649744;1.416357;-0.643200;2.933482;-0.124616;-0.300546;0.509462;150.575226;0.907936;211.141846;0.000000;0.000000;0.000000;0.000000;-498.000000;-144.000000;778.000000
1608557957;16;;;;;;;;;;;;;;;;;;-0.196133;5.099458;-9.767424;1.423410;-0.646604;2.930005;-0.176540;-0.299324;0.485027;150.760864;0.919120;210.999176;0.000000;0.000000;0.000000;0.000000;-500.000000;-145.000000;777.000000
1608557957;17;;;;;;;;;;;;;;;;;;-0.078453;5.217138;-9.649744;1.426936;-0.650009;2.923049;-0.194866;-0.315817;0.460592;150.845001;0.868184;210.918961;0.000000;0.000000;0.000000;0.000000;-501.000000;-146.000000;775.000000
1608557957;18;;;;;;;;;;;;;;92511868;76120;613;78;-0.235360;5.530951;-9.335931;1.416357;-0.660222;2.919571;-0.167072;-0.292299;0.458760;150.696106;0.905618;211.246307;0.000000;0.000000;0.000000;0.000000;-498.000000;-149.000000;774.000000
1608557957;19;466840396;67423940;895;848;26;39;170;712;10;3;49157;600014675;1;;;;;-0.313813;5.491724;-9.296705;1.430463;-0.667031;2.909138;-0.102625;-0.233045;0.475558;150.569397;0.981530;211.511642;0.000000;0.000000;0.000000;0.000000;-502.000000;-151.000000;771.000000
1608557958;0;;;;;;;;;;;;;;92499687;76228;641;78;-0.431493;5.570177;-9.022118;1.433989;-0.670436;2.905660;-0.015577;-0.202196;0.473115;150.343384;1.116413;211.956009;0.000000;0.000000;0.000000;0.000000;-503.000000;-152.000000;770.000000
1608557958;1;;;;;;;;;;;;;;;;;;-0.313813;5.687857;-8.904439;1.441042;-0.670436;2.898704;0.065973;-0.207083;0.474031;150.052155;1.174892;212.386215;0.000000;0.000000;0.000000;0.000000;-505.000000;-152.000000;768.000000
1608557958;2;;;;;;;;;;;;;;;;;;-0.274586;5.609404;-9.296705;1.441042;-0.680649;2.902182;0.113621;-0.197920;0.469144;149.936371;1.202267;212.528061;0.000000;0.000000;0.000000;0.000000;-505.000000;-155.000000;769.000000
1608557958;3;466840533;67424410;896;849;27;39;176;699;10;3;49157;800014152;1;92486772;76343;671;78;-0.235360;5.648631;-9.296705;1.441042;-0.684054;2.891748;0.147829;-0.212886;0.462425;149.814484;1.205986;212.636368;0.000000;0.000000;0.000000;0.000000;-505.000000;-156.000000;766.000000
1608557958;4;;;;;;;;;;;;;;;;;;-0.117680;5.334818;-9.100572;1.444568;-0.670436;2.895226;0.166766;-0.237321;0.440739;149.795135;1.149301;212.581329;0.000000;0.000000;0.000000;0.000000;-506.000000;-152.000000;767.000000
1608557958;5;;;;;;;;;;;;;;92474587;76451;697;78;-0.196133;5.295591;-9.100572;1.451621;-0.670436;2.891748;0.153938;-0.242513;0.446542;149.796143;1.141087;212.526184;0.000000;0.000000;0.000000;0.000000;-508.000000;-152.000000;766.000000
1608557958;6;;;;;;;;;;;;;;;;;;-0.156906;5.374045;-9.414384;1.451621;-0.680649;2.902182;0.172264;-0.260839;0.445626;149.844620;1.109905;212.374634;0.000000;0.000000;0.000000;0.000000;-508.000000;-155.000000;769.000000
1608557958;7;466840740;67424916;898;850;27;39;187;667;10;3;49158;13628;1;;;;;-0.235360;5.570177;-9.375158;1.458674;-0.677245;2.898704;0.203418;-0.255952;0.443183;149.788544;1.122555;212.411438;0.000000;0.000000;0.000000;0.000000;-510.000000;-154.000000;768.000000
1608557958;8;;;;;;;;;;;;;;92461305;76570;723;78;-0.470719;5.452498;-9.257478;1.458674;-0.667031;2.895226;0.221439;-0.199447;0.463647;149.759964;1.261168;212.556320;0.000000;0.000000;0.000000;0.000000;-510.000000;-151.000000;767.000000
1608557958;9;;;;;;;;;;;;;;;;;;-0.706079;5.374045;-9.179025;1.469253;-0.667031;2.895226;0.190590;-0.123089;0.491746;149.749207;1.514839;212.777039;0.000000;0.000000;0.000000;0.000000;-513.000000;-151.000000;767.000000
1608557958;10;;;;;;;;;;;;;;;;;;-0.509946;5.060232;-9.453611;1.458674;-0.677245;2.888271;0.118813;-0.115148;0.480751;149.958420;1.635635;212.510147;0.000000;0.000000;0.000000;0.000000;-510.000000;-154.000000;765.000000
1608557958;11;466840960;67425399;899;852;27;39;194;634;10;3;49158;200013104;1;92447704;76691;749;78;-0.117680;5.060232;-9.610517;1.469253;-0.673840;2.888271;0.044288;-0.163712;0.439212;150.185776;1.534148;212.011566;0.000000;0.000000;0.000000;0.000000;-513.000000;-153.000000;765.000000
1608557958;12;;;;;;;;;;;;;;;;;;0.078453;5.256365;-9.571291;1.469253;-0.667031;2.884793;-0.017715;-0.175013;0.402255;150.289734;1.339569;211.645966;0.000000;0.000000;0.000000;0.000000;-513.000000;-151.000000;764.000000
1608557958;13;;;;;;;;;;;;;;92434490;76808;771;78;-0.235360;5.177911;-9.492838;1.469253;-0.673840;2.877837;-0.053145;-0.138056;0.384540;150.399734;1.330302;211.402008;0.000000;0.000000;0.000000;0.000000;-513.000000;-153.000000;762.000000
1608557958;14;;;;;;;;;;;;;;;;;;-0.313813;5.138685;-9.375158;1.469253;-0.687458;2.874359;-0.062919;-0.089186;0.360716;150.486984;1.365403;211.196564;0.000000;0.000000;0.000000;0.000000;-513.000000;-157.000000;761.000000
1608557958;15;466841192;67425859;900;853;27;39;198;601;10;3;49158;400012581;1;;;;;-0.431493;5.177911;-9.335931;1.476306;-0.684054;2.867404;-0.055894;-0.053451;0.338725;150.536926;1.460316;211.099258;0.000000;0.000000;0.000000;0.000000;-515.000000;-156.000000;759.000000
1608557958;16;;;;;;;;;;;;;;92421934;76920;788;78;-0.353039;5.374045;-9.139798;1.476306;-0.701076;2.860448;-0.045509;-0.032987;0.307265;150.437775;1.504993;211.135849;0.000000;0.000000;0.000000;0.000000;-515.000000;-161.000000;757.000000
1608557958;17;;;;;;;;;;;;;;;;;;-0.313813;5.413271;-9.296705;1.469253;-0.704481;2.850015;-0.035125;-0.035125;0.279165;150.372879;1.521581;211.098602;0.000000;0.000000;0.000000;0.000000;-513.000000;-162.000000;754.000000
1608557958;18;;;;;;;;;;;;;;92409048;77035;802;78;-0.156906;5.295591;-9.100572;1.476306;-0.707885;2.846537;-0.029932;-0.061697;0.241903;150.316101;1.454800;210.964081;0.000000;0.000000;0.000000;0.000000;-515.000000;-163.000000;753.000000
1608557958;19;466841429;67426324;901;854;27;39;203;581;10;3;49158;600012058;1;;;;;0.000000;5.374045;-9.061345;1.479832;-0.711290;2.836103;-0.003971;-0.099571;0.193033;150.217392;1.309320;210.810883;0.000000;0.000000;0.000000;0.000000;-516.000000;-164.000000;750.000000
1608557959;0;;;;;;;;;;;;;;;;;;-0.117680;5.295591;-8.865212;1.476306;-0.714694;2.829148;0.011301;-0.122173;0.176540;150.110489;1.243679;210.739838;0.000000;0.000000;0.000000;0.000000;-515.000000;-165.000000;748.000000
1608557959;1;;;;;;;;;;;;;;92396859;77143;813;78;-0.274586;5.530951;-8.825985;1.479832;-0.714694;2.825670;0.032681;-0.127060;0.158825;149.892059;1.270322;210.912979;0.000000;0.000000;0.000000;0.000000;-516.000000;-165.000000;747.000000
1608557959;2;;;;;;;;;;;;;;;;;;-0.392266;5.530951;-9.179025;1.483359;-0.714694;2.825670;0.052534;-0.094379;0.165544;149.795700;1.352919;210.972672;0.000000;0.000000;0.000000;0.000000;-517.000000;-165.000000;747.000000
1608557959;3;466841682;67426799;902;855;27;39;209;566;10;3;49158;800011535;1;92384017;77257;821;78;-0.392266;5.334818;-9.022118;1.479832;-0.718099;2.822192;0.066279;-0.079412;0.160352;149.756546;1.431957;210.952606;0.000000;0.000000;0.000000;0.000000;-516.000000;-166.000000;746.000000
1608557959;4;;;;;;;;;;;;;;;;;;-0.156906;5.491724;-9.061345;1.483359;-0.721503;2.825670;0.084910;-0.107512;0.135307;149.659058;1.373603;210.902008;0.000000;0.000000;0.000000;0.000000;-517.000000;-167.000000;747.000000
1608557959;5;;;;;;;;;;;;;;;;;;-0.392266;5.295591;-9.139798;1.476306;-0.718099;2.815237;0.067195;-0.081245;0.132863;149.684372;1.448915;210.806061;0.000000;0.000000;0.000000;0.000000;-515.000000;-166.000000;744.000000
1608557959;6;;;;;;;;;;;;;;92371304;77370;830;78;-0.353039;5.334818;-9.453611;1.486885;-0.721503;2.815237;0.065057;-0.031765;0.129503;149.772278;1.490303;210.568695;0.000000;0.000000;0.000000;0.000000;-518.000000;-167.000000;744.000000
1608557959;7;466841953;67427287;903;856;28;40;215;554;10;3;49159;11013;1;;;;;-0.627626;5.452498;-9.257478;1.483359;-0.714694;2.818714;0.040623;0.035736;0.149357;149.745331;1.675598;210.683823;0.000000;0.000000;0.000000;0.000000;-517.000000;-165.000000;745.000000
1608557959;8;;;;;;;;;;;;;;92359865;77472;835;78;-0.627626;5.374045;-9.571291;1.483359;-0.724908;2.815237;0.003971;0.093462;0.139277;149.839493;1.835285;210.562378;0.000000;0.000000;0.000000;0.000000;-517.000000;-168.000000;744.000000
1608557959;9;;;;;;;;;;;;;;;;;;-0.196133;5.334818;-9.218252;1.483359;-0.731717;2.811759;-0.002443;0.077580;0.089492;149.849655;1.757256;210.349365;0.000000;0.000000;0.000000;0.000000;-517.000000;-170.000000;743.000000
1608557959;10;;;;;;;;;;;;;;;;;;-0.156906;5.099458;-9.218252;1.476306;-0.731717;2.818714;-0.049480;0.096822;0.054367;149.969604;1.666861;209.993546;0.000000;0.000000;0.000000;0.000000;-515.000000;-170.000000;745.000000
1608557959;11;466842249;67427789;904;857;28;40;223;542;10;3;49159;200010489;1;92347685;77581;839;78;-0.392266;5.177911;-9.218252;1.476306;-0.728312;2.804803;-0.095600;0.130114;0.034208;150.040359;1.712651;209.824799;0.000000;0.000000;0.000000;0.000000;-515.000000;-169.000000;741.000000
1608557959;12;;;;;;;;;;;;;;;;;;-0.392266;5.099458;-9.335931;1.479832;-0.738526;2.801325;-0.133169;0.145386;0.000611;150.171921;1.752566;209.522552;0.000000;0.000000;0.000000;0.000000;-516.000000;-172.000000;740.000000
1608557959;13;;;;;;;;;;;;;;92335957;77685;840;78;-0.156906;5.295591;-9.296705;1.476306;-0.738526;2.797848;-0.101404;0.129198;-0.053756;150.188065;1.661329;209.307724;0.000000;0.000000;0.000000;0.000000;-515.000000;-172.000000;739.000000
1608557959;14;;;;;;;;;;;;;;;;;;-0.274586;5.334818;-9.179025;1.476306;-0.741930;2.794370;-0.080634;0.133474;-0.083994;150.152771;1.643351;209.228653;0.000000;0.000000;0.000000;0.000000;-515.000000;-173.000000;738.000000
1608557959;15;466842560;67428306;905;858;28;40;232;533;10;3;49159;400009966;1;;;;;-0.470719;5.491724;-9.100572;1.469253;-0.745335;2.801325;-0.036041;0.141110;-0.098960;150.026627;1.732588;209.409683;0.000000;0.000000;0.000000;0.000000;-513.000000;-174.000000;740.000000
1608557959;16;;;;;;;;;;;;;;92324289;77789;842;78;-0.313813;5.452498;-9.257478;1.469253;-0.748739;2.787414;-0.010996;0.139583;-0.122784;149.974243;1.726634;209.369995;0.000000;0.000000;0.000000;0.000000;-513.000000;-175.000000;736.000000
1608557959;17;;;;;;;;;;;;;;;;;;-0.274586;5.530951;-9.414384;1.469253;-0.745335;2.794370;0.018326;0.116675;-0.156992;149.933411;1.698027;209.325226;0.000000;0.000000;0.000000;0.000000;-513.000000;-174.000000;738.000000
1608557959;18;;;;;;;;;;;;;;92313592;77884;839;78;-0.313813;5.452498;-9.375158;1.462200;-0.748739;2.797848;0.044593;0.113621;-0.171348;149.921906;1.693964;209.273651;0.000000;0.000000;0.000000;0.000000;-511.000000;-175.000000;739.000000
1608557959;19;466842866;67428824;906;859;28;40;239;527;10;3;49159;600009443;1;;;;;-0.431493;5.570177;-9.414384;1.462200;-0.748739;2.797848;0.052229;0.108123;-0.180205;149.868591;1.750460;209.347015;0.000000;0.000000;0.000000;0.000000;-511.000000;-175.000000;739.000000
1608557960;0;;;;;;;;;;;;;;;;;;-0.431493;5.530951;-9.492838;1.469253;-0.741930;2.804803;0.066279;0.147524;-0.177456;149.859039;1.800324;209.370087;0.000000;0.000000;0.000000;0.000000;-513.000000;-173.000000;741.000000
1608557960;1;;;;;;;;;;;;;;92303554;77973;829;78;-0.666852;5.530951;-9.532064;1.458674;-0.738526;2.815237;0.062614;0.189979;-0.146608;149.860718;1.966567;209.536636;0.000000;0.000000;0.000000;0.000000;-510.000000;-172.000000;744.000000
1608557960;2;;;;;;;;;;;;;;;;;;-0.706079;5.452498;-9.453611;1.458674;-0.745335;2.811759;0.069028;0.202196;-0.147829;149.877182;2.140092;209.661346;0.000000;0.000000;0.000000;0.000000;-510.000000;-174.000000;743.000000
1608557960;3;466843172;67429347;907;859;28;40;243;523;10;3;49159;800008920;1;92292852;78069;820;78;-0.509946;5.609404;-9.571291;1.455148;-0.745335;2.818714;0.047037;0.219301;-0.157909;149.852173;2.189265;209.751343;0.000000;0.000000;0.000000;0.000000;-509.000000;-174.000000;745.000000
1608557960;4;;;;;;;;;;;;;;;;;;-0.431493;5.530951;-9.806650;1.462200;-0.738526;2.815237;0.014050;0.202502;-0.180511;149.924667;2.189816;209.642303;0.000000;0.000000;0.000000;0.000000;-511.000000;-172.000000;744.000000
1608557960;5;;;;;;;;;;;;;;;;;;-0.392266;5.491724;-9.688971;1.448095;-0.741930;2.825670;-0.012217;0.182954;-0.198531;149.977753;2.172555;209.580643;0.000000;0.000000;0.000000;0.000000;-507.000000;-173.000000;747.000000
1608557960;6;;;;;;;;;;;;;;92282333;78162;811;78;-0.313813;5.530951;-9.767424;1.448095;-0.738526;2.818714;-0.057116;0.190895;-0.215635;150.027863;2.115442;209.482483;0.000000;0.000000;0.000000;0.000000;-507.000000;-172.000000;745.000000
1608557960;7;466843494;67429886;908;860;28;40;248;518;10;3;49160;8397;1;;;;;-0.549172;5.648631;-10.238143;1.437515;-0.735121;2.825670;-0.084910;0.220828;-0.228158;150.136429;2.172795;209.430817;0.000000;0.000000;0.000000;0.000000;-504.000000;-171.000000;747.000000
1608557960;8;;;;;;;;;;;;;;92273303;78243;799;78;-0.588399;5.648631;-10.198917;1.444568;-0.731717;2.822192;-0.113010;0.244957;-0.241903;150.224823;2.244435;209.409317;0.000000;0.000000;0.000000;0.000000;-506.000000;-170.000000;746.000000
1608557960;9;;;;;;;;;;;;;;;;;;-0.431493;5.530951;-9.885103;1.441042;-0.738526;2.818714;-0.122478;0.241292;-0.263894;150.279541;2.238145;209.345810;0.000000;0.000000;0.000000;0.000000;-505.000000;-172.000000;745.000000
1608557960;10;;;;;;;;;;;;;;;;;;-0.392266;5.530951;-9.610517;1.433989;-0.745335;2.811759;-0.142332;0.223882;-0.292299;150.259521;2.216937;209.367401;0.000000;0.000000;0.000000;0.000000;-503.000000;-174.000000;743.000000
1608557960;11;466843841;67430450;909;862;28;40;255;511;10;3;49160;200007873;1;92266186;78307;777;78;-0.353039;5.413271;-9.649744;1.433989;-0.745335;2.822192;-0.156381;0.204945;-0.313985;150.304443;2.177999;209.285461;0.000000;0.000000;0.000000;0.000000;-503.000000;-174.000000;746.000000
1608557960;12;;;;;;;;;;;;;;;;;;-0.353039;5.452498;-9.963557;1.433989;-0.755548;2.808281;-0.157298;0.193339;-0.321315;150.405075;2.138235;209.056213;0.000000;0.000000;0.000000;0.000000;-503.000000;-177.000000;742.000000
1608557960;13;;;;;;;;;;;;;;92261882;78346;740;78;-0.509946;5.609404;-9.688971;1.433989;-0.748739;2.811759;-0.141110;0.207389;-0.316734;150.357727;2.185206;209.175354;0.000000;0.000000;0.000000;0.000000;-503.000000;-175.000000;743.000000
1608557960;14;;;;;;;;;;;;;;;;;;-0.745305;5.452498;-9.571291;1.426936;-0.758953;2.804803;-0.127060;0.210443;-0.312458;150.355072;2.353760;209.315140;0.000000;0.000000;0.000000;0.000000;-501.000000;-178.000000;741.000000
1608557960;15;466844188;67431014;910;863;28;40;261;507;10;3;49160;400007349;1;;;;;-0.509946;5.727084;-9.414384;1.423410;-0.762357;2.801325;-0.087354;0.183565;-0.324064;150.188217;2.383341;209.573044;0.000000;0.000000;0.000000;0.000000;-500.000000;-179.000000;740.000000
1608557960;16;;;;;;;;;;;;;;92260418;78360;684;78;-0.470719;5.609404;-9.453611;1.423410;-0.758953;2.794370;-0.051313;0.169821;-0.301462;150.101089;2.390207;209.684906;0.000000;0.000000;0.000000;0.000000;-500.000000;-178.000000;738.000000
1608557960;17;;;;;;;;;;;;;;;;;;-0.549172;5.530951;-9.453611;1.419884;-0.769166;2.794370;-0.043677;0.177762;-0.274278;150.057968;2.438229;209.748077;0.000000;0.000000;0.000000;0.000000;-499.000000;-181.000000;738.000000
1608557960;18;;;;;;;;;;;;;;92259610;78367;619;78;-0.823759;5.452498;-9.571291;1.419884;-0.769166;2.797848;-0.043677;0.192423;-0.245873;150.085297;2.622082;209.844528;0.000000;0.000000;0.000000;0.000000;-499.000000;-181.000000;739.000000
1608557960;19;466844556;67431592;911;864;28;40;267;501;10;3;49160;600006825;1;;;;;-0.745305;5.452498;-9.296705;1.416357;-0.769166;2.790892;-0.020159;0.184176;-0.227547;150.037628;2.755460;210.012817;0.000000;0.000000;0.000000;0.000000;-498.000000;-181.000000;737.000000
1608557961;0;;;;;;;;;;;;;;;;;;-0.706079;5.570177;-9.414384;1.412831;-0.769166;2.787414;0.007636;0.186619;-0.206167;149.972733;2.849235;210.173645;0.000000;0.000000;0.000000;0.000000;-497.000000;-181.000000;736.000000
1608557961;1;;;;;;;;;;;;;;92261818;78347;541;78;-0.588399;5.491724;-9.571291;1.419884;-0.769166;2.790892;0.019242;0.175013;-0.186008;149.990875;2.869533;210.120148;0.000000;0.000000;0.000000;0.000000;-499.000000;-181.000000;737.000000
1608557961;2;;;;;;;;;;;;;;;;;;-0.627626;5.452498;-9.532064;1.398725;-0.765762;2.790892;0.026267;0.178373;-0.166461;150.014771;2.909692;210.132889;0.000000;0.000000;0.000000;0.000000;-493.000000;-180.000000;737.000000
1608557961;3;466844924;67432167;913;866;28;40;273;497;10;3;49160;800006300;1;92264564;78322;459;78;-0.470719;5.530951;-9.532064;1.402252;-0.772571;2.790892;0.014355;0.155160;-0.160352;150.000870;2.863302;210.094849;0.000000;0.000000;0.000000;0.000000;-494.000000;-182.000000;737.000000
1608557961;4;;;;;;;;;;;;;;;;;;-0.509946;5.334818;-9.649744;1.409304;-0.769166;2.783936;0.001527;0.139583;-0.150578;150.107208;2.841767;209.865250;0.000000;0.000000;0.000000;0.000000;-496.000000;-181.000000;735.000000
1608557961;5;;;;;;;;;;;;;;;;;;-0.431493;5.413271;-9.728197;1.405778;-0.772571;2.780458;-0.017410;0.131641;-0.149051;150.187119;2.779548;209.636337;0.000000;0.000000;0.000000;0.000000;-495.000000;-182.000000;734.000000
1608557961;6;;;;;;;;;;;;;;92267298;78297;378;78;-0.549172;5.256365;-9.767424;1.398725;-0.765762;2.780458;-0.047647;0.112399;-0.134390;150.339722;2.785038;209.381119;0.000000;0.000000;0.000000;0.000000;-493.000000;-180.000000;734.000000
1608557961;7;466845295;67432749;915;867;28;40;277;493;10;3;49161;5775;1;;;;;-0.549172;5.413271;-9.728197;1.391672;-0.772571;2.780458;-0.064141;0.080329;-0.134085;150.396378;2.788939;209.283203;0.000000;0.000000;0.000000;0.000000;-491.000000;-182.000000;734.000000
1608557961;8;;;;;;;;;;;;;;92270509;78268;302;78;-0.313813;5.334818;-9.728197;1.402252;-0.775975;2.773503;-0.085827;0.067195;-0.131947;150.482773;2.672059;208.983643;0.000000;0.000000;0.000000;0.000000;-494.000000;-183.000000;732.000000
1608557961;9;;;;;;;;;;;;;;;;;;-0.549172;5.334818;-9.610517;1.402252;-0.775975;2.776981;-0.088881;0.052534;-0.111788;150.531036;2.690873;208.881989;0.000000;0.000000;0.000000;0.000000;-494.000000;-183.000000;733.000000
1608557961;10;;;;;;;;;;;;;;;;;;-0.706079;5.413271;-9.688971;1.395199;-0.786189;2.773503;-0.089492;0.048564;-0.083383;150.558716;2.785803;208.869614;0.000000;0.000000;0.000000;0.000000;-492.000000;-186.000000;732.000000
1608557961;11;466845663;67433303;916;869;28;40;280;486;10;3;49161;200005250;1;92273991;78237;232;78;-0.706079;5.452498;-9.649744;1.398725;-0.789593;2.770025;-0.090408;0.047037;-0.062614;150.556030;2.871731;208.883240;0.000000;0.000000;0.000000;0.000000;-493.000000;-187.000000;731.000000
1608557961;12;;;;;;;;;;;;;;;;;;-0.666852;5.413271;-9.375158;1.391672;-0.786189;2.756114;-0.079412;0.040928;-0.036652;150.500198;2.937047;208.973816;0.000000;0.000000;0.000000;0.000000;-491.000000;-186.000000;727.000000
1608557961;13;;;;;;;;;;;;;;92277611;78204;168;78;-0.706079;5.452498;-9.453611;1.391672;-0.792998;2.756114;-0.066584;0.031460;-0.006414;150.452713;3.013524;209.048035;0.000000;0.000000;0.000000;0.000000;-491.000000;-188.000000;727.000000
1608557961;14;;;;;;;;;;;;;;;;;;-0.706079;5.452498;-9.453611;1.395199;-0.796402;2.749158;-0.053756;0.023213;0.026878;150.409973;3.082353;209.084122;0.000000;0.000000;0.000000;0.000000;-492.000000;-189.000000;725.000000
1608557961;15;466846020;67433860;918;870;28;40;281;483;10;3;49161;400004727;1;;;;;-0.666852;5.334818;-9.257478;1.377567;-0.799807;2.752636;-0.035430;0.010079;0.046731;150.373627;3.131251;209.131714;0.000000;0.000000;0.000000;0.000000;-487.000000;-190.000000;726.000000
1608557961;16;;;;;;;;;;;;;;92280380;78180;114;78;-0.666852;5.413271;-9.139798;1.391672;-0.799807;2.752636;-0.023518;-0.026267;0.066890;150.272552;3.177339;209.264633;0.000000;0.000000;0.000000;0.000000;-491.000000;-190.000000;726.000000
1608557961;17;;;;;;;;;;;;;;;;;;-0.706079;5.295591;-9.453611;1.391672;-0.799807;2.738725;-0.013134;-0.046426;0.090103;150.319702;3.232428;209.132217;0.000000;0.000000;0.000000;0.000000;-491.000000;-190.000000;722.000000
1608557961;18;;;;;;;;;;;;;;92281708;78168;74;78;-0.588399;5.295591;-9.375158;1.391672;-0.806616;2.742203;-0.020769;-0.054367;0.102014;150.341736;3.221975;208.976471;0.000000;0.000000;0.000000;0.000000;-491.000000;-192.000000;723.000000
1608557961;19;466846374;67434432;919;872;28;40;284;486;10;3;49161;600004203;1;;;;;-0.706079;5.374045;-9.257478;1.391672;-0.806616;2.742203;-0.018326;-0.057116;0.132252;150.294022;3.277168;209.017487;0.000000;0.000000;0.000000;0.000000;-491.000000;-192.000000;723.000000
1608557962;0;;;;;;;;;;;;;;;;;;-0.588399;5.256365;-9.414384;1.391672;-0.806616;2.735247;-0.024740;-0.063225;0.154549;150.347031;3.261806;208.809586;0.000000;0.000000;0.000000;0.000000;-491.000000;-192.000000;721.000000
1608557962;1;;;;;;;;;;;;;;92280589;78178;53;78;-0.666852;5.099458;-9.414384;1.395199;-0.799807;2.738725;-0.027183;-0.078802;0.170431;150.468048;3.292022;208.553406;0.000000;0.000000;0.000000;0.000000;-492.000000;-190.000000;722.000000
1608557962;2;;;;;;;;;;;;;;;;;;-0.706079;5.217138;-9.296705;1.388146;-0.810020;2.738725;-0.045509;-0.096211;0.190590;150.491226;3.341753;208.480499;0.000000;0.000000;0.000000;0.000000;-490.000000;-193.000000;722.000000
1608557962;3;466846725;67435019;920;873;28;40;286;491;10;3;49161;800003680;1;92278346;78198;48;78;-0.588399;5.177911;-9.414384;1.391672;-0.820234;2.728291;-0.042455;-0.124922;0.203113;150.561035;3.321037;208.204941;0.000000;0.000000;0.000000;0.000000;-491.000000;-196.000000;719.000000
1608557962;4;;;;;;;;;;;;;;;;;;-0.549172;5.295591;-9.257478;1.402252;-0.813425;2.724813;-0.050702;-0.150578;0.207389;150.527847;3.283703;208.105804;0.000000;0.000000;0.000000;0.000000;-494.000000;-194.000000;718.000000
1608557962;5;;;;;;;;;;;;;;;;;;-0.549172;5.217138;-9.139798;1.395199;-0.816829;2.724813;-0.054062;-0.159741;0.225409;150.503235;3.254048;208.013626;0.000000;0.000000;0.000000;0.000000;-492.000000;-195.000000;718.000000
1608557962;6;;;;;;;;;;;;;;92273960;78237;61;78;-0.706079;5.177911;-9.022118;1.395199;-0.820234;2.731769;-0.050091;-0.154243;0.251676;150.467712;3.316953;208.042786;0.000000;0.000000;0.000000;0.000000;-492.000000;-196.000000;720.000000
1608557962;7;466847098;67435579;922;874;28;40;287;481;9;3;49162;3156;1;;;;;-0.784532;5.295591;-9.414384;1.398725;-0.813425;2.721336;-0.046731;-0.150578;0.284358;150.485184;3.400675;208.001587;0.000000;0.000000;0.000000;0.000000;-493.000000;-194.000000;717.000000
1608557962;8;;;;;;;;;;;;;;92269486;78277;83;78;-0.784532;5.452498;-9.296705;1.402252;-0.823638;2.717858;-0.054062;-0.152716;0.299018;150.397522;3.476943;208.102905;0.000000;0.000000;0.000000;0.000000;-494.000000;-197.000000;716.000000
1608557962;9;;;;;;;;;;;;;;;;;;-0.627626;5.374045;-9.296705;1.402252;-0.830447;2.707424;-0.046426;-0.182954;0.309098;150.354736;3.463750;208.010086;0.000000;0.000000;0.000000;0.000000;-494.000000;-199.000000;713.000000
1608557962;10;;;;;;;;;;;;;;;;;;-0.470719;5.256365;-9.335931;1.391672;-0.844065;2.717858;-0.024740;-0.229685;0.319788;150.381210;3.368943;207.733261;0.000000;0.000000;0.000000;0.000000;-491.000000;-203.000000;716.000000
1608557962;11;466847468;67436151;923;876;28;40;290;481;9;3;49162;200002632;1;92262735;78339;117;78;-0.431493;5.295591;-9.139798;1.412831;-0.830447;2.707424;-0.022602;-0.259007;0.340252;150.334305;3.265967;207.578339;0.000000;0.000000;0.000000;0.000000;-497.000000;-199.000000;713.000000
1608557962;12;;;;;;;;;;;;;;;;;;-0.588399;5.452498;-9.296705;1.412831;-0.830447;2.700469;-0.006414;-0.255342;0.358883;150.261734;3.251862;207.547211;0.000000;0.000000;0.000000;0.000000;-497.000000;-199.000000;711.000000
1608557962;13;;;;;;;;;;;;;;92253640;78421;164;78;-0.666852;5.452498;-9.414384;1.405778;-0.833852;2.693513;0.024740;-0.249538;0.385456;150.227768;3.277433;207.489212;0.000000;0.000000;0.000000;0.000000;-495.000000;-200.000000;709.000000
1608557962;14;;;;;;;;;;;;;;;;;;-0.627626;5.491724;-9.296705;1.405778;-0.837256;2.700469;0.075136;-0.273973;0.390037;150.147888;3.282356;207.508865;0.000000;0.000000;0.000000;0.000000;-495.000000;-201.000000;711.000000
1608557962;15;466847851;67436719;925;878;28;40;292;476;9;3;49162;400002107;1;;;;;-0.509946;5.491724;-9.414384;1.419884;-0.830447;2.690035;0.091324;-0.294132;0.389732;150.107468;3.222001;207.389633;0.000000;0.000000;0.000000;0.000000;-499.000000;-199.000000;708.000000
1608557962;16;;;;;;;;;;;;;;92238962;78554;236;78;-0.627626;5.452498;-9.375158;1.419884;-0.837256;2.696991;0.096517;-0.316734;0.394924;150.078552;3.231003;207.317719;0.000000;0.000000;0.000000;0.000000;-499.000000;-201.000000;710.000000
1608557962;17;;;;;;;;;;;;;;;;;;-0.706079;5.413271;-9.335931;1.419884;-0.837256;2.693513;0.065668;-0.307571;0.412639;150.060059;3.282240;207.272507;0.000000;0.000000;0.000000;0.000000;-499.000000;-201.000000;709.000000
1608557962;18;;;;;;;;;;;;;;92220323;78723;335;78;-0.706079;5.334818;-9.453611;1.426936;-0.844065;2.700469;0.055589;-0.299935;0.429744;150.110397;3.326180;207.089844;0.000000;0.000000;0.000000;0.000000;-501.000000;-203.000000;711.000000
1608557962;19;466848247;67437268;927;880;28;40;293;464;9;3;49162;600001583;1;;;;;-0.745305;5.334818;-9.649744;1.430463;-0.837256;2.696991;0.054062;-0.283747;0.432798;150.205795;3.380259;206.856522;0.000000;0.000000;0.000000;0.000000;-502.000000;-201.000000;710.000000
1608557963;0;;;;;;;;;;;;;;;;;;-0.980665;5.334818;-9.453611;1.437515;-0.840661;2.693513;0.040012;-0.254731;0.455400;150.241562;3.558455;206.827011;0.000000;0.000000;0.000000;0.000000;-504.000000;-202.000000;709.000000
1608557963;1;;;;;;;;;;;;;;92200254;78905;452;78;-0.745305;5.374045;-9.453611;1.433989;-0.844065;2.690035;0.022602;-0.226020;0.459371;150.255753;3.594690;206.705994;0.000000;0.000000;0.000000;0.000000;-503.000000;-203.000000;708.000000
1608557963;2;;;;;;;;;;;;;;;;;;-0.588399;5.374045;-9.767424;1.426936;-0.847470;2.690035;0.001222;-0.217163;0.468534;150.348236;3.537346;206.377960;0.000000;0.000000;0.000000;0.000000;-501.000000;-204.000000;708.000000
1608557963;3;466848652;67437821;929;882;28;40;296;459;9;3;49162;800001059;1;92179211;79096;575;78;-0.706079;5.177911;-9.688971;1.426936;-0.854279;2.676124;-0.029932;-0.209221;0.454789;150.501358;3.551358;205.956589;0.000000;0.000000;0.000000;0.000000;-501.000000;-206.000000;704.000000
1608557963;4;;;;;;;;;;;;;;;;;;-0.509946;5.334818;-9.649744;1.444568;-0.854279;2.676124;-0.053145;-0.229685;0.442877;150.557648;3.461018;205.618958;0.000000;0.000000;0.000000;0.000000;-506.000000;-206.000000;704.000000
1608557963;5;;;;;;;;;;;;;;;;;;-0.549172;5.295591;-9.453611;1.433989;-0.857683;2.662213;-0.058338;-0.230296;0.431576;150.576294;3.405051;205.371216;0.000000;0.000000;0.000000;0.000000;-503.000000;-207.000000;700.000000
1608557963;6;;;;;;;;;;;;;;92158436;79284;691;78;-0.431493;5.138685;-8.865212;1.430463;-0.861088;2.658735;-0.039095;-0.226936;0.419970;150.508820;3.305675;205.245728;0.000000;0.000000;0.000000;0.000000;-502.000000;-208.000000;699.000000
1608557963;7;466849041;67438374;930;883;28;40;296;460;9;3;49163;536;1;;;;;-0.588399;5.374045;-9.218252;1.437515;-0.871301;2.651779;-0.020464;-0.238543;0.397979;150.433823;3.290736;205.160797;0.000000;0.000000;0.000000;0.000000;-504.000000;-211.000000;697.000000
1608557963;8;;;;;;;;;;;;;;92136649;79482;799;78;-0.549172;5.491724;-9.022118;1.437515;-0.871301;2.634390;-0.005803;-0.243430;0.383318;150.257584;3.259303;205.222397;0.000000;0.000000;0.000000;0.000000;-504.000000;-211.000000;692.000000
1608557963;9;;;;;;;;;;;;;;;;;;-0.470719;5.530951;-9.414384;1.448095;-0.878110;2.634390;0.011912;-0.251371;0.360410;150.188416;3.180225;205.047028;0.000000;0.000000;0.000000;0.000000;-507.000000;-213.000000;692.000000
1608557963;10;;;;;;;;;;;;;;;;;;-0.549172;5.452498;-9.100572;1.444568;-0.881515;2.630912;0.008247;-0.248011;0.337503;150.076843;3.158529;205.000977;0.000000;0.000000;0.000000;0.000000;-506.000000;-214.000000;691.000000
1608557963;11;466849434;67438934;932;884;28;40;297;462;9;3;49163;200000013;1;92114359;79684;902;78;-0.588399;5.452498;-9.061345;1.444568;-0.888324;2.623957;0.037263;-0.272140;0.310930;149.965500;3.161135;204.961639;0.000000;0.000000;0.000000;0.000000;-506.000000;-216.000000;689.000000
1608557963;12;;;;;;;;;;;;;;;;;;-0.431493;5.374045;-9.179025;1.448095;-0.888324;2.613523;0.038790;-0.267253;0.289245;149.934189;3.077327;204.715286;0.000000;0.000000;0.000000;0.000000;-507.000000;-216.000000;686.000000
1608557963;13;;;;;;;;;;;;;;92091609;79890;997;78;-0.549172;5.256365;-9.335931;1.451621;-0.888324;2.610045;0.046731;-0.247706;0.265115;150.002716;3.063023;204.355957;0.000000;0.000000;0.000000;0.000000;-508.000000;-216.000000;685.000000
1608557963;14;;;;;;;;;;;;;;;;;;-0.627626;5.491724;-8.629853;1.451621;-0.888324;2.606568;0.042150;-0.200058;0.258091;149.755341;3.107831;204.603378;0.000000;0.000000;0.000000;0.000000;-508.000000;-216.000000;684.000000
1608557963;15;466849852;67439487;934;886;28;40;299;458;9;3;49163;399999488;1;;;;;-0.823759;5.177911;-9.179025;1.448095;-0.895133;2.603090;0.044899;-0.149967;0.246484;149.837067;3.243991;204.348053;0.000000;0.000000;0.000000;0.000000;-507.000000;-218.000000;683.000000
1608557963;16;;;;;;;;;;;;;;92069551;80090;1081;78;-0.666852;5.295591;-9.218252;1.451621;-0.898537;2.596134;0.055589;-0.116981;0.212581;149.865768;3.278520;204.101654;0.000000;0.000000;0.000000;0.000000;-508.000000;-219.000000;681.000000
1608557963;17;;;;;;;;;;;;;;;;;;-0.549172;5.217138;-9.963557;1.462200;-0.898537;2.592656;0.045204;-0.094073;0.178373;150.115448;3.230216;203.393906;0.000000;0.000000;0.000000;0.000000;-511.000000;-219.000000;680.000000
1608557963;18;;;;;;;;;;;;;;92047622;80289;1151;78;-0.392266;5.295591;-9.571291;1.451621;-0.905346;2.596134;0.030849;-0.086437;0.153633;150.208435;3.112574;202.949173;0.000000;0.000000;0.000000;0.000000;-508.000000;-221.000000;681.000000
1608557963;19;466850272;67440060;935;888;28;40;301;459;10;3;49163;599998964;1;;;;;-0.392266;5.295591;-9.218252;1.455148;-0.898537;2.589179;0.023824;-0.053451;0.103542;150.200012;3.012631;202.719238;0.000000;0.000000;0.000000;0.000000;-509.000000;-219.000000;679.000000
1608557964;0;;;;;;;;;;;;;;;;;;-0.431493;5.452498;-9.022118;1.455148;-0.901942;2.582223;0.000305;-0.046120;0.058338;150.065369;2.945759;202.721939;0.000000;0.000000;0.000000;0.000000;-509.000000;-220.000000;677.000000
1608557964;1;;;;;;;;;;;;;;92027957;80467;1202;78;-0.392266;5.452498;-9.414384;1.462200;-0.905346;2.585701;-0.014355;-0.029627;0.015272;150.051041;2.857680;202.508514;0.000000;0.000000;0.000000;0.000000;-511.000000;-221.000000;678.000000
1608557964;2;;;;;;;;;;;;;;;;;;-0.353039;5.413271;-9.532064;1.455148;-0.912155;2.585701;-0.003054;-0.034208;-0.036041;150.086716;2.756375;202.205597;0.000000;0.000000;0.000000;0.000000;-509.000000;-223.000000;678.000000
1608557964;3;466850672;67440629;936;889;28;40;300;462;10;3;49163;799998441;1;92010098;80629;1232;78;-0.274586;5.217138;-9.100572;1.448095;-0.908751;2.575267;0.005803;-0.058948;-0.101098;150.095596;2.630682;201.952316;0.000000;0.000000;0.000000;0.000000;-507.000000;-222.000000;675.000000
1608557964;4;;;;;;;;;;;;;;;;;;-0.274586;5.295591;-9.335931;1.462200;-0.901942;2.582223;0.006109;-0.068111;-0.154854;150.129745;2.514160;201.693359;0.000000;0.000000;0.000000;0.000000;-511.000000;-220.000000;677.000000
1608557964;5;;;;;;;;;;;;;;;;;;-0.431493;5.256365;-9.218252;1.448095;-0.908751;2.582223;0.006414;-0.048869;-0.175624;150.147552;2.495595;201.534821;0.000000;0.000000;0.000000;0.000000;-507.000000;-222.000000;677.000000
1608557964;6;;;;;;;;;;;;;;91993121;80783;1246;78;-0.666852;5.099458;-9.453611;1.451621;-0.905346;2.585701;0.010690;-0.007636;-0.188146;150.298477;2.601289;201.239685;0.000000;0.000000;0.000000;0.000000;-508.000000;-221.000000;678.000000
1608557964;7;466851060;67441196;937;890;28;40;299;465;9;3;49164;-2080;1;;;;;-0.627626;5.295591;-9.296705;1.455148;-0.901942;2.592656;0.025656;0.018326;-0.216857;150.301971;2.676880;201.225693;0.000000;0.000000;0.000000;0.000000;-509.000000;-220.000000;680.000000
1608557964;8;;;;;;;;;;;;;;91976833;80930;1247;78;-0.588399;5.413271;-9.453611;1.462200;-0.901942;2.596134;0.040928;0.025351;-0.236405;150.292175;2.718360;201.213776;0.000000;0.000000;0.000000;0.000000;-511.000000;-220.000000;681.000000
1608557964;9;;;;;;;;;;;;;;;;;;-0.588399;5.413271;-8.943665;1.458674;-0.898537;2.589179;0.041539;0.065668;-0.273362;150.144470;2.768662;201.457977;0.000000;0.000000;0.000000;0.000000;-510.000000;-219.000000;679.000000
1608557964;10;;;;;;;;;;;;;;;;;;-0.784532;5.295591;-9.414384;1.451621;-0.895133;2.603090;0.025656;0.113621;-0.269086;150.194260;2.907213;201.473953;0.000000;0.000000;0.000000;0.000000;-508.000000;-218.000000;683.000000
1608557964;11;466851426;67441748;939;891;28;40;296;468;10;3;49164;199997397;1;91962928;81056;1233;78;-0.745305;5.334818;-9.414384;1.455148;-0.891728;2.606568;0.023824;0.166155;-0.286801;150.220963;3.010505;201.518311;0.000000;0.000000;0.000000;0.000000;-509.000000;-217.000000;684.000000
1608557964;12;;;;;;;;;;;;;;;;;;-0.706079;5.374045;-9.610517;1.465727;-0.888324;2.610045;0.034208;0.190590;-0.304822;150.277557;3.076360;201.480591;0.000000;0.000000;0.000000;0.000000;-512.000000;-216.000000;685.000000
1608557964;13;;;;;;;;;;;;;;91950701;81167;1206;78;-0.627626;5.334818;-9.218252;1.455148;-0.891728;2.610045;0.058948;0.221744;-0.331394;150.243912;3.105969;201.581696;0.000000;0.000000;0.000000;0.000000;-509.000000;-217.000000;685.000000
1608557964;14;;;;;;;;;;;;;;;;;;-0.392266;5.374045;-8.904439;1.451621;-0.878110;2.627434;0.076969;0.231823;-0.353385;150.108337;3.011368;201.842453;0.000000;0.000000;0.000000;0.000000;-508.000000;-213.000000;690.000000
1608557964;15;466851809;67442320;940;892;28;40;298;471;9;3;49164;399996875;1;;;;;-0.353039;5.256365;-9.610517;1.455148;-0.878110;2.630912;0.064141;0.251066;-0.379653;150.229919;2.894827;201.638550;0.000000;0.000000;0.000000;0.000000;-509.000000;-213.000000;691.000000
1608557964;16;;;;;;;;;;;;;;91940107;81263;1165;78;-0.666852;5.217138;-9.218252;1.451621;-0.871301;2.641346;0.048564;0.264810;-0.397062;150.256134;2.965586;201.776581;0.000000;0.000000;0.000000;0.000000;-508.000000;-211.000000;694.000000
1608557964;17;;;;;;;;;;;;;;;;;;-0.509946;5.217138;-9.375158;1.444568;-0.867897;2.637868;0.019242;0.273057;-0.412945;150.320999;2.941147;201.775055;0.000000;0.000000;0.000000;0.000000;-506.000000;-210.000000;693.000000
1608557964;18;;;;;;;;;;;;;;91931649;81340;1111;78;-0.431493;5.177911;-9.375158;1.448095;-0.864492;2.644824;0.003054;0.256869;-0.449902;150.397720;2.877745;201.730148;0.000000;0.000000;0.000000;0.000000;-507.000000;-209.000000;695.000000
1608557964;19;466852195;67442901;941;893;28;41;300;474;9;3;49164;599996353;1;;;;;-0.313813;5.413271;-9.335931;1.441042;-0.861088;2.655257;-0.001222;0.223271;-0.479224;150.347305;2.756533;201.889954;0.000000;0.000000;0.000000;0.000000;-505.000000;-208.000000;698.000000
1608557965;0;;;;;;;;;;;;;;;;;;-0.353039;5.177911;-9.296705;1.437515;-0.850874;2.662213;0.003054;0.190590;-0.502131;150.400970;2.670895;201.931122;0.000000;0.000000;0.000000;0.000000;-504.000000;-205.000000;700.000000
1608557965;1;;;;;;;;;;;;;;91923616;81413;1054;78;-0.353039;5.256365;-9.179025;1.441042;-0.850874;2.665691;-0.002749;0.166461;-0.512821;150.381134;2.594967;202.087143;0.000000;0.000000;0.000000;0.000000;-505.000000;-205.000000;701.000000
1608557965;2;;;;;;;;;;;;;;;;;;-0.392266;5.177911;-9.139798;1.441042;-0.847470;2.679602;-0.003360;0.173791;-0.510378;150.389771;2.549327;202.235352;0.000000;0.000000;0.000000;0.000000;-505.000000;-204.000000;705.000000
1608557965;3;466852592;67443495;942;894;28;41;304;475;9;3;49164;799995830;1;91919722;81448;982;78;-0.588399;5.217138;-9.179025;1.441042;-0.847470;2.683080;0.025656;0.180205;-0.499993;150.389526;2.613373;202.473251;0.000000;0.000000;0.000000;0.000000;-505.000000;-204.000000;706.000000
1608557965;4;;;;;;;;;;;;;;;;;;-0.627626;5.413271;-9.414384;1.441042;-0.837256;2.686558;0.051618;0.169210;-0.496022;150.360703;2.682801;202.785873;0.000000;0.000000;0.000000;0.000000;-505.000000;-201.000000;707.000000
1608557965;5;;;;;;;;;;;;;;;;;;-0.588399;5.256365;-9.022118;1.433989;-0.833852;2.686558;0.097738;0.150578;-0.510072;150.302094;2.737049;203.139282;0.000000;0.000000;0.000000;0.000000;-503.000000;-200.000000;707.000000
1608557965;6;;;;;;;;;;;;;;91917583;81467;896;78;-0.549172;5.256365;-9.061345;1.437515;-0.837256;2.703947;0.118508;0.173791;-0.493274;150.260147;2.763438;203.435501;0.000000;0.000000;0.000000;0.000000;-504.000000;-201.000000;712.000000
1608557965;7;466852997;67444093;943;895;28;41;308;474;9;3;49165;-4691;1;;;;;-0.784532;5.334818;-9.218252;1.430463;-0.827043;2.710902;0.101098;0.212581;-0.471588;150.228241;2.908377;203.860275;0.000000;0.000000;0.000000;0.000000;-502.000000;-198.000000;714.000000
1608557965;8;;;;;;;;;;;;;;91917695;81466;800;78;-0.823759;5.334818;-9.414384;1.437515;-0.813425;2.714380;0.084605;0.236710;-0.451735;150.251556;3.052875;204.200348;0.000000;0.000000;0.000000;0.000000;-504.000000;-194.000000;715.000000
1608557965;9;;;;;;;;;;;;;;;;;;-0.784532;5.138685;-9.375158;1.426936;-0.816829;2.721336;0.058948;0.258396;-0.428216;150.353622;3.167282;204.368240;0.000000;0.000000;0.000000;0.000000;-501.000000;-195.000000;717.000000
1608557965;10;;;;;;;;;;;;;;;;;;-0.784532;5.177911;-9.257478;1.426936;-0.816829;2.728291;0.059254;0.257480;-0.429438;150.396347;3.273558;204.625168;0.000000;0.000000;0.000000;0.000000;-501.000000;-195.000000;719.000000
1608557965;11;466853413;67444707;944;897;28;41;314;472;9;3;49165;199994785;1;91919020;81454;699;78;-0.509946;5.374045;-9.806650;1.419884;-0.813425;2.728291;0.031460;0.258396;-0.426078;150.484451;3.207300;204.646286;0.000000;0.000000;0.000000;0.000000;-499.000000;-194.000000;719.000000
1608557965;12;;;;;;;;;;;;;;;;;;-0.431493;5.334818;-9.649744;1.426936;-0.806616;2.735247;0.013134;0.264505;-0.406225;150.542435;3.110673;204.693634;0.000000;0.000000;0.000000;0.000000;-501.000000;-192.000000;721.000000
1608557965;13;;;;;;;;;;;;;;91922272;81425;595;78;-0.745305;5.374045;-9.453611;1.419884;-0.806616;2.738725;0.025045;0.276722;-0.397368;150.526535;3.191687;205.024597;0.000000;0.000000;0.000000;0.000000;-499.000000;-192.000000;722.000000
1608557965;14;;;;;;;;;;;;;;;;;;-0.588399;5.334818;-9.296705;1.412831;-0.813425;2.735247;0.062614;0.252287;-0.397979;150.488998;3.186728;205.274765;0.000000;0.000000;0.000000;0.000000;-497.000000;-194.000000;721.000000
1608557965;15;466853823;67445316;945;898;29;41;318;471;9;3;49165;399994262;1;;;;;-0.509946;5.374045;-9.100572;1.412831;-0.806616;2.742203;0.077580;0.211359;-0.384845;150.383850;3.144293;205.618378;0.000000;0.000000;0.000000;0.000000;-497.000000;-192.000000;723.000000
1608557965;16;;;;;;;;;;;;;;91928326;81370;485;78;-0.509946;5.452498;-9.335931;1.419884;-0.806616;2.742203;0.092241;0.163406;-0.386067;150.316833;3.099910;205.862823;0.000000;0.000000;0.000000;0.000000;-499.000000;-192.000000;723.000000
1608557965;17;;;;;;;;;;;;;;;;;;-0.549172;5.452498;-9.375158;1.412831;-0.796402;2.735247;0.110261;0.130725;-0.369573;150.266983;3.079796;206.114319;0.000000;0.000000;0.000000;0.000000;-497.000000;-189.000000;721.000000
1608557965;18;;;;;;;;;;;;;;91936774;81293;364;78;-0.431493;5.334818;-9.414384;1.402252;-0.799807;2.752636;0.114537;0.098960;-0.353080;150.286423;3.000168;206.216782;0.000000;0.000000;0.000000;0.000000;-494.000000;-190.000000;726.000000
1608557965;19;466854206;67445908;947;900;29;41;316;472;8;3;49165;599993739;1;;;;;-0.470719;5.295591;-9.335931;1.405778;-0.792998;2.752636;0.129809;0.074526;-0.314290;150.301483;2.951268;206.347824;0.000000;0.000000;0.000000;0.000000;-495.000000;-188.000000;726.000000
1608557966;0;;;;;;;;;;;;;;;;;;-0.784532;5.334818;-9.375158;1.405778;-0.792998;2.763069;0.134085;0.093157;-0.275195;150.307190;3.072128;206.658386;0.000000;0.000000;0.000000;0.000000;-495.000000;-188.000000;729.000000
1608557966;1;;;;;;;;;;;;;;91946024;81210;244;78;-0.823759;5.452498;-9.688971;1.405778;-0.782784;2.763069;0.135001;0.092851;-0.233045;150.339615;3.188666;206.929626;0.000000;0.000000;0.000000;0.000000;-495.000000;-185.000000;729.000000
1608557966;2;;;;;;;;;;;;;;;;;;-0.902212;5.295591;-9.414384;1.402252;-0.782784;2.773503;0.142942;0.070860;-0.206167;150.369888;3.347260;207.256241;0.000000;0.000000;0.000000;0.000000;-494.000000;-185.000000;732.000000
1608557966;3;466854545;67446529;948;901;29;41;314;494;8;3;49165;799993216;1;91956181;81117;128;78;-0.745305;5.099458;-9.375158;1.405778;-0.779380;2.773503;0.113621;0.052840;-0.181427;150.478592;3.412014;207.326843;0.000000;0.000000;0.000000;0.000000;-495.000000;-184.000000;732.000000
1608557966;4;;;;;;;;;;;;;;;;;;-0.706079;5.099458;-9.453611;1.398725;-0.775975;2.780458;0.069333;0.065668;-0.137139;150.596420;3.446905;207.368881;0.000000;0.000000;0.000000;0.000000;-493.000000;-183.000000;734.000000
1608557966;5;;;;;;;;;;;;;;;;;;-0.862985;4.981778;-9.649744;1.405778;-0.772571;2.780458;0.047037;0.050702;-0.091630;150.806244;3.556566;207.289368;0.000000;0.000000;0.000000;0.000000;-495.000000;-182.000000;734.000000
1608557966;6;;;;;;;;;;;;;;91966097;81028;18;78;-0.862985;5.256365;-9.414384;1.395199;-0.772571;2.783936;0.031765;0.033903;-0.076053;150.808029;3.658510;207.593338;0.000000;0.000000;0.000000;0.000000;-492.000000;-182.000000;735.000000
1608557966;7;466854888;67447151;950;903;29;42;313;505;8;3;49166;-7306;1;;;;;-0.666852;5.374045;-9.257478;1.398725;-0.769166;2.780458;0.034208;0.024740;-0.041539;150.713684;3.649139;207.920792;0.000000;0.000000;0.000000;0.000000;-493.000000;-181.000000;734.000000
1608557966;8;;;;;;;;;;;;;;91971892;80975;-66;78;-0.627626;5.256365;-9.179025;1.402252;-0.772571;2.773503;0.041844;0.029322;-0.001222;150.662567;3.623796;208.111618;0.000000;0.000000;0.000000;0.000000;-494.000000;-182.000000;732.000000
1608557966;9;;;;;;;;;;;;;;;;;;-0.784532;5.295591;-9.061345;1.398725;-0.775975;2.776981;0.033292;0.041539;0.037263;150.566055;3.688913;208.464020;0.000000;0.000000;0.000000;0.000000;-493.000000;-183.000000;733.000000
1608557966;10;;;;;;;;;;;;;;;;;;-0.823759;4.903325;-8.982892;1.402252;-0.772571;2.780458;0.031154;0.019242;0.076358;150.646667;3.780216;208.533600;0.000000;0.000000;0.000000;0.000000;-494.000000;-182.000000;734.000000
1608557966;11;466855224;67447784;952;905;29;42;313;514;8;3;49166;199992169;1;91975600;80941;-121;78;-0.588399;4.903325;-8.865212;1.402252;-0.769166;2.773503;0.031765;-0.005192;0.108123;150.687332;3.734594;208.520737;0.000000;0.000000;0.000000;0.000000;-494.000000;-181.000000;732.000000
1608557966;12;;;;;;;;;;;;;;;;;;-0.706079;5.060232;-8.943665;1.402252;-0.775975;2.783936;0.049175;-0.021075;0.144775;150.668533;3.754207;208.664642;0.000000;0.000000;0.000000;0.000000;-494.000000;-183.000000;735.000000
1608557966;13;;;;;;;;;;;;;;91977226;80927;-150;78;-0.627626;5.099458;-8.708306;1.405778;-0.769166;2.780458;0.051618;-0.057727;0.177762;150.566437;3.734669;208.905777;0.000000;0.000000;0.000000;0.000000;-495.000000;-181.000000;734.000000
1608557966;14;;;;;;;;;;;;;;;;;;-0.666852;4.942552;-8.708306;1.402252;-0.769166;2.780458;0.062614;-0.094684;0.204334;150.552017;3.742216;209.026001;0.000000;0.000000;0.000000;0.000000;-494.000000;-181.000000;734.000000
1608557966;15;466855579;67448412;954;906;30;42;314;512;8;3;49166;399991646;1;;;;;-0.706079;4.864099;-8.472946;1.398725;-0.775975;2.780458;0.060476;-0.143248;0.236099;150.510925;3.781359;209.203094;0.000000;0.000000;0.000000;0.000000;-493.000000;-183.000000;734.000000
1608557966;16;;;;;;;;;;;;;;91977369;80925;-156;78;-0.549172;4.746419;-8.629853;1.402252;-0.772571;2.773503;0.068111;-0.189674;0.253204;150.578766;3.722369;209.076279;0.000000;0.000000;0.000000;0.000000;-494.000000;-182.000000;732.000000
1608557966;17;;;;;;;;;;;;;;;;;;-0.588399;4.785646;-8.433719;1.405778;-0.772571;2.780458;0.078802;-0.249233;0.271530;150.563660;3.697372;209.126846;0.000000;0.000000;0.000000;0.000000;-495.000000;-182.000000;734.000000
1608557966;18;;;;;;;;;;;;;;91975352;80944;-143;78;-0.706079;4.746419;-8.472946;1.405778;-0.765762;2.783936;0.080634;-0.278860;0.284358;150.581619;3.743462;209.215469;0.000000;0.000000;0.000000;0.000000;-495.000000;-180.000000;735.000000
1608557966;19;466855933;67449034;955;908;30;42;314;508;8;3;49166;599991124;1;;;;;-0.666852;4.628739;-8.786759;1.409304;-0.765762;2.787414;0.083994;-0.298102;0.317955;150.745514;3.753257;208.999649;0.000000;0.000000;0.000000;0.000000;-496.000000;-180.000000;736.000000
1608557967;0;;;;;;;;;;;;;;;;;;-1.059118;4.746419;-8.865212;1.409304;-0.765762;2.787414;0.097128;-0.281609;0.355829;150.854523;3.979174;209.106903;0.000000;0.000000;0.000000;0.000000;-496.000000;-180.000000;736.000000
1608557967;1;;;;;;;;;;;;;;91969186;81000;-103;78;-0.941438;4.785646;-8.394493;1.423410;-0.769166;2.787414;0.113010;-0.286190;0.389732;150.800369;4.137728;209.384888;0.000000;0.000000;0.000000;0.000000;-500.000000;-181.000000;736.000000
1608557967;2;;;;;;;;;;;;;;;;;;-0.902212;4.707192;-8.394493;1.423410;-0.762357;2.787414;0.133474;-0.296880;0.406836;150.792206;4.259505;209.561295;0.000000;0.000000;0.000000;0.000000;-500.000000;-179.000000;736.000000
1608557967;3;466856293;67449671;957;910;30;42;316;511;9;3;49166;799990600;1;91958091;81100;-37;78;-0.862985;4.707192;-8.551399;1.426936;-0.762357;2.794370;0.149051;-0.297797;0.421497;150.829895;4.338784;209.613144;0.000000;0.000000;0.000000;0.000000;-501.000000;-179.000000;738.000000
1608557967;4;;;;;;;;;;;;;;;;;;-0.862985;4.628739;-8.355266;1.423410;-0.762357;2.790892;0.150273;-0.295659;0.426384;150.848312;4.421163;209.700073;0.000000;0.000000;0.000000;0.000000;-500.000000;-179.000000;737.000000
1608557967;5;;;;;;;;;;;;;;;;;;-1.059118;4.667966;-8.394493;1.441042;-0.755548;2.790892;0.145386;-0.275500;0.450513;150.855759;4.608286;209.905014;0.000000;0.000000;0.000000;0.000000;-505.000000;-177.000000;737.000000
1608557967;6;;;;;;;;;;;;;;91936194;81299;84;78;-0.980665;4.628739;-8.551399;1.433989;-0.762357;2.797848;0.147524;-0.265421;0.452651;150.927597;4.723352;209.919144;0.000000;0.000000;0.000000;0.000000;-503.000000;-179.000000;739.000000
1608557967;7;466856660;67450305;959;912;30;42;316;507;9;3;49167;-9922;1;;;;;-0.941438;4.785646;-8.512172;1.448095;-0.755548;2.790892;0.153633;-0.271835;0.458454;150.900330;4.801689;210.043976;0.000000;0.000000;0.000000;0.000000;-507.000000;-177.000000;737.000000
1608557967;8;;;;;;;;;;;;;;91909065;81545;257;78;-0.706079;4.746419;-8.551399;1.444568;-0.762357;2.787414;0.152411;-0.267864;0.448680;150.907074;4.734444;209.938019;0.000000;0.000000;0.000000;0.000000;-506.000000;-179.000000;736.000000
1608557967;9;;;;;;;;;;;;;;;;;;-0.902212;4.550286;-8.276813;1.448095;-0.755548;2.797848;0.154243;-0.251371;0.445932;150.936340;4.806641;209.973831;0.000000;0.000000;0.000000;0.000000;-507.000000;-177.000000;739.000000
1608557967;10;;;;;;;;;;;;;;;;;;-0.823759;4.707192;-8.472946;1.448095;-0.755548;2.794370;0.129809;-0.246179;0.440128;150.937256;4.811752;209.979691;0.000000;0.000000;0.000000;0.000000;-507.000000;-177.000000;738.000000
1608557967;11;466857025;67450944;960;913;30;42;317;506;9;3;49167;199989554;1;91878791;81819;460;78;-0.862985;4.511059;-8.669079;1.451621;-0.752144;2.787414;0.105985;-0.241597;0.438296;151.094467;4.835231;209.716125;0.000000;0.000000;0.000000;0.000000;-508.000000;-176.000000;736.000000
1608557967;12;;;;;;;;;;;;;;;;;;-0.706079;4.275700;-8.590626;1.455148;-0.755548;2.797848;0.082161;-0.242819;0.414167;151.339005;4.772542;209.209473;0.000000;0.000000;0.000000;0.000000;-509.000000;-177.000000;739.000000
1608557967;13;;;;;;;;;;;;;;;;;;-0.588399;4.393379;-8.119907;1.458674;-0.758953;2.794370;0.070555;-0.254731;0.400728;151.363495;4.659957;209.030701;0.000000;0.000000;0.000000;0.000000;-510.000000;-178.000000;738.000000
1608557967;14;;;;;;;;;;;;;;91848818;82091;663;78;-0.745305;4.393379;-8.394493;1.455148;-0.758953;2.783936;0.019242;-0.247400;0.376598;151.464569;4.643742;208.797760;0.000000;0.000000;0.000000;0.000000;-509.000000;-178.000000;735.000000
1608557967;15;466857417;67451582;962;915;31;42;320;499;9;3;49167;399989031;1;;;;;-0.549172;4.275700;-8.747532;1.458674;-0.762357;2.776981;-0.018021;-0.254731;0.349415;151.713242;4.502191;208.157883;0.000000;0.000000;0.000000;0.000000;-510.000000;-179.000000;733.000000
1608557967;16;;;;;;;;;;;;;;91818737;82363;852;78;-0.549172;3.804980;-8.119907;1.462200;-0.765762;2.773503;-0.044593;-0.267559;0.314901;152.031158;4.402427;207.402267;0.000000;0.000000;0.000000;0.000000;-511.000000;-180.000000;732.000000
1608557967;17;;;;;;;;;;;;;;;;;;-0.588399;4.550286;-8.355266;1.465727;-0.769166;2.770025;-0.044288;-0.286190;0.288634;151.970779;4.316084;207.333847;0.000000;0.000000;0.000000;0.000000;-512.000000;-181.000000;731.000000
1608557967;18;;;;;;;;;;;;;;;;;;-0.627626;4.707192;-8.002227;1.465727;-0.772571;2.763069;-0.036041;-0.260534;0.276722;151.727158;4.271223;207.596130;0.000000;0.000000;0.000000;0.000000;-512.000000;-182.000000;729.000000
1608557967;19;466857832;67452196;963;916;31;43;321;484;9;3;49167;599988509;1;91789862;82625;1022;78;-0.823759;4.628739;-8.159133;1.472779;-0.775975;2.756114;-0.013744;-0.238543;0.255647;151.597794;4.345954;207.760071;0.000000;0.000000;0.000000;0.000000;-514.000000;-183.000000;727.000000
1608557968;0;;;;;;;;;;;;;;;;;;-0.745305;4.746419;-7.845320;1.472779;-0.786189;2.749158;0.024435;-0.220217;0.227547;151.320633;4.376049;208.093155;0.000000;0.000000;0.000000;0.000000;-514.000000;-186.000000;725.000000
1608557968;1;;;;;;;;;;;;;;91759876;82897;1175;78;-0.823759;4.785646;-8.041454;1.469253;-0.792998;2.738725;0.050091;-0.185703;0.220828;151.112808;4.441520;208.332275;0.000000;0.000000;0.000000;0.000000;-513.000000;-188.000000;722.000000
1608557968;2;;;;;;;;;;;;;;;;;;-0.823759;4.628739;-8.433719;1.472779;-0.789593;2.731769;0.086743;-0.161268;0.197004;151.125580;4.486775;208.180878;0.000000;0.000000;0.000000;0.000000;-514.000000;-187.000000;720.000000
1608557968;3;466858246;67452810;965;917;31;43;322;474;9;3;49167;799987987;1;;;;;-0.627626;4.824872;-8.276813;1.476306;-0.792998;2.731769;0.115148;-0.167072;0.156992;150.989075;4.412913;208.174179;0.000000;0.000000;0.000000;0.000000;-515.000000;-188.000000;720.000000
1608557968;4;;;;;;;;;;;;;;91730098;83167;1308;78;-0.784532;4.550286;-8.747532;1.479832;-0.789593;2.721336;0.101709;-0.130725;0.129809;151.141922;4.426538;207.744110;0.000000;0.000000;0.000000;0.000000;-516.000000;-187.000000;717.000000
1608557968;5;;;;;;;;;;;;;;;;;;-0.980665;4.471833;-8.512172;1.483359;-0.789593;2.724813;0.116064;-0.087965;0.110872;151.256241;4.566230;207.515289;0.000000;0.000000;0.000000;0.000000;-517.000000;-187.000000;718.000000
1608557968;6;;;;;;;;;;;;;;91702101;83421;1416;78;-1.019892;4.550286;-8.786759;1.479832;-0.789593;2.735247;0.124922;-0.017104;0.099876;151.392853;4.698082;207.278519;0.000000;0.000000;0.000000;0.000000;-516.000000;-187.000000;721.000000
1608557968;7;466858699;67453437;966;919;31;43;326;464;9;3;49168;-12535;1;;;;;-0.902212;5.021005;-9.414384;1.476306;-0.789593;2.731769;0.142026;0.025351;0.060170;151.446335;4.711611;207.096832;0.000000;0.000000;0.000000;0.000000;-515.000000;-187.000000;720.000000
1608557968;8;;;;;;;;;;;;;;;;;;-0.706079;4.667966;-9.296705;1.479832;-0.786189;2.728291;0.132863;0.030543;0.003971;151.635544;4.628743;206.592850;0.000000;0.000000;0.000000;0.000000;-516.000000;-186.000000;719.000000
1608557968;9;;;;;;;;;;;;;;91675532;83661;1497;78;-0.627626;4.746419;-8.472946;1.483359;-0.782784;2.735247;0.104458;0.025045;-0.036041;151.546310;4.535628;206.600647;0.000000;0.000000;0.000000;0.000000;-517.000000;-185.000000;721.000000
1608557968;10;;;;;;;;;;;;;;;;;;-0.784532;5.021005;-8.316040;1.476306;-0.779380;2.735247;0.078496;0.028100;-0.097128;151.279449;4.543789;207.024170;0.000000;0.000000;0.000000;0.000000;-515.000000;-184.000000;721.000000
1608557968;11;466859186;67454074;967;920;32;43;333;454;9;3;49168;199986941;1;91651871;83876;1550;78;-0.784532;4.667966;-8.002227;1.476306;-0.779380;2.742203;0.055589;0.031765;-0.142637;151.125870;4.573461;207.299927;0.000000;0.000000;0.000000;0.000000;-515.000000;-184.000000;723.000000
1608557968;12;;;;;;;;;;;;;;;;;;-0.588399;4.667966;-9.571291;1.483359;-0.775975;2.745680;0.037568;0.025962;-0.180205;151.413422;4.432377;206.658813;0.000000;0.000000;0.000000;0.000000;-517.000000;-183.000000;724.000000
1608557968;13;;;;;;;;;;;;;;;;;;-0.588399;4.746419;-8.198360;1.479832;-0.779380;2.738725;0.039095;0.012217;-0.228769;151.265228;4.344559;206.804459;0.000000;0.000000;0.000000;0.000000;-516.000000;-184.000000;722.000000
1608557968;14;;;;;;;;;;;;;;91631518;84060;1573;78;-0.745305;4.942552;-8.041454;1.479832;-0.769166;2.752636;0.028100;0.032987;-0.272751;150.981094;4.361578;207.322098;0.000000;0.000000;0.000000;0.000000;-516.000000;-181.000000;726.000000
1608557968;15;466859663;67454705;969;922;32;43;337;449;9;3;49168;399986418;1;;;;;-0.784532;4.511059;-8.198360;1.476306;-0.769166;2.759592;0.029627;0.058948;-0.291688;151.000870;4.404667;207.383057;0.000000;0.000000;0.000000;0.000000;-515.000000;-181.000000;728.000000
1608557968;16;;;;;;;;;;;;;;91614736;84213;1565;78;-0.902212;4.707192;-8.551399;1.479832;-0.765762;2.756114;-0.018326;0.097738;-0.300546;151.017700;4.492268;207.484802;0.000000;0.000000;0.000000;0.000000;-516.000000;-180.000000;727.000000
1608557968;17;;;;;;;;;;;;;;;;;;-0.941438;4.864099;-8.002227;1.483359;-0.758953;2.766547;-0.032681;0.138666;-0.314596;150.786636;4.617118;208.066940;0.000000;0.000000;0.000000;0.000000;-517.000000;-178.000000;730.000000
1608557968;18;;;;;;;;;;;;;;;;;;-0.941438;4.667966;-8.512172;1.476306;-0.765762;2.770025;-0.038179;0.169515;-0.317650;150.834000;4.709299;208.144241;0.000000;0.000000;0.000000;0.000000;-515.000000;-180.000000;731.000000
1608557968;19;466860139;67455346;970;923;32;43;340;448;9;3;49168;599985895;1;91600615;84341;1527;78;-1.059118;4.942552;-8.825985;1.476306;-0.755548;2.773503;-0.035736;0.199142;-0.323453;150.825729;4.836082;208.387451;0.000000;0.000000;0.000000;0.000000;-515.000000;-177.000000;732.000000
1608557969;0;;;;;;;;;;;;;;;;;;-0.980665;4.824872;-8.276813;1.469253;-0.758953;2.780458;-0.026573;0.213192;-0.336892;150.719208;4.936925;208.778183;0.000000;0.000000;0.000000;0.000000;-513.000000;-178.000000;734.000000
1608557969;1;;;;;;;;;;;;;;91589125;84445;1469;78;-0.862985;4.707192;-8.119907;1.465727;-0.748739;2.780458;-0.009468;0.233350;-0.353385;150.637177;4.968575;209.079086;0.000000;0.000000;0.000000;0.000000;-512.000000;-175.000000;734.000000
1608557969;2;;;;;;;;;;;;;;;;;;-0.784532;4.903325;-8.041454;1.469253;-0.758953;2.787414;-0.002749;0.232434;-0.356745;150.436172;4.947876;209.477371;0.000000;0.000000;0.000000;0.000000;-513.000000;-178.000000;736.000000
1608557969;3;466860608;67455983;971;924;32;43;343;445;8;3;49168;799985373;1;;;;;-0.941438;4.746419;-8.316040;1.465727;-0.748739;2.783936;0.003971;0.256869;-0.349109;150.420990;5.014617;209.690369;0.000000;0.000000;0.000000;0.000000;-512.000000;-175.000000;735.000000
1608557969;4;;;;;;;;;;;;;;91582789;84502;1381;78;-1.137571;4.707192;-8.198360;1.465727;-0.748739;2.787414;0.001527;0.267253;-0.342695;150.392624;5.199308;210.057236;0.000000;0.000000;0.000000;0.000000;-512.000000;-175.000000;736.000000
1608557969;5;;;;;;;;;;;;;;;;;;-0.784532;4.824872;-8.394493;1.458674;-0.745335;2.794370;0.023518;0.263283;-0.353385;150.364487;5.142619;210.179810;0.000000;0.000000;0.000000;0.000000;-510.000000;-174.000000;738.000000
1608557969;6;;;;;;;;;;;;;;91578407;84542;1274;78;-0.706079;4.864099;-8.551399;1.462200;-0.741930;2.815237;0.047953;0.222049;-0.350637;150.364899;5.038869;210.234009;0.000000;0.000000;0.000000;0.000000;-511.000000;-173.000000;744.000000
1608557969;7;466861097;67456624;972;925;33;44;346;441;8;3;49169;-15149;1;;;;;-0.902212;5.099458;-8.512172;1.451621;-0.745335;2.815237;0.094990;0.208000;-0.361021;150.235931;5.054507;210.621155;0.000000;0.000000;0.000000;0.000000;-508.000000;-174.000000;744.000000
1608557969;8;;;;;;;;;;;;;;;;;;-0.902212;5.177911;-8.590626;1.451621;-0.731717;2.815237;0.096211;0.197615;-0.358883;150.104446;5.063034;211.024139;0.000000;0.000000;0.000000;0.000000;-508.000000;-170.000000;744.000000
1608557969;9;;;;;;;;;;;;;;91577773;84548;1151;78;-0.862985;4.942552;-8.747532;1.455148;-0.731717;2.815237;0.101404;0.182954;-0.366825;150.147278;5.047653;211.095108;0.000000;0.000000;0.000000;0.000000;-509.000000;-170.000000;744.000000
1608557969;10;;;;;;;;;;;;;;;;;;-0.784532;4.707192;-8.904439;1.441042;-0.728312;2.832626;0.087965;0.159130;-0.361938;150.346313;4.988276;210.907288;0.000000;0.000000;0.000000;0.000000;-505.000000;-169.000000;749.000000
