Time;Fraction;Latitude;Longitude;Height_ellipsoid;Height_msl;Accuracy_hor;Accuracy_ver;Speed_gnd;Heading;Satellites;Fix;TimeOfDay;Nanoseconds;Time_Valid;Pressure;Altitude;Vario;Temperature;Acc_X;Acc_Y;Acc_Z;Mag_X;Mag_Y;Mag_Z;Gyro_X;Gyro_Y;Gyro_Z;Roll;Pitch;Yaw;Quat0;Quat1;Quat2;Quat3;Temp_X;Temp_Y;Temp_Z
s;;°/1e7;°/1e7;m;m;dm;dm;dm/s;°/10;;;sec;ns;;mPA;cm;cm/s;°C/10;m/s^2;m/s^2;m/s^2;Gauss;Gauss;Gauss;rad/s;rad/s;rad/s;°;°;°;;;;;;;
1608556892;2;;;;;;;;;;;;;;;;;;0.588399;5.530951;-9.218252;1.543307;-0.844065;2.752636;0.200058;0.152716;-0.270002;149.257858;-3.801792;200.703796;0.000000;0.000000;0.000000;0.000000;-534.000000;-203.000000;726.000000
1608556892;3;466837779;67421605;903;856;30;39;186;820;10;3;48091;799813005;1;92443828;76725;794;76;0.470719;5.413271;-9.375158;1.522149;-0.823638;2.797848;0.181732;0.238543;-0.365603;149.331848;-3.670586;200.897812;0.000000;0.000000;0.000000;0.000000;-528.000000;-197.000000;739.000000
1608556892;4;;;;;;;;;;;;;;;;;;0.392266;5.491724;-9.218252;1.529202;-0.823638;2.818714;0.170737;0.284052;-0.392175;149.320267;-3.512894;201.232620;0.000000;0.000000;0.000000;0.000000;-530.000000;-197.000000;745.000000
1608556892;5;;;;;;;;;;;;;;92431431;76835;803;76;0.392266;5.530951;-9.022118;1.511570;-0.816829;2.822192;0.160658;0.300546;-0.439212;149.237244;-3.373887;201.682693;0.000000;0.000000;0.000000;0.000000;-525.000000;-195.000000;746.000000
1608556892;6;;;;;;;;;;;;;;;;;;0.706079;5.491724;-9.414384;1.504517;-0.806616;2.836103;0.145997;0.329867;-0.467617;149.287888;-3.407162;201.862122;0.000000;0.000000;0.000000;0.000000;-523.000000;-192.000000;750.000000
1608556892;7;466837881;67422092;905;857;30;39;189;799;10;3;48092;-187527;1;;;;;0.862985;5.413271;-9.610517;1.493938;-0.796402;2.843059;0.155771;0.339336;-0.518624;149.420013;-3.513808;201.902466;0.000000;0.000000;0.000000;0.000000;-520.000000;-189.000000;752.000000
1608556892;8;;;;;;;;;;;;;;92418929;76947;812;77;0.706079;5.570177;-8.904439;1.511570;-0.789593;2.846537;0.152716;0.367435;-0.549168;149.275223;-3.547022;202.344788;0.000000;0.000000;0.000000;0.000000;-525.000000;-187.000000;753.000000
1608556892;9;;;;;;;;;;;;;;;;;;0.588399;5.609404;-9.375158;1.497464;-0.789593;2.853492;0.147524;0.409280;-0.578489;149.258392;-3.500602;202.663406;0.000000;0.000000;0.000000;0.000000;-521.000000;-187.000000;755.000000
1608556892;10;;;;;;;;;;;;;;92405570;77066;823;77;0.549172;5.374045;-9.728197;1.497464;-0.775975;2.863926;0.131031;0.448375;-0.595899;149.440857;-3.433429;202.727737;0.000000;0.000000;0.000000;0.000000;-521.000000;-183.000000;758.000000
1608556892;11;466838002;67422604;906;859;30;39;197;783;10;3;48092;199811939;1;;;;;0.431493;5.452498;-9.688971;1.500991;-0.775975;2.867404;0.125227;0.478002;-0.624304;149.559906;-3.312345;202.891968;0.000000;0.000000;0.000000;0.000000;-522.000000;-183.000000;759.000000
1608556892;12;;;;;;;;;;;;;;;;;;0.509946;5.609404;-9.806650;1.493938;-0.769166;2.870882;0.124006;0.513127;-0.646906;149.626968;-3.239554;203.106873;0.000000;0.000000;0.000000;0.000000;-520.000000;-181.000000;760.000000
1608556892;13;;;;;;;;;;;;;;92392167;77185;834;77;0.549172;5.648631;-9.688971;1.490411;-0.762357;2.877837;0.142637;0.533896;-0.673784;149.640076;-3.195931;203.385696;0.000000;0.000000;0.000000;0.000000;-519.000000;-179.000000;762.000000
1608556892;14;;;;;;;;;;;;;;;;;;0.549172;5.766310;-9.924331;1.476306;-0.769166;2.888271;0.161879;0.569326;-0.677755;149.660309;-3.150267;203.645752;0.000000;0.000000;0.000000;0.000000;-515.000000;-181.000000;765.000000
1608556892;15;466838127;67423142;907;860;30;39;206;773;10;3;48092;399811405;1;92377313;77317;854;77;0.588399;5.844764;-9.688971;1.469253;-0.755548;2.895226;0.159741;0.583987;-0.702495;149.584290;-3.132910;204.051086;0.000000;0.000000;0.000000;0.000000;-513.000000;-177.000000;767.000000
1608556892;16;;;;;;;;;;;;;;;;;;0.627626;5.844764;-9.845877;1.455148;-0.755548;2.884793;0.163101;0.593455;-0.725708;149.556427;-3.133369;204.353363;0.000000;0.000000;0.000000;0.000000;-509.000000;-177.000000;764.000000
1608556892;17;;;;;;;;;;;;;;;;;;0.706079;5.844764;-9.767424;1.451621;-0.755548;2.888271;0.167682;0.590096;-0.743423;149.511200;-3.174992;204.635056;0.000000;0.000000;0.000000;0.000000;-508.000000;-177.000000;765.000000
1608556892;18;466838249;67423692;909;861;30;39;213;764;10;3;48092;599810872;1;92362926;77445;874;77;0.470719;5.883990;-10.198917;1.441042;-0.758953;2.888271;0.160963;0.567799;-0.773966;149.561920;-3.086426;204.852921;0.000000;0.000000;0.000000;0.000000;-505.000000;-178.000000;765.000000
1608556892;19;;;;;;;;;;;;;;;;;;0.666852;5.727084;-9.885103;1.444568;-0.755548;2.877837;0.161879;0.561691;-0.784962;149.597092;-3.111848;204.979187;0.000000;0.000000;0.000000;0.000000;-506.000000;-177.000000;762.000000
1608556893;0;;;;;;;;;;;;;;92351075;77550;886;77;0.549172;5.609404;-10.238143;1.430463;-0.752144;2.874359;0.147524;0.558942;-0.793819;149.765594;-3.069995;204.957306;0.000000;0.000000;0.000000;0.000000;-502.000000;-176.000000;761.000000
1608556893;1;;;;;;;;;;;;;;;;;;0.666852;5.570177;-10.042010;1.430463;-0.755548;2.867404;0.128282;0.556193;-0.799012;149.887390;-3.095345;204.921768;0.000000;0.000000;0.000000;0.000000;-502.000000;-177.000000;759.000000
1608556893;2;466838370;67424269;910;863;30;39;221;759;10;3;48092;799810339;1;;;;;0.431493;5.452498;-9.845877;1.416357;-0.758953;2.860448;0.102014;0.551917;-0.803593;150.000961;-3.005366;204.962158;0.000000;0.000000;0.000000;0.000000;-498.000000;-178.000000;757.000000
1608556893;3;;;;;;;;;;;;;;92346007;77596;864;77;0.509946;5.374045;-9.845877;1.409304;-0.758953;2.846537;0.072693;0.539394;-0.814589;150.138229;-2.965127;204.905930;0.000000;0.000000;0.000000;0.000000;-496.000000;-178.000000;753.000000
1608556893;4;;;;;;;;;;;;;;;;;;0.353039;5.570177;-10.238143;1.398725;-0.772571;2.832626;0.048564;0.552222;-0.801150;150.269531;-2.842110;204.860657;0.000000;0.000000;0.000000;0.000000;-493.000000;-182.000000;749.000000
1608556893;5;;;;;;;;;;;;;;;;;;0.313813;5.648631;-10.042010;1.398725;-0.772571;2.818714;0.051313;0.565050;-0.779464;150.306824;-2.713916;204.939819;0.000000;0.000000;0.000000;0.000000;-493.000000;-182.000000;745.000000
1608556893;6;466838495;67424859;911;864;30;39;226;752;10;3;48093;-190193;1;92348473;77574;795;77;0.431493;5.687857;-9.885103;1.381093;-0.782784;2.797848;0.043371;0.578489;-0.746783;150.284561;-2.659198;205.020401;0.000000;0.000000;0.000000;0.000000;-488.000000;-185.000000;739.000000
1608556893;7;;;;;;;;;;;;;;;;;;0.431493;5.570177;-9.885103;1.377567;-0.789593;2.776981;0.028405;0.573602;-0.730900;150.316025;-2.611063;204.966507;0.000000;0.000000;0.000000;0.000000;-487.000000;-187.000000;733.000000
1608556893;8;;;;;;;;;;;;;;92356192;77505;681;77;0.431493;5.687857;-10.002784;1.363461;-0.806616;2.749158;0.033292;0.568105;-0.717461;150.322067;-2.564708;204.884781;0.000000;0.000000;0.000000;0.000000;-483.000000;-192.000000;725.000000
1608556893;9;;;;;;;;;;;;;;;;;;0.509946;5.923217;-10.120463;1.366988;-0.806616;2.731769;0.027183;0.544892;-0.693026;150.255951;-2.557243;204.867294;0.000000;0.000000;0.000000;0.000000;-484.000000;-192.000000;720.000000
1608556893;10;466838629;67425485;912;865;30;39;236;747;9;3;48093;199809274;1;;;;;0.392266;5.962444;-10.081236;1.352882;-0.830447;2.703947;0.048564;0.538783;-0.651488;150.170197;-2.493338;204.842239;0.000000;0.000000;0.000000;0.000000;-480.000000;-199.000000;712.000000
1608556893;11;;;;;;;;;;;;;;92369915;77383;526;77;0.431493;5.727084;-9.963557;1.345829;-0.837256;2.693513;0.057727;0.525344;-0.615447;150.164154;-2.459028;204.663727;0.000000;0.000000;0.000000;0.000000;-478.000000;-201.000000;709.000000
1608556893;12;;;;;;;;;;;;;;;;;;0.509946;5.766310;-9.688971;1.345829;-0.844065;2.648302;0.038790;0.494190;-0.590401;150.071884;-2.472086;204.518707;0.000000;0.000000;0.000000;0.000000;-478.000000;-203.000000;696.000000
1608556893;13;;;;;;;;;;;;;;92385462;77244;351;77;0.706079;5.727084;-10.002784;1.342303;-0.854279;2.637868;0.018326;0.450513;-0.577573;150.085388;-2.575423;204.138031;0.000000;0.000000;0.000000;0.000000;-477.000000;-206.000000;693.000000
1608556893;14;466838793;67426143;912;865;30;39;246;729;9;3;48093;399808742;1;;;;;0.784532;5.727084;-9.963557;1.324671;-0.867897;2.603090;-0.017410;0.404698;-0.566272;150.087814;-2.708411;203.714447;0.000000;0.000000;0.000000;0.000000;-472.000000;-210.000000;683.000000
1608556893;15;;;;;;;;;;;;;;;;;;0.706079;5.570177;-9.885103;1.328198;-0.874706;2.596134;-0.025962;0.350026;-0.548557;150.138947;-2.793657;203.237625;0.000000;0.000000;0.000000;0.000000;-473.000000;-212.000000;681.000000
1608556893;16;;;;;;;;;;;;;;92403011;77088;172;77;0.666852;5.491724;-9.845877;1.321145;-0.891728;2.557878;-0.047037;0.326507;-0.523206;150.209930;-2.852803;202.669891;0.000000;0.000000;0.000000;0.000000;-471.000000;-217.000000;670.000000
1608556893;17;;;;;;;;;;;;;;;;;;0.313813;5.570177;-9.924331;1.328198;-0.898537;2.543967;-0.061697;0.316428;-0.486860;150.258560;-2.725472;202.226440;0.000000;0.000000;0.000000;0.000000;-473.000000;-219.000000;666.000000
1608556893;18;466838953;67426802;913;865;31;39;252;716;9;3;48093;599808210;1;92422365;76916;-11;77;0.470719;5.374045;-9.806650;1.310566;-0.915560;2.523100;-0.088575;0.303905;-0.460592;150.360443;-2.693963;201.611877;0.000000;0.000000;0.000000;0.000000;-468.000000;-224.000000;660.000000
1608556893;19;;;;;;;;;;;;;;;;;;0.706079;5.413271;-9.767424;1.310566;-0.929178;2.484844;-0.113315;0.301462;-0.437990;150.424820;-2.786355;200.939758;0.000000;0.000000;0.000000;0.000000;-468.000000;-228.000000;649.000000
1608556894;0;;;;;;;;;;;;;;;;;;0.509946;5.334818;-9.767424;1.299986;-0.935987;2.470933;-0.114843;0.294132;-0.408363;150.518082;-2.770064;200.281219;0.000000;0.000000;0.000000;0.000000;-465.000000;-230.000000;645.000000
1608556894;1;;;;;;;;;;;;;;92440815;76752;-182;77;0.549172;5.334818;-9.532064;1.296460;-0.953009;2.446588;-0.107207;0.288939;-0.381485;150.542847;-2.780870;199.682816;0.000000;0.000000;0.000000;0.000000;-464.000000;-235.000000;638.000000
1608556894;2;466839127;67427462;913;866;31;39;257;704;9;3;48093;799807678;1;;;;;0.470719;5.452498;-9.375158;1.289407;-0.963223;2.432677;-0.093462;0.293826;-0.358578;150.470398;-2.751305;199.272202;0.000000;0.000000;0.000000;0.000000;-462.000000;-238.000000;634.000000
1608556894;3;;;;;;;;;;;;;;92456455;76613;-324;77;0.313813;5.491724;-9.728197;1.299986;-0.973436;2.404855;-0.092241;0.296575;-0.331089;150.478821;-2.637083;198.715500;0.000000;0.000000;0.000000;0.000000;-465.000000;-241.000000;626.000000
1608556894;4;;;;;;;;;;;;;;;;;;0.470719;5.256365;-9.728197;1.292934;-0.980245;2.397899;-0.112705;0.296880;-0.324675;150.592621;-2.617137;197.964005;0.000000;0.000000;0.000000;0.000000;-463.000000;-243.000000;624.000000
1608556894;5;;;;;;;;;;;;;;;;;;0.745305;5.334818;-9.532064;1.289407;-0.990459;2.366598;-0.108734;0.279471;-0.321010;150.609924;-2.745749;197.296799;0.000000;0.000000;0.000000;0.000000;-462.000000;-246.000000;615.000000
1608556894;6;466839327;67428115;914;866;31;40;260;686;9;3;48094;-192853;1;92469295;76498;-432;77;0.784532;5.295591;-9.414384;1.289407;-0.993863;2.352687;-0.104763;0.259923;-0.312152;150.613174;-2.886592;196.672729;0.000000;0.000000;0.000000;0.000000;-462.000000;-247.000000;611.000000
1608556894;7;;;;;;;;;;;;;;;;;;0.823759;5.334818;-9.375158;1.299986;-1.007481;2.321387;-0.091935;0.240375;-0.311236;150.587723;-3.034640;196.043198;0.000000;0.000000;0.000000;0.000000;-465.000000;-251.000000;602.000000
1608556894;8;;;;;;;;;;;;;;92478908;76413;-502;77;0.941438;5.256365;-9.100572;1.292934;-1.017695;2.317909;-0.054978;0.208000;-0.318261;150.527954;-3.243064;195.480698;0.000000;0.000000;0.000000;0.000000;-463.000000;-254.000000;601.000000
1608556894;9;;;;;;;;;;;;;;;;;;1.059118;5.374045;-9.257478;1.289407;-1.031313;2.290087;-0.032376;0.174402;-0.326202;150.461624;-3.483824;194.889633;0.000000;0.000000;0.000000;0.000000;-462.000000;-258.000000;593.000000
1608556894;10;466839533;67428772;914;867;31;40;264;672;9;3;48094;199806614;1;;;;;0.941438;5.295591;-9.492838;1.282355;-1.038122;2.279653;-0.017410;0.165850;-0.333838;150.499969;-3.630438;194.178696;0.000000;0.000000;0.000000;0.000000;-460.000000;-260.000000;590.000000
1608556894;11;;;;;;;;;;;;;;92485942;76350;-537;77;1.059118;5.452498;-9.688971;1.289407;-1.048335;2.255308;-0.003360;0.144775;-0.353080;150.513107;-3.811570;193.483063;0.000000;0.000000;0.000000;0.000000;-462.000000;-263.000000;583.000000
1608556894;12;;;;;;;;;;;;;;;;;;1.176798;5.374045;-9.610517;1.285881;-1.051740;2.251831;-0.002749;0.148135;-0.360105;150.540497;-4.040445;192.804459;0.000000;0.000000;0.000000;0.000000;-461.000000;-264.000000;582.000000
1608556894;13;;;;;;;;;;;;;;92490069;76314;-542;77;0.902212;5.413271;-9.649744;1.285881;-1.065358;2.230964;-0.029016;0.156381;-0.371101;150.557327;-4.102570;192.149155;0.000000;0.000000;0.000000;0.000000;-461.000000;-268.000000;576.000000
1608556894;14;466839772;67429442;915;868;31;40;270;653;9;3;48094;399806082;1;;;;;1.216025;5.060232;-9.885103;1.278828;-1.068762;2.217052;-0.064446;0.163406;-0.396757;150.790802;-4.317225;191.153366;0.000000;0.000000;0.000000;0.000000;-459.000000;-269.000000;572.000000
1608556894;15;;;;;;;;;;;;;;;;;;1.019892;5.256365;-9.924331;1.282355;-1.085785;2.189230;-0.070249;0.204334;-0.402255;150.920959;-4.404413;190.287064;0.000000;0.000000;0.000000;0.000000;-460.000000;-274.000000;564.000000
1608556894;16;;;;;;;;;;;;;;92492045;76296;-521;77;1.059118;5.413271;-9.492838;1.282355;-1.092594;2.189230;-0.062003;0.211054;-0.425162;150.859497;-4.517550;189.769867;0.000000;0.000000;0.000000;0.000000;-460.000000;-276.000000;564.000000
1608556894;17;;;;;;;;;;;;;;;;;;1.176798;5.217138;-9.257478;1.275302;-1.106212;2.154452;-0.065057;0.224798;-0.450513;150.833176;-4.697733;189.143723;0.000000;0.000000;0.000000;0.000000;-458.000000;-280.000000;554.000000
1608556894;18;466840023;67430105;915;868;31;40;274;636;9;3;48094;599805550;1;92491899;76297;-481;77;1.333704;5.295591;-9.335931;1.285881;-1.109616;2.140541;-0.083689;0.256563;-0.487776;150.793564;-4.936282;188.560211;0.000000;0.000000;0.000000;0.000000;-461.000000;-281.000000;550.000000
1608556894;19;;;;;;;;;;;;;;;;;;1.176798;5.256365;-9.375158;1.282355;-1.130043;2.109240;-0.090713;0.293215;-0.508545;150.786423;-5.067487;187.875198;0.000000;0.000000;0.000000;0.000000;-460.000000;-287.000000;541.000000
1608556895;0;;;;;;;;;;;;;;;;;;1.490611;5.138685;-10.277370;1.278828;-1.143661;2.091851;-0.081245;0.324064;-0.536645;151.051285;-5.299887;186.769928;0.000000;0.000000;0.000000;0.000000;-459.000000;-291.000000;536.000000
1608556895;1;;;;;;;;;;;;;;92489875;76315;-424;77;1.412158;5.530951;-9.414384;1.278828;-1.143661;2.060551;-0.052229;0.335060;-0.583682;150.902740;-5.506824;186.303329;0.000000;0.000000;0.000000;0.000000;-459.000000;-291.000000;527.000000
1608556895;2;466840283;67430750;916;869;31;40;276;622;9;3;48094;799805017;1;;;;;1.333704;5.609404;-9.296705;1.271775;-1.164088;2.043162;0.001833;0.334754;-0.622166;150.701904;-5.656413;185.890503;0.000000;0.000000;0.000000;0.000000;-457.000000;-297.000000;522.000000
1608556895;3;;;;;;;;;;;;;;92484529;76363;-350;77;1.569064;5.609404;-9.688971;1.275302;-1.181111;2.015339;0.025962;0.325591;-0.668592;150.624863;-5.888577;185.256668;0.000000;0.000000;0.000000;0.000000;-458.000000;-302.000000;514.000000
1608556895;4;;;;;;;;;;;;;;;;;;1.686744;5.687857;-9.571291;1.271775;-1.198133;1.987517;0.027489;0.324369;-0.712574;150.490250;-6.161187;184.678757;0.000000;0.000000;0.000000;0.000000;-457.000000;-307.000000;506.000000
1608556895;5;;;;;;;;;;;;;;;;;;1.725971;5.295591;-9.806650;1.271775;-1.215156;1.949261;0.025962;0.324064;-0.739452;150.604340;-6.425378;183.702454;0.000000;0.000000;0.000000;0.000000;-457.000000;-312.000000;495.000000
1608556895;6;;;;;;;;;;;;;;92475181;76446;-256;77;1.843650;5.256365;-9.532064;1.275302;-1.225369;1.935349;0.019853;0.338114;-0.765109;150.656509;-6.744141;182.849319;0.000000;0.000000;0.000000;0.000000;-458.000000;-315.000000;491.000000
1608556895;7;466840547;67431388;917;870;32;40;278;609;10;3;48095;-195514;1;;;;;1.569064;5.334818;-9.375158;1.278828;-1.249201;1.890138;0.016188;0.340557;-0.784962;150.626724;-6.897360;182.022491;0.000000;0.000000;0.000000;0.000000;-459.000000;-322.000000;478.000000
1608556895;8;;;;;;;;;;;;;;92462110;76562;-142;77;1.451384;5.138685;-9.296705;1.282355;-1.259414;1.876227;0.020464;0.330783;-0.800233;150.670929;-6.985666;181.116058;0.000000;0.000000;0.000000;0.000000;-460.000000;-325.000000;474.000000
1608556895;9;;;;;;;;;;;;;;;;;;1.686744;5.060232;-8.943665;1.289407;-1.286650;1.834493;0.003360;0.307265;-0.809091;150.653778;-7.219268;180.249634;0.000000;0.000000;0.000000;0.000000;-462.000000;-333.000000;462.000000
1608556895;10;;;;;;;;;;;;;;;;;;1.529837;5.177911;-9.414384;1.275302;-1.290055;1.810148;-0.016493;0.305127;-0.813978;150.707336;-7.307701;179.293579;0.000000;0.000000;0.000000;0.000000;-458.000000;-334.000000;455.000000
1608556895;11;466840815;67432018;918;871;32;41;278;598;10;3;48095;199803953;1;92446168;76704;-11;77;1.333704;5.177911;-9.139798;1.289407;-1.313886;1.775370;-0.017104;0.302989;-0.808785;150.683365;-7.300509;178.386276;0.000000;0.000000;0.000000;0.000000;-462.000000;-341.000000;445.000000
1608556895;12;;;;;;;;;;;;;;;;;;1.412158;5.099458;-9.218252;1.289407;-1.320695;1.761459;-0.009163;0.325286;-0.779158;150.719940;-7.333945;177.453735;0.000000;0.000000;0.000000;0.000000;-462.000000;-343.000000;441.000000
1608556895;13;;;;;;;;;;;;;;92425521;76888;140;76;1.294478;5.374045;-9.924331;1.292934;-1.344527;1.723203;0.017410;0.326813;-0.752280;150.804398;-7.254864;176.378128;0.000000;0.000000;0.000000;0.000000;-463.000000;-350.000000;430.000000
1608556895;14;466841107;67432625;919;872;32;41;278;582;10;3;48095;399803420;1;;;;;1.412158;5.570177;-9.492838;1.296460;-1.351336;1.709291;0.026267;0.342084;-0.729678;150.683624;-7.260508;175.650528;0.000000;0.000000;0.000000;0.000000;-464.000000;-352.000000;426.000000
1608556895;15;;;;;;;;;;;;;;;;;;1.372931;5.334818;-9.296705;1.299986;-1.364954;1.677991;0.030238;0.336892;-0.701884;150.630386;-7.264375;174.825928;0.000000;0.000000;0.000000;0.000000;-465.000000;-356.000000;417.000000
1608556895;16;;;;;;;;;;;;;;92399307;77121;318;76;1.255251;5.530951;-9.649744;1.299986;-1.378572;1.664080;0.038179;0.339336;-0.678060;150.585358;-7.181839;173.989548;0.000000;0.000000;0.000000;0.000000;-465.000000;-360.000000;413.000000
1608556895;17;;;;;;;;;;;;;;;;;;1.372931;5.099458;-9.296705;1.296460;-1.395594;1.636257;0.048869;0.327729;-0.653015;150.652252;-7.201414;173.023041;0.000000;0.000000;0.000000;0.000000;-464.000000;-365.000000;405.000000
1608556895;18;;;;;;;;;;;;;;92371318;77370;504;76;1.255251;5.413271;-8.982892;1.299986;-1.402403;1.622346;0.067501;0.306043;-0.630107;150.479645;-7.163775;172.393204;0.000000;0.000000;0.000000;0.000000;-465.000000;-367.000000;401.000000
1608556895;19;466841408;67433216;920;873;32;41;277;568;10;3;48095;599802887;1;;;;;1.569064;5.256365;-9.218252;1.303513;-1.409212;1.601479;0.090408;0.272140;-0.596815;150.462463;-7.288499;171.642181;0.000000;0.000000;0.000000;0.000000;-466.000000;-369.000000;395.000000
1608556896;0;;;;;;;;;;;;;;;;;;1.372931;5.177911;-8.943665;1.321145;-1.419425;1.580612;0.144164;0.237321;-0.569632;150.409378;-7.316396;170.936920;0.000000;0.000000;0.000000;0.000000;-471.000000;-372.000000;389.000000
1608556896;1;;;;;;;;;;;;;;92342745;77625;691;76;1.451384;5.491724;-9.414384;1.314092;-1.429639;1.577134;0.153327;0.164934;-0.531147;150.342804;-7.343279;170.283997;0.000000;0.000000;0.000000;0.000000;-469.000000;-375.000000;388.000000
1608556896;2;466841736;67433818;921;874;32;42;280;553;10;3;48095;799802353;1;;;;;1.451384;5.491724;-9.218252;1.321145;-1.433043;1.563223;0.152716;0.113010;-0.499688;150.230118;-7.379275;169.736481;0.000000;0.000000;0.000000;0.000000;-471.000000;-376.000000;384.000000
1608556896;3;;;;;;;;;;;;;;92319667;77830;848;76;1.451384;5.413271;-9.532064;1.317618;-1.443257;1.563223;0.151189;0.065363;-0.448375;150.247894;-7.395571;169.061035;0.000000;0.000000;0.000000;0.000000;-470.000000;-379.000000;384.000000
1608556896;4;;;;;;;;;;;;;;;;;;1.412158;5.687857;-9.492838;1.328198;-1.453470;1.559745;0.132863;0.050396;-0.390648;150.130219;-7.383221;168.582901;0.000000;0.000000;0.000000;0.000000;-473.000000;-382.000000;383.000000
1608556896;5;;;;;;;;;;;;;;;;;;1.176798;5.766310;-9.414384;1.328198;-1.446661;1.559745;0.132863;0.010385;-0.327729;149.968460;-7.253343;168.204330;0.000000;0.000000;0.000000;0.000000;-473.000000;-380.000000;383.000000
1608556896;6;;;;;;;;;;;;;;92295151;78048;976;76;1.059118;5.727084;-9.492838;1.335250;-1.453470;1.552790;0.138056;0.018021;-0.258091;149.861343;-7.073706;167.768250;0.000000;0.000000;0.000000;0.000000;-475.000000;-382.000000;381.000000
1608556896;7;466842083;67434424;922;875;32;42;285;537;10;3;48096;-198180;1;;;;;0.980665;5.883990;-9.335931;1.328198;-1.453470;1.552790;0.110261;0.011912;-0.196393;149.653091;-6.874161;167.499695;0.000000;0.000000;0.000000;0.000000;-473.000000;-382.000000;381.000000
1608556896;8;;;;;;;;;;;;;;92266679;78303;1100;76;0.862985;5.609404;-9.335931;1.328198;-1.453470;1.556267;0.076664;0.010079;-0.134085;149.587875;-6.639780;167.087585;0.000000;0.000000;0.000000;0.000000;-473.000000;-382.000000;382.000000
1608556896;9;;;;;;;;;;;;;;;;;;1.294478;5.727084;-9.767424;1.342303;-1.463684;1.549312;0.052229;-0.054978;-0.081245;149.590591;-6.628013;166.681717;0.000000;0.000000;0.000000;0.000000;-477.000000;-385.000000;380.000000
1608556896;10;466842436;67435020;923;876;32;42;289;523;10;3;48096;199801286;1;;;;;1.412158;5.766310;-9.492838;1.342303;-1.460279;1.545834;0.027183;-0.051924;-0.036652;149.503937;-6.689794;166.451813;0.000000;0.000000;0.000000;0.000000;-477.000000;-384.000000;379.000000
1608556896;11;;;;;;;;;;;;;;92239502;78549;1212;76;1.372931;5.491724;-9.414384;1.345829;-1.453470;1.545834;-0.010079;-0.063835;0.017104;149.527908;-6.738776;166.141754;0.000000;0.000000;0.000000;0.000000;-478.000000;-382.000000;379.000000
1608556896;12;;;;;;;;;;;;;;;;;;1.490611;5.648631;-9.532064;1.331724;-1.456875;1.545834;0.006414;-0.105985;0.061087;149.510071;-6.831106;165.902496;0.000000;0.000000;0.000000;0.000000;-474.000000;-383.000000;379.000000
1608556896;13;;;;;;;;;;;;;;92213389;78786;1310;76;1.137571;6.001670;-9.061345;1.338777;-1.460279;1.545834;0.025656;-0.123089;0.112399;149.207275;-6.745507;165.990875;0.000000;0.000000;0.000000;0.000000;-476.000000;-384.000000;379.000000
1608556896;14;466842804;67435605;924;877;32;42;292;509;10;3;48096;399800752;1;;;;;1.294478;5.570177;-9.845877;1.335250;-1.453470;1.545834;0.036041;-0.167072;0.147524;149.336716;-6.723759;165.602707;0.000000;0.000000;0.000000;0.000000;-475.000000;-382.000000;379.000000
1608556896;15;;;;;;;;;;;;;;;;;;1.333704;5.766310;-10.198917;1.331724;-1.453470;1.549312;0.045204;-0.215941;0.188452;149.454742;-6.700812;165.252609;0.000000;0.000000;0.000000;0.000000;-474.000000;-382.000000;380.000000
1608556896;16;;;;;;;;;;;;;;92188304;79013;1387;76;1.176798;5.648631;-9.571291;1.345829;-1.460279;1.559745;0.046731;-0.219301;0.241292;149.454529;-6.635162;165.065948;0.000000;0.000000;0.000000;0.000000;-478.000000;-384.000000;383.000000
1608556896;17;;;;;;;;;;;;;;;;;;1.490611;5.805537;-9.571291;1.342303;-1.453470;1.563223;0.061697;-0.267864;0.283441;149.385162;-6.730120;165.054123;0.000000;0.000000;0.000000;0.000000;-477.000000;-382.000000;384.000000
1608556896;18;466843182;67436164;926;878;32;42;294;495;10;3;48096;599800218;1;92167719;79200;1435;76;1.294478;5.648631;-9.139798;1.335250;-1.450066;1.566701;0.049175;-0.266948;0.329562;149.274948;-6.744090;165.091217;0.000000;0.000000;0.000000;0.000000;-475.000000;-381.000000;385.000000
1608556896;19;;;;;;;;;;;;;;;;;;1.608291;5.491724;-9.728197;1.331724;-1.446661;1.580612;0.052229;-0.314290;0.361021;149.402924;-6.888923;164.918396;0.000000;0.000000;0.000000;0.000000;-474.000000;-380.000000;389.000000
1608556897;0;;;;;;;;;;;;;;;;;;1.529837;5.413271;-9.571291;1.321145;-1.446661;1.598001;0.065363;-0.356134;0.405309;149.513504;-6.992081;164.779587;0.000000;0.000000;0.000000;0.000000;-471.000000;-380.000000;394.000000
1608556897;1;;;;;;;;;;;;;;92151244;79349;1446;76;1.333704;5.177911;-8.747532;1.321145;-1.439852;1.598001;0.062614;-0.406836;0.440739;149.499924;-7.040346;164.799683;0.000000;0.000000;0.000000;0.000000;-471.000000;-378.000000;394.000000
1608556897;2;466843574;67436720;927;880;32;42;297;480;10;3;48096;799799684;1;;;;;1.333704;5.021005;-9.571291;1.317618;-1.443257;1.615390;0.030543;-0.438601;0.464868;149.781845;-7.039762;164.456543;0.000000;0.000000;0.000000;0.000000;-470.000000;-379.000000;399.000000
1608556897;3;;;;;;;;;;;;;;92137298;79476;1425;76;1.490611;5.570177;-9.139798;1.324671;-1.426234;1.615390;0.001527;-0.492052;0.499077;149.667679;-7.128618;164.688019;0.000000;0.000000;0.000000;0.000000;-472.000000;-374.000000;399.000000
1608556897;4;;;;;;;;;;;;;;;;;;1.569064;5.334818;-9.375158;1.321145;-1.422830;1.632779;-0.046731;-0.478002;0.534202;149.736771;-7.243390;164.729431;0.000000;0.000000;0.000000;0.000000;-471.000000;-373.000000;404.000000
1608556897;5;;;;;;;;;;;;;;;;;;1.098345;5.256365;-9.728197;1.314092;-1.416021;1.643213;-0.080023;-0.480445;0.586125;149.924774;-7.086314;164.553574;0.000000;0.000000;0.000000;0.000000;-469.000000;-371.000000;407.000000
1608556897;6;466843971;67437265;928;881;32;42;299;467;10;3;48097;-200849;1;92127608;79564;1373;76;1.098345;5.138685;-9.963557;1.317618;-1.402403;1.664080;-0.081550;-0.472199;0.642936;150.204071;-6.937243;164.331314;0.000000;0.000000;0.000000;0.000000;-470.000000;-367.000000;413.000000
1608556897;7;;;;;;;;;;;;;;;;;;1.608291;5.374045;-8.747532;1.314092;-1.409212;1.667558;-0.068417;-0.467312;0.693943;150.027222;-7.133852;164.762604;0.000000;0.000000;0.000000;0.000000;-469.000000;-369.000000;414.000000
1608556897;8;;;;;;;;;;;;;;92123412;79602;1286;76;1.176798;5.256365;-8.590626;1.317618;-1.392190;1.695380;-0.046426;-0.455705;0.731511;149.878387;-7.086937;165.188934;0.000000;0.000000;0.000000;0.000000;-470.000000;-364.000000;422.000000
1608556897;9;;;;;;;;;;;;;;;;;;1.451384;4.942552;-9.061345;1.307039;-1.385381;1.698858;-0.049786;-0.480140;0.754113;150.029510;-7.178662;165.252457;0.000000;0.000000;0.000000;0.000000;-467.000000;-362.000000;423.000000
1608556897;10;466844372;67437811;929;882;32;42;301;454;9;3;48097;199798616;1;;;;;1.490611;4.903325;-8.355266;1.299986;-1.375167;1.723203;-0.058032;-0.489303;0.778242;149.985901;-7.335519;165.628632;0.000000;0.000000;0.000000;0.000000;-465.000000;-359.000000;430.000000
1608556897;11;;;;;;;;;;;;;;92123015;79605;1168;76;1.059118;4.864099;-9.139798;1.299986;-1.364954;1.737114;-0.068111;-0.482583;0.793514;150.185181;-7.186046;165.625854;0.000000;0.000000;0.000000;0.000000;-465.000000;-356.000000;434.000000
1608556897;12;;;;;;;;;;;;;;;;;;1.255251;4.707192;-8.551399;1.296460;-1.344527;1.764936;-0.060476;-0.507018;0.812145;150.283585;-7.200209;165.884460;0.000000;0.000000;0.000000;0.000000;-464.000000;-350.000000;442.000000
1608556897;13;;;;;;;;;;;;;;92124225;79594;1034;76;1.451384;5.060232;-7.963000;1.282355;-1.337718;1.782326;-0.048564;-0.534507;0.814894;150.011780;-7.354733;166.680511;0.000000;0.000000;0.000000;0.000000;-460.000000;-348.000000;447.000000
1608556897;14;466844778;67438341;930;883;32;43;301;443;9;3;48097;399798083;1;;;;;1.686744;4.981778;-8.355266;1.285881;-1.324100;1.817104;-0.051924;-0.568715;0.786183;149.930084;-7.602962;167.298172;0.000000;0.000000;0.000000;0.000000;-461.000000;-344.000000;457.000000
1608556897;15;;;;;;;;;;;;;;;;;;1.451384;4.785646;-9.100572;1.296460;-1.313886;1.834493;-0.055589;-0.586125;0.789238;150.163269;-7.646121;167.472473;0.000000;0.000000;0.000000;0.000000;-464.000000;-341.000000;462.000000
1608556897;16;;;;;;;;;;;;;;92128168;79558;889;76;1.569064;4.785646;-8.041454;1.282355;-1.303673;1.872749;-0.060170;-0.595288;0.789543;150.071167;-7.833364;168.159546;0.000000;0.000000;0.000000;0.000000;-460.000000;-338.000000;473.000000
1608556897;17;;;;;;;;;;;;;;;;;;1.490611;4.471833;-8.747532;1.296460;-1.283246;1.886660;-0.043371;-0.589179;0.783740;150.356400;-7.912781;168.350693;0.000000;0.000000;0.000000;0.000000;-464.000000;-332.000000;477.000000
1608556897;18;466845189;67438863;931;884;32;43;302;432;8;3;48097;599797550;1;92138940;79461;722;76;1.608291;4.942552;-8.825985;1.289407;-1.276437;1.921438;-0.057116;-0.587041;0.778548;150.395889;-8.024888;168.904953;0.000000;0.000000;0.000000;0.000000;-462.000000;-330.000000;487.000000
1608556897;19;;;;;;;;;;;;;;;;;;1.255251;4.785646;-8.825985;1.296460;-1.249201;1.952739;-0.046731;-0.571770;0.774882;150.509567;-7.935047;169.407242;0.000000;0.000000;0.000000;0.000000;-464.000000;-322.000000;496.000000
1608556898;0;;;;;;;;;;;;;;;;;;1.372931;5.021005;-8.551399;1.285881;-1.245796;1.970128;-0.007025;-0.568105;0.766941;150.416672;-7.929787;170.190659;0.000000;0.000000;0.000000;0.000000;-461.000000;-321.000000;501.000000
1608556898;1;;;;;;;;;;;;;;92150800;79353;544;76;1.255251;4.864099;-8.669079;1.296460;-1.221965;2.008384;0.006109;-0.529009;0.760222;150.445404;-7.856515;170.871262;0.000000;0.000000;0.000000;0.000000;-464.000000;-314.000000;512.000000
1608556898;2;466845602;67439383;932;885;32;43;302;422;8;3;48097;799797018;1;;;;;1.294478;4.942552;-8.943665;1.289407;-1.215156;2.036206;0.026267;-0.485027;0.762971;150.508240;-7.792840;171.498550;0.000000;0.000000;0.000000;0.000000;-462.000000;-312.000000;520.000000
1608556898;3;;;;;;;;;;;;;;92162886;79244;373;76;1.294478;5.021005;-9.100572;1.296460;-1.198133;2.070984;0.030849;-0.465174;0.745561;150.568771;-7.723482;172.172699;0.000000;0.000000;0.000000;0.000000;-464.000000;-307.000000;530.000000
1608556898;4;;;;;;;;;;;;;;;;;;1.216025;5.021005;-9.257478;1.296460;-1.198133;2.084896;0.029322;-0.452651;0.709520;150.664490;-7.609789;172.738617;0.000000;0.000000;0.000000;0.000000;-464.000000;-307.000000;534.000000
1608556898;5;;;;;;;;;;;;;;;;;;0.980665;4.981778;-9.061345;1.296460;-1.167493;2.116196;0.040928;-0.435241;0.684169;150.717926;-7.390567;173.451385;0.000000;0.000000;0.000000;0.000000;-464.000000;-298.000000;543.000000
1608556898;6;466846022;67439886;933;886;32;43;302;411;8;3;48098;-203514;1;92174859;79135;213;76;1.137571;5.138685;-8.982892;1.303513;-1.167493;2.144018;0.098960;-0.411112;0.649350;150.668961;-7.278803;174.293976;0.000000;0.000000;0.000000;0.000000;-466.000000;-298.000000;551.000000
1608556898;7;;;;;;;;;;;;;;;;;;1.333704;5.217138;-9.179025;1.292934;-1.143661;2.168363;0.113926;-0.400117;0.628886;150.640793;-7.270875;175.142532;0.000000;0.000000;0.000000;0.000000;-463.000000;-291.000000;558.000000
1608556898;8;;;;;;;;;;;;;;92185337;79040;75;76;1.451384;5.177911;-9.453611;1.299986;-1.140257;2.189230;0.097433;-0.409891;0.577573;150.705688;-7.310676;175.810944;0.000000;0.000000;0.000000;0.000000;-465.000000;-290.000000;564.000000
1608556898;9;;;;;;;;;;;;;;;;;;1.294478;5.138685;-9.728197;1.303513;-1.119830;2.220530;0.084299;-0.399506;0.519846;150.850708;-7.250657;176.399551;0.000000;0.000000;0.000000;0.000000;-466.000000;-284.000000;573.000000
1608556898;10;466846444;67440375;934;887;32;43;301;401;8;3;48098;199795952;1;;;;;1.372931;5.217138;-9.845877;1.307039;-1.109616;2.244875;0.082467;-0.399200;0.467312;150.973831;-7.228013;177.011719;0.000000;0.000000;0.000000;0.000000;-467.000000;-281.000000;580.000000
1608556898;11;;;;;;;;;;;;;;92194981;78953;-40;76;1.098345;5.334818;-9.022118;1.307039;-1.102807;2.265742;0.077274;-0.382096;0.434020;150.816864;-7.103433;178.054596;0.000000;0.000000;0.000000;0.000000;-467.000000;-279.000000;586.000000
1608556898;12;;;;;;;;;;;;;;;;;;1.216025;5.138685;-9.767424;1.314092;-1.089189;2.279653;0.020159;-0.342084;0.393092;150.960281;-7.021840;178.601578;0.000000;0.000000;0.000000;0.000000;-469.000000;-275.000000;590.000000
1608556898;13;;;;;;;;;;;;;;92204279;78869;-135;76;0.941438;5.491724;-9.728197;1.314092;-1.075571;2.293564;-0.041233;-0.293826;0.370795;150.919724;-6.801368;179.456421;0.000000;0.000000;0.000000;0.000000;-469.000000;-271.000000;594.000000
1608556898;14;466846870;67440852;935;888;33;43;300;393;8;3;48098;399795419;1;;;;;1.019892;5.530951;-10.042010;1.314092;-1.075571;2.310953;-0.052840;-0.265421;0.351247;150.943253;-6.629604;180.153320;0.000000;0.000000;0.000000;0.000000;-469.000000;-271.000000;599.000000
1608556898;15;;;;;;;;;;;;;;;;;;1.294478;5.766310;-9.492838;1.321145;-1.072167;2.331820;-0.019242;-0.260534;0.306043;150.721329;-6.631409;181.175308;0.000000;0.000000;0.000000;0.000000;-471.000000;-270.000000;605.000000
1608556898;16;;;;;;;;;;;;;;92212120;78797;-207;76;1.216025;5.648631;-9.375158;1.328198;-1.068762;2.342254;-0.001527;-0.269392;0.262367;150.542267;-6.602223;182.095093;0.000000;0.000000;0.000000;0.000000;-473.000000;-269.000000;608.000000
1608556898;17;;;;;;;;;;;;;;;;;;1.372931;5.609404;-10.316596;1.324671;-1.061953;2.352687;-0.005192;-0.255342;0.231518;150.634644;-6.608848;182.559784;0.000000;0.000000;0.000000;0.000000;-472.000000;-267.000000;611.000000
1608556898;18;466847302;67441327;936;889;33;43;300;383;9;3;48098;599794886;1;92221141;78716;-267;76;1.333704;5.687857;-10.159690;1.324671;-1.065358;2.359643;0.003971;-0.209221;0.212581;150.646988;-6.601410;183.092911;0.000000;0.000000;0.000000;0.000000;-472.000000;-268.000000;613.000000
1608556898;19;;;;;;;;;;;;;;;;;;1.333704;5.727084;-10.355822;1.331724;-1.058549;2.366598;0.029627;-0.197920;0.190895;150.687912;-6.584288;183.556946;0.000000;0.000000;0.000000;0.000000;-474.000000;-266.000000;615.000000
1608556899;0;;;;;;;;;;;;;;;;;;1.059118;5.805537;-9.728197;1.331724;-1.055144;2.370076;0.095600;-0.171959;0.175318;150.536362;-6.459959;184.315887;0.000000;0.000000;0.000000;0.000000;-474.000000;-265.000000;616.000000
1608556899;1;;;;;;;;;;;;;;92229040;78644;-315;76;0.980665;5.962444;-9.806650;1.324671;-1.048335;2.377032;0.154549;-0.169210;0.167377;150.352783;-6.302348;185.126907;0.000000;0.000000;0.000000;0.000000;-472.000000;-263.000000;618.000000
1608556899;2;;;;;;;;;;;;;;;;;;1.255251;5.687857;-10.512729;1.324671;-1.048335;2.394421;0.155465;-0.151800;0.146302;150.475983;-6.271622;185.392960;0.000000;0.000000;0.000000;0.000000;-472.000000;-263.000000;623.000000
1608556899;3;466847732;67441804;937;890;33;43;300;380;9;3;48098;799794353;1;92236344;78578;-350;76;1.372931;5.609404;-10.277370;1.335250;-1.038122;2.401377;0.145080;-0.156381;0.107207;150.565826;-6.313251;185.688858;0.000000;0.000000;0.000000;0.000000;-475.000000;-260.000000;625.000000
1608556899;4;;;;;;;;;;;;;;;;;;1.059118;5.570177;-10.002784;1.335250;-1.031313;2.404855;0.120035;-0.130420;0.095600;150.598083;-6.210444;186.092529;0.000000;0.000000;0.000000;0.000000;-475.000000;-258.000000;626.000000
1608556899;5;;;;;;;;;;;;;;;;;;1.216025;5.491724;-10.277370;1.331724;-1.031313;2.415288;0.068417;-0.096211;0.063835;150.726501;-6.185162;186.298691;0.000000;0.000000;0.000000;0.000000;-474.000000;-258.000000;629.000000
1608556899;6;;;;;;;;;;;;;;92241702;78529;-371;76;1.098345;5.334818;-10.120463;1.331724;-1.031313;2.422244;0.033598;-0.095295;0.026878;150.874344;-6.115036;186.453339;0.000000;0.000000;0.000000;0.000000;-474.000000;-258.000000;631.000000
1608556899;7;466848163;67442257;938;891;33;43;299;375;9;3;48099;-206178;1;;;;;1.098345;4.981778;-9.571291;1.331724;-1.024504;2.429199;0.003971;-0.083383;-0.014966;151.037262;-6.084752;186.569748;0.000000;0.000000;0.000000;0.000000;-474.000000;-256.000000;633.000000
1608556899;8;;;;;;;;;;;;;;92243499;78513;-369;76;1.372931;5.491724;-9.963557;1.338777;-1.021099;2.429199;0.009163;-0.098960;-0.061087;151.047272;-6.164384;186.874283;0.000000;0.000000;0.000000;0.000000;-476.000000;-255.000000;633.000000
1608556899;9;;;;;;;;;;;;;;;;;;1.372931;5.491724;-9.649744;1.342303;-1.027908;2.436155;0.016493;-0.104763;-0.093157;150.978119;-6.252854;187.253494;0.000000;0.000000;0.000000;0.000000;-477.000000;-257.000000;635.000000
1608556899;10;;;;;;;;;;;;;;;;;;1.059118;5.177911;-9.139798;1.335250;-1.027908;2.422244;-0.009468;-0.105374;-0.156992;150.927063;-6.203303;187.594788;0.000000;0.000000;0.000000;0.000000;-475.000000;-257.000000;631.000000
1608556899;11;466848614;67442717;939;892;33;43;301;373;9;3;48099;199793287;1;92246458;78486;-357;76;1.294478;5.374045;-9.179025;1.335250;-1.031313;2.425721;-0.036346;-0.117286;-0.210138;150.799606;-6.276860;187.990875;0.000000;0.000000;0.000000;0.000000;-475.000000;-258.000000;632.000000
1608556899;12;;;;;;;;;;;;;;;;;;1.176798;4.864099;-8.786759;1.342303;-1.038122;2.425721;-0.037568;-0.095600;-0.250760;150.822891;-6.317481;188.115753;0.000000;0.000000;0.000000;0.000000;-477.000000;-260.000000;632.000000
1608556899;13;;;;;;;;;;;;;;92247966;78473;-338;76;1.059118;5.060232;-9.218252;1.338777;-1.048335;2.422244;0.006720;-0.039095;-0.253204;150.864212;-6.260859;188.182892;0.000000;0.000000;0.000000;0.000000;-476.000000;-263.000000;631.000000
1608556899;14;466849071;67443173;940;893;33;43;302;367;9;3;48099;399792754;1;;;;;1.255251;5.060232;-8.590626;1.345829;-1.048335;2.418766;0.041233;0.029627;-0.255952;150.727814;-6.352354;188.468781;0.000000;0.000000;0.000000;0.000000;-478.000000;-263.000000;630.000000
1608556899;15;;;;;;;;;;;;;;;;;;0.980665;5.060232;-8.472946;1.335250;-1.051740;2.411810;0.077580;0.079412;-0.274584;150.570389;-6.284595;188.809433;0.000000;0.000000;0.000000;0.000000;-475.000000;-264.000000;628.000000
1608556899;16;;;;;;;;;;;;;;92246870;78482;-305;76;1.019892;5.060232;-8.982892;1.349356;-1.051740;2.397899;0.115759;0.145691;-0.293521;150.574020;-6.221077;188.853790;0.000000;0.000000;0.000000;0.000000;-479.000000;-264.000000;624.000000
1608556899;17;;;;;;;;;;;;;;;;;;0.980665;5.060232;-8.433719;1.335250;-1.061953;2.394421;0.136834;0.184176;-0.334754;150.420258;-6.168375;189.113235;0.000000;0.000000;0.000000;0.000000;-475.000000;-267.000000;623.000000
1608556899;18;;;;;;;;;;;;;;92244226;78506;-259;76;1.019892;5.060232;-8.590626;1.335250;-1.065358;2.383987;0.177151;0.227853;-0.361632;150.328262;-6.135609;189.241074;0.000000;0.000000;0.000000;0.000000;-475.000000;-268.000000;620.000000
1608556899;19;466849518;67443636;941;894;33;43;303;362;9;3;48099;599792221;1;;;;;1.451384;5.099458;-8.669079;1.328198;-1.065358;2.383987;0.179900;0.261756;-0.414472;150.248901;-6.343191;189.294907;0.000000;0.000000;0.000000;0.000000;-473.000000;-268.000000;620.000000
1608556900;0;;;;;;;;;;;;;;;;;;2.118236;5.295591;-9.806650;1.338777;-1.072167;2.370076;0.179289;0.268170;-0.468534;150.387115;-6.784999;188.945175;0.000000;0.000000;0.000000;0.000000;-476.000000;-270.000000;616.000000
1608556900;1;;;;;;;;;;;;;;92238794;78556;-199;76;1.608291;5.177911;-9.139798;1.328198;-1.068762;2.370076;0.240986;0.273973;-0.513432;150.395157;-6.976958;188.846603;0.000000;0.000000;0.000000;0.000000;-473.000000;-269.000000;616.000000
1608556900;2;;;;;;;;;;;;;;;;;;1.412158;5.491724;-8.355266;1.331724;-1.072167;2.359643;0.302684;0.286496;-0.551917;150.024048;-7.083176;189.303970;0.000000;0.000000;0.000000;0.000000;-474.000000;-270.000000;613.000000
1608556900;3;466849970;67444103;942;895;33;43;304;361;9;3;48099;799791689;1;92230720;78629;-125;76;1.294478;5.530951;-9.688971;1.328198;-1.082380;2.352687;0.334449;0.331089;-0.570853;150.049667;-7.036697;189.170639;0.000000;0.000000;0.000000;0.000000;-473.000000;-273.000000;611.000000
1608556900;4;;;;;;;;;;;;;;;;;;1.412158;5.491724;-9.571291;1.328198;-1.078976;2.335298;0.325591;0.353996;-0.593455;150.060120;-7.062291;189.038071;0.000000;0.000000;0.000000;0.000000;-473.000000;-272.000000;606.000000
1608556900;5;;;;;;;;;;;;;;;;;;1.490611;5.060232;-9.610517;1.324671;-1.078976;2.331820;0.288023;0.332922;-0.661567;150.277298;-7.137510;188.587418;0.000000;0.000000;0.000000;0.000000;-472.000000;-272.000000;605.000000
1608556900;6;;;;;;;;;;;;;;92219297;78732;-34;76;1.647517;5.177911;-9.806650;1.321145;-1.089189;2.314431;0.292604;0.333227;-0.704327;150.466171;-7.268783;188.128082;0.000000;0.000000;0.000000;0.000000;-471.000000;-275.000000;600.000000
1608556900;7;466850428;67444571;944;897;33;43;305;364;9;3;48100;-208844;1;;;;;1.647517;5.217138;-9.728197;1.321145;-1.095998;2.310953;0.266032;0.348804;-0.731816;150.599152;-7.390762;187.744339;0.000000;0.000000;0.000000;0.000000;-471.000000;-277.000000;599.000000
1608556900;8;;;;;;;;;;;;;;92205530;78857;71;76;1.647517;5.256365;-9.571291;1.317618;-1.099403;2.293564;0.237016;0.359494;-0.741896;150.661774;-7.509673;187.447128;0.000000;0.000000;0.000000;0.000000;-470.000000;-278.000000;594.000000
1608556900;9;;;;;;;;;;;;;;;;;;1.412158;5.295591;-10.355822;1.321145;-1.106212;2.283131;0.211359;0.374460;-0.736703;150.887253;-7.450949;186.895706;0.000000;0.000000;0.000000;0.000000;-471.000000;-280.000000;591.000000
1608556900;10;;;;;;;;;;;;;;;;;;1.765197;5.452498;-10.002784;1.314092;-1.123234;2.255308;0.190284;0.363159;-0.721126;150.939072;-7.586626;186.522842;0.000000;0.000000;0.000000;0.000000;-469.000000;-285.000000;583.000000
1608556900;11;466850886;67445040;945;898;33;43;306;365;9;3;48100;199790622;1;92185645;79037;201;76;1.608291;5.413271;-10.198917;1.321145;-1.130043;2.241397;0.179289;0.372933;-0.711047;151.049377;-7.620925;186.052841;0.000000;0.000000;0.000000;0.000000;-471.000000;-287.000000;579.000000
1608556900;12;;;;;;;;;;;;;;;;;;1.294478;5.452498;-10.042010;1.310566;-1.140257;2.224008;0.192728;0.379653;-0.679587;151.094391;-7.505149;185.661499;0.000000;0.000000;0.000000;0.000000;-468.000000;-290.000000;574.000000
1608556900;13;;;;;;;;;;;;;;92159548;79274;361;76;1.333704;6.001670;-10.042010;1.307039;-1.136852;2.210097;0.215941;0.377209;-0.655764;150.898468;-7.405019;185.666428;0.000000;0.000000;0.000000;0.000000;-467.000000;-289.000000;570.000000
1608556900;14;;;;;;;;;;;;;;;;;;1.725971;5.570177;-9.688971;1.310566;-1.157279;2.178797;0.225715;0.377209;-0.634078;150.819183;-7.542432;185.382782;0.000000;0.000000;0.000000;0.000000;-468.000000;-295.000000;561.000000
1608556900;15;466851345;67445503;946;899;34;43;307;360;9;3;48100;399790089;1;;;;;1.451384;5.021005;-10.198917;1.310566;-1.160684;2.168363;0.225104;0.358272;-0.620639;151.116135;-7.515773;184.547501;0.000000;0.000000;0.000000;0.000000;-468.000000;-296.000000;558.000000
1608556900;16;;;;;;;;;;;;;;92129286;79548;545;76;1.372931;5.177911;-9.492838;1.307039;-1.170897;2.157930;0.208610;0.360716;-0.603229;151.143494;-7.487800;184.112030;0.000000;0.000000;0.000000;0.000000;-467.000000;-299.000000;555.000000
1608556900;17;;;;;;;;;;;;;;;;;;1.608291;5.060232;-9.179025;1.307039;-1.174302;2.147496;0.206167;0.353080;-0.583376;151.142441;-7.611373;183.729706;0.000000;0.000000;0.000000;0.000000;-467.000000;-300.000000;552.000000
1608556900;18;;;;;;;;;;;;;;92096092;79849;747;76;1.176798;5.060232;-8.982892;1.303513;-1.184515;2.130107;0.197004;0.302989;-0.568715;151.088867;-7.501394;183.405701;0.000000;0.000000;0.000000;0.000000;-466.000000;-303.000000;547.000000
1608556900;19;466851813;67445971;948;900;34;44;309;359;9;3;48100;599789556;1;;;;;1.569064;4.824872;-9.571291;1.310566;-1.191324;2.119674;0.181122;0.291688;-0.542754;151.304733;-7.584074;182.684586;0.000000;0.000000;0.000000;0.000000;-468.000000;-305.000000;544.000000
1608556901;0;;;;;;;;;;;;;;;;;;1.412158;4.628739;-8.982892;1.310566;-1.198133;2.098807;0.149662;0.281609;-0.505185;151.448135;-7.621189;182.052597;0.000000;0.000000;0.000000;0.000000;-468.000000;-307.000000;538.000000
1608556901;1;;;;;;;;;;;;;;92061362;80164;955;76;1.137571;4.981778;-8.002227;1.310566;-1.204942;2.088373;0.127671;0.250760;-0.481362;151.112900;-7.547197;182.138260;0.000000;0.000000;0.000000;0.000000;-468.000000;-309.000000;535.000000
1608556901;2;;;;;;;;;;;;;;;;;;1.019892;4.785646;-7.923773;1.307039;-1.211751;2.077940;0.102931;0.177151;-0.465785;150.888596;-7.421212;182.060135;0.000000;0.000000;0.000000;0.000000;-467.000000;-311.000000;532.000000
1608556901;3;466852290;67446443;949;902;34;44;312;358;9;3;48100;799789023;1;92029153;80456;1142;76;1.255251;4.589512;-8.080680;1.299986;-1.218560;2.060551;0.094684;0.113010;-0.437685;150.840256;-7.448353;181.704727;0.000000;0.000000;0.000000;0.000000;-465.000000;-313.000000;527.000000
1608556901;4;;;;;;;;;;;;;;;;;;1.412158;5.177911;-9.022118;1.299986;-1.218560;2.050117;0.088575;0.089186;-0.360410;150.771042;-7.476602;181.404648;0.000000;0.000000;0.000000;0.000000;-465.000000;-313.000000;524.000000
1608556901;5;;;;;;;;;;;;;;;;;;1.019892;4.981778;-8.629853;1.299986;-1.232178;2.043162;0.062003;0.129809;-0.283747;150.694290;-7.313341;181.093948;0.000000;0.000000;0.000000;0.000000;-465.000000;-317.000000;522.000000
1608556901;6;;;;;;;;;;;;;;92003746;80686;1278;76;0.941438;4.942552;-8.904439;1.307039;-1.242392;2.032728;0.048869;0.133169;-0.192423;150.721558;-7.110155;180.609207;0.000000;0.000000;0.000000;0.000000;-467.000000;-320.000000;519.000000
1608556901;7;466852751;67446916;950;903;34;44;312;358;9;3;48101;-211509;1;;;;;1.372931;4.746419;-8.786759;1.307039;-1.238987;2.032728;0.038179;0.112399;-0.130420;150.811722;-7.181907;180.110168;0.000000;0.000000;0.000000;0.000000;-467.000000;-319.000000;519.000000
1608556901;8;;;;;;;;;;;;;;91980327;80899;1368;76;0.745305;4.707192;-7.923773;1.314092;-1.242392;2.018817;-0.009774;0.139277;-0.069028;150.659271;-6.926041;179.957733;0.000000;0.000000;0.000000;0.000000;-469.000000;-320.000000;515.000000
1608556901;9;;;;;;;;;;;;;;;;;;0.706079;5.334818;-8.786759;1.307039;-1.242392;2.015339;0.005192;0.130725;0.008247;150.466980;-6.626375;179.899185;0.000000;0.000000;0.000000;0.000000;-467.000000;-320.000000;514.000000
1608556901;10;;;;;;;;;;;;;;;;;;0.627626;5.217138;-8.276813;1.303513;-1.242392;2.011861;0.010996;0.138056;0.075747;150.197845;-6.330782;179.995193;0.000000;0.000000;0.000000;0.000000;-466.000000;-320.000000;513.000000
1608556901;11;466853197;67447391;951;904;35;44;310;360;9;3;48101;199787957;1;91960431;81079;1418;76;0.784532;5.295591;-7.649187;1.299986;-1.249201;2.018817;0.100182;0.127060;0.144470;149.708557;-6.179724;180.462509;0.000000;0.000000;0.000000;0.000000;-465.000000;-322.000000;515.000000
1608556901;12;;;;;;;;;;;;;;;;;;1.019892;5.609404;-8.002227;1.299986;-1.245796;2.015339;0.144164;0.080023;0.202807;149.234741;-6.157556;180.923950;0.000000;0.000000;0.000000;0.000000;-465.000000;-321.000000;514.000000
1608556901;13;;;;;;;;;;;;;;;;;;1.569064;5.687857;-8.080680;1.296460;-1.235583;2.011861;0.152716;0.055894;0.243430;148.797165;-6.444034;181.342850;0.000000;0.000000;0.000000;0.000000;-464.000000;-318.000000;513.000000
1608556901;14;;;;;;;;;;;;;;91939739;81266;1443;76;1.569064;5.177911;-8.394493;1.285881;-1.238987;2.032728;0.159436;-0.017715;0.289245;148.750732;-6.703554;181.252594;0.000000;0.000000;0.000000;0.000000;-461.000000;-319.000000;519.000000
1608556901;15;466853661;67447889;952;905;35;44;313;367;8;3;48101;399787424;1;;;;;1.686744;4.903325;-8.198360;1.296460;-1.221965;2.032728;0.125838;-0.054978;0.308792;148.787369;-7.034554;181.109238;0.000000;0.000000;0.000000;0.000000;-464.000000;-314.000000;519.000000
1608556901;16;;;;;;;;;;;;;;91923131;81417;1444;76;1.804424;5.060232;-8.276813;1.289407;-1.215156;2.043162;0.085521;-0.162796;0.316734;148.764587;-7.384770;181.095886;0.000000;0.000000;0.000000;0.000000;-462.000000;-312.000000;522.000000
1608556901;17;;;;;;;;;;;;;;;;;;1.255251;4.903325;-8.669079;1.292934;-1.204942;2.057073;0.049175;-0.179594;0.360410;148.938843;-7.364623;180.855591;0.000000;0.000000;0.000000;0.000000;-463.000000;-309.000000;526.000000
1608556901;18;;;;;;;;;;;;;;;;;;1.255251;4.824872;-8.080680;1.292934;-1.198133;2.074462;0.011301;-0.236405;0.410196;148.960876;-7.387854;180.894669;0.000000;0.000000;0.000000;0.000000;-463.000000;-307.000000;531.000000
1608556901;19;466854141;67448381;954;907;35;44;317;365;8;3;48101;599786891;1;91905881;81573;1429;76;1.098345;5.021005;-8.904439;1.299986;-1.191324;2.088373;0.005192;-0.341779;0.421192;149.123032;-7.262324;180.760941;0.000000;0.000000;0.000000;0.000000;-465.000000;-305.000000;535.000000
1608556902;0;;;;;;;;;;;;;;;;;;1.686744;4.667966;-8.943665;1.296460;-1.187920;2.095329;-0.011301;-0.401033;0.440739;149.454605;-7.485263;180.399216;0.000000;0.000000;0.000000;0.000000;-464.000000;-304.000000;537.000000
1608556902;1;;;;;;;;;;;;;;91892326;81696;1395;76;1.255251;4.746419;-8.276813;1.296460;-1.170897;2.119674;-0.055894;-0.444404;0.470061;149.525909;-7.486224;180.497864;0.000000;0.000000;0.000000;0.000000;-464.000000;-299.000000;544.000000
1608556902;2;466854629;67448871;955;908;36;45;320;363;8;3;48101;799786358;1;;;;;0.784532;4.589512;-8.276813;1.296460;-1.170897;2.130107;-0.107818;-0.399200;0.522901;149.672485;-7.211475;180.482498;0.000000;0.000000;0.000000;0.000000;-464.000000;-299.000000;547.000000
1608556902;3;;;;;;;;;;;;;;;;;;0.784532;4.550286;-8.198360;1.307039;-1.157279;2.157930;-0.142026;-0.329562;0.585209;149.802124;-6.968610;180.568634;0.000000;0.000000;0.000000;0.000000;-467.000000;-295.000000;555.000000
1608556902;4;;;;;;;;;;;;;;91879825;81810;1346;76;0.941438;4.746419;-9.179025;1.307039;-1.153875;2.168363;-0.111483;-0.337808;0.618196;150.087601;-6.792304;180.402863;0.000000;0.000000;0.000000;0.000000;-467.000000;-294.000000;558.000000
1608556902;5;;;;;;;;;;;;;;;;;;1.137571;5.060232;-8.747532;1.310566;-1.147066;2.185752;-0.071777;-0.311541;0.655153;150.074020;-6.755333;180.730804;0.000000;0.000000;0.000000;0.000000;-468.000000;-292.000000;563.000000
1608556902;6;;;;;;;;;;;;;;91873428;81868;1275;76;0.941438;5.256365;-8.394493;1.299986;-1.140257;2.203141;-0.017410;-0.258701;0.705244;149.861282;-6.622781;181.413712;0.000000;0.000000;0.000000;0.000000;-465.000000;-290.000000;568.000000
1608556902;7;466855126;67449367;956;909;36;45;325;361;8;3;48102;-214173;1;;;;;0.784532;5.491724;-8.080680;1.303513;-1.123234;2.224008;0.045204;-0.175929;0.752586;149.455124;-6.419595;182.482864;0.000000;0.000000;0.000000;0.000000;-466.000000;-285.000000;574.000000
1608556902;8;;;;;;;;;;;;;;;;;;0.941438;4.746419;-7.845320;1.307039;-1.116425;2.241397;0.062308;-0.184787;0.763887;149.392227;-6.363849;182.985611;0.000000;0.000000;0.000000;0.000000;-467.000000;-283.000000;579.000000
1608556902;9;;;;;;;;;;;;;;91878081;81825;1147;76;1.490611;4.785646;-8.355266;1.310566;-1.089189;2.265742;0.075442;-0.241597;0.713185;149.472748;-6.607466;183.302353;0.000000;0.000000;0.000000;0.000000;-468.000000;-275.000000;586.000000
1608556902;10;;;;;;;;;;;;;;;;;;2.196690;4.864099;-9.179025;1.307039;-1.078976;2.279653;0.051618;-0.293215;0.671035;149.733505;-7.140712;183.334579;0.000000;0.000000;0.000000;0.000000;-467.000000;-272.000000;590.000000
1608556902;11;466855612;67449873;957;910;36;45;327;363;9;3;48102;199785293;1;91885136;81761;986;76;2.000557;4.942552;-9.414384;1.307039;-1.065358;2.314431;0.010690;-0.321620;0.640492;149.990219;-7.492188;183.433075;0.000000;0.000000;0.000000;0.000000;-467.000000;-268.000000;600.000000
1608556902;12;;;;;;;;;;;;;;;;;;1.843650;4.628739;-8.865212;1.310566;-1.055144;2.328342;-0.018631;-0.322231;0.624610;150.234192;-7.787487;183.554260;0.000000;0.000000;0.000000;0.000000;-468.000000;-265.000000;604.000000
1608556902;13;;;;;;;;;;;;;;;;;;1.372931;4.824872;-8.629853;1.321145;-1.044931;2.356165;-0.032987;-0.309709;0.606589;150.289871;-7.799301;184.013107;0.000000;0.000000;0.000000;0.000000;-471.000000;-262.000000;612.000000
1608556902;14;;;;;;;;;;;;;;91893139;81689;808;76;1.529837;4.746419;-9.728197;1.307039;-1.034717;2.373554;-0.042761;-0.300240;0.567188;150.660110;-7.823823;183.994736;0.000000;0.000000;0.000000;0.000000;-467.000000;-259.000000;617.000000
1608556902;15;466856098;67450386;959;911;36;45;329;364;9;3;48102;399784761;1;;;;;1.804424;4.628739;-9.767424;1.310566;-1.017695;2.408332;-0.044288;-0.299018;0.547641;151.058502;-7.989208;183.966217;0.000000;0.000000;0.000000;0.000000;-468.000000;-254.000000;627.000000
1608556902;16;;;;;;;;;;;;;;91901802;81610;632;76;1.412158;4.393379;-9.845877;1.321145;-1.017695;2.408332;-0.058948;-0.284052;0.518624;151.547943;-7.936491;183.750153;0.000000;0.000000;0.000000;0.000000;-471.000000;-254.000000;627.000000
1608556902;17;;;;;;;;;;;;;;;;;;1.608291;4.393379;-8.982892;1.335250;-1.000672;2.429199;-0.085827;-0.344833;0.447153;151.786911;-8.056528;183.929474;0.000000;0.000000;0.000000;0.000000;-475.000000;-249.000000;633.000000
1608556902;18;;;;;;;;;;;;;;;;;;1.294478;4.667966;-8.080680;1.324671;-1.004077;2.439633;-0.067501;-0.391259;0.397673;151.606857;-8.040604;184.722183;0.000000;0.000000;0.000000;0.000000;-472.000000;-250.000000;636.000000
1608556902;19;466856607;67450894;960;913;37;45;332;361;9;3;48102;599784229;1;91909877;81537;471;76;1.372931;4.589512;-8.590626;1.338777;-1.000672;2.453544;-0.058948;-0.370795;0.379958;151.634857;-8.038909;185.167465;0.000000;0.000000;0.000000;0.000000;-476.000000;-249.000000;640.000000
1608556903;0;;;;;;;;;;;;;;;;;;1.333704;4.432606;-8.865212;1.338777;-0.990459;2.467455;-0.075136;-0.309403;0.374460;151.814880;-8.001387;185.388596;0.000000;0.000000;0.000000;0.000000;-476.000000;-246.000000;644.000000
1608556903;1;;;;;;;;;;;;;;91916633;81476;332;76;0.980665;4.628739;-8.629853;1.335250;-0.987054;2.481366;-0.040623;-0.242819;0.385456;151.812653;-7.773108;185.926773;0.000000;0.000000;0.000000;0.000000;-475.000000;-245.000000;648.000000
1608556903;2;;;;;;;;;;;;;;;;;;0.980665;4.550286;-8.747532;1.335250;-0.983650;2.481366;-0.006109;-0.218690;0.359800;151.883148;-7.563774;186.305542;0.000000;0.000000;0.000000;0.000000;-475.000000;-244.000000;648.000000
1608556903;3;466857134;67451430;961;914;37;46;338;362;9;3;48102;799783697;1;;;;;0.784532;4.707192;-7.923773;1.345829;-0.973436;2.498755;0.074831;-0.183260;0.361632;151.623566;-7.293940;187.242615;0.000000;0.000000;0.000000;0.000000;-478.000000;-241.000000;653.000000
1608556903;4;;;;;;;;;;;;;;91923609;81413;214;76;0.745305;4.785646;-8.316040;1.342303;-0.973436;2.502233;0.138972;-0.143248;0.346361;151.469299;-7.008720;187.986053;0.000000;0.000000;0.000000;0.000000;-477.000000;-241.000000;654.000000
1608556903;5;;;;;;;;;;;;;;;;;;1.176798;4.981778;-7.256921;1.349356;-0.959818;2.523100;0.177456;-0.158825;0.315817;150.875473;-7.069330;189.257248;0.000000;0.000000;0.000000;0.000000;-479.000000;-237.000000;660.000000
1608556903;6;;;;;;;;;;;;;;91931162;81344;110;76;1.294478;4.667966;-8.119907;1.342303;-0.956414;2.537011;0.172569;-0.150578;0.294742;150.798569;-7.149296;189.770859;0.000000;0.000000;0.000000;0.000000;-477.000000;-236.000000;664.000000
1608556903;7;466857652;67451968;962;915;37;46;342;362;9;3;48103;-216835;1;;;;;1.294478;4.314926;-8.669079;1.345829;-0.946200;2.550923;0.107818;-0.133779;0.260229;151.072601;-7.195770;189.764801;0.000000;0.000000;0.000000;0.000000;-478.000000;-233.000000;668.000000
1608556903;8;;;;;;;;;;;;;;;;;;1.255251;4.236473;-9.100572;1.356409;-0.939391;2.550923;0.017410;-0.141721;0.210748;151.469070;-7.188954;189.549973;0.000000;0.000000;0.000000;0.000000;-481.000000;-231.000000;668.000000
1608556903;9;;;;;;;;;;;;;;91938276;81280;21;76;1.529837;4.236473;-9.061345;1.352882;-0.939391;2.568312;-0.054978;-0.126144;0.164628;151.816422;-7.339610;189.365860;0.000000;0.000000;0.000000;0.000000;-480.000000;-231.000000;673.000000
1608556903;10;;;;;;;;;;;;;;;;;;0.941438;4.314926;-9.492838;1.342303;-0.939391;2.564834;-0.108123;-0.120035;0.114843;152.190399;-7.121541;189.171799;0.000000;0.000000;0.000000;0.000000;-477.000000;-231.000000;672.000000
1608556903;11;466858171;67452518;964;916;37;46;346;363;9;3;48103;199782632;1;91946913;81201;-60;76;1.922103;4.354153;-9.492838;1.356409;-0.939391;2.571790;-0.103236;-0.100487;0.074831;152.507385;-7.452206;188.935791;0.000000;0.000000;0.000000;0.000000;-481.000000;-231.000000;674.000000
1608556903;12;;;;;;;;;;;;;;;;;;0.745305;4.393379;-7.609961;1.356409;-0.939391;2.575267;-0.064752;-0.024129;0.073304;152.256790;-7.191797;189.712509;0.000000;0.000000;0.000000;0.000000;-481.000000;-231.000000;675.000000
1608556903;13;;;;;;;;;;;;;;;;;;1.294478;4.550286;-8.159133;1.352882;-0.939391;2.568312;-0.081245;0.005803;0.035736;152.116318;-7.261499;190.153793;0.000000;0.000000;0.000000;0.000000;-480.000000;-231.000000;673.000000
1608556903;14;;;;;;;;;;;;;;91954482;81133;-131;76;1.647517;4.746419;-9.100572;1.356409;-0.946200;2.564834;-0.090408;0.056810;-0.001833;152.150269;-7.447254;190.248566;0.000000;0.000000;0.000000;0.000000;-481.000000;-233.000000;672.000000
1608556903;15;466858676;67453089;965;917;37;46;349;369;10;3;48103;399782100;1;;;;;0.353039;4.589512;-5.609404;1.352882;-0.939391;2.561356;-0.087354;0.073915;-0.035430;151.006317;-6.981399;192.345398;0.000000;0.000000;0.000000;0.000000;-480.000000;-231.000000;671.000000
1608556903;16;;;;;;;;;;;;;;91961037;81073;-188;76;1.255251;4.354153;-7.570734;1.349356;-0.953009;2.554400;-0.080940;0.108734;-0.072998;150.915253;-7.101158;192.570282;0.000000;0.000000;0.000000;0.000000;-479.000000;-235.000000;669.000000
1608556903;17;;;;;;;;;;;;;;;;;;1.098345;4.001113;-6.550843;1.352882;-0.953009;2.554400;-0.035430;0.139277;-0.105985;150.682175;-7.205340;192.991272;0.000000;0.000000;0.000000;0.000000;-480.000000;-235.000000;669.000000
1608556903;18;;;;;;;;;;;;;;;;;;1.333704;3.883434;-8.590626;1.349356;-0.956414;2.537011;-0.012523;0.166461;-0.129809;151.181412;-7.290015;192.269958;0.000000;0.000000;0.000000;0.000000;-479.000000;-236.000000;664.000000
1608556903;19;466859185;67453665;966;918;37;46;352;373;10;3;48103;599781567;1;91967020;81019;-231;76;1.529837;3.961887;-7.609961;1.345829;-0.959818;2.540489;-0.000305;0.184481;-0.176235;151.313049;-7.572045;192.057526;0.000000;0.000000;0.000000;0.000000;-478.000000;-237.000000;665.000000
1608556904;0;;;;;;;;;;;;;;;;;;1.647517;4.197247;-6.825429;1.349356;-0.963223;2.519622;0.009468;0.182649;-0.234878;151.022842;-7.976726;192.357941;0.000000;0.000000;0.000000;0.000000;-479.000000;-238.000000;659.000000
1608556904;1;;;;;;;;;;;;;;91969836;80994;-255;76;1.961330;4.314926;-7.884547;1.345829;-0.963223;2.516145;0.029322;0.198226;-0.287412;151.051544;-8.410042;192.212616;0.000000;0.000000;0.000000;0.000000;-478.000000;-238.000000;658.000000
1608556904;2;;;;;;;;;;;;;;;;;;1.686744;4.354153;-8.982892;1.335250;-0.970032;2.512667;0.050091;0.202502;-0.346055;151.360382;-8.528104;191.712173;0.000000;0.000000;0.000000;0.000000;-475.000000;-240.000000;657.000000
1608556904;3;466859703;67454254;967;919;38;46;356;374;10;3;48103;799781035;1;;;;;1.765197;4.471833;-9.218252;1.338777;-0.976841;2.498755;0.049786;0.224798;-0.400422;151.636520;-8.652832;191.221771;0.000000;0.000000;0.000000;0.000000;-476.000000;-242.000000;653.000000
1608556904;4;;;;;;;;;;;;;;91971777;80976;-258;76;0.745305;4.079566;-8.080680;1.342303;-0.983650;2.484844;0.053451;0.265115;-0.448680;151.794174;-8.258234;190.982697;0.000000;0.000000;0.000000;0.000000;-477.000000;-244.000000;649.000000
1608556904;5;;;;;;;;;;;;;;;;;;0.980665;4.197247;-8.590626;1.321145;-0.983650;2.474411;0.068417;0.322842;-0.482583;152.010834;-8.018032;190.612213;0.000000;0.000000;0.000000;0.000000;-471.000000;-244.000000;646.000000
1608556904;6;;;;;;;;;;;;;;91971833;80976;-249;76;1.725971;4.236473;-8.198360;1.328198;-0.997268;2.460500;0.087048;0.373544;-0.519846;152.077011;-8.275599;190.325241;0.000000;0.000000;0.000000;0.000000;-473.000000;-248.000000;642.000000
1608556904;7;466860226;67454832;968;920;38;46;359;369;10;3;48104;-219497;1;;;;;0.862985;4.314926;-7.727641;1.338777;-1.004077;2.450066;0.119730;0.421802;-0.547335;151.951538;-8.004939;190.424698;0.000000;0.000000;0.000000;0.000000;-476.000000;-250.000000;639.000000
1608556904;8;;;;;;;;;;;;;;;;;;1.372931;4.079566;-7.727641;1.324671;-1.010886;2.425721;0.122478;0.456927;-0.583376;151.973358;-8.097349;190.174042;0.000000;0.000000;0.000000;0.000000;-472.000000;-252.000000;632.000000
1608556904;9;;;;;;;;;;;;;;91965651;81032;-207;76;1.294478;3.961887;-7.845320;1.324671;-1.021099;2.408332;0.095906;0.468228;-0.625831;152.096664;-8.125471;189.744720;0.000000;0.000000;0.000000;0.000000;-472.000000;-255.000000;627.000000
1608556904;10;;;;;;;;;;;;;;;;;;1.804424;4.001113;-9.061345;1.310566;-1.024504;2.380510;0.067501;0.460592;-0.696081;152.504578;-8.345337;188.849823;0.000000;0.000000;0.000000;0.000000;-468.000000;-256.000000;619.000000
