Time;Fraction;Latitude;Longitude;Height_ellipsoid;Height_msl;Accuracy_hor;Accuracy_ver;Speed_gnd;Heading;Satellites;Fix;TimeOfDay;Nanoseconds;Time_Valid;Pressure;Altitude;Vario;Temperature;Acc_X;Acc_Y;Acc_Z;Mag_X;Mag_Y;Mag_Z;Gyro_X;Gyro_Y;Gyro_Z;Roll;Pitch;Yaw;Quat0;Quat1;Quat2;Quat3;Temp_X;Temp_Y;Temp_Z
s;;°/1e7;°/1e7;m;m;dm;dm;dm/s;°/10;;;sec;ns;;mPA;cm;cm/s;°C/10;m/s^2;m/s^2;m/s^2;Gauss;Gauss;Gauss;rad/s;rad/s;rad/s;°;°;°;;;;;;;
1608557111;2;;;;;;;;;;;;;;;;;;0.156906;5.334818;-8.629853;1.529202;-0.878110;2.488322;0.047647;-0.299629;0.483500;149.862839;-0.558173;202.622360;0.000000;0.000000;0.000000;0.000000;-530.000000;-213.000000;650.000000
1608557111;3;466839429;67417358;899;852;28;34;130;595;9;3;48310;800237587;1;92541865;75853;714;77;0.274586;5.217138;-8.551399;1.525675;-0.908751;2.432677;0.174707;-0.299324;0.451124;149.737869;-0.659372;202.071854;0.000000;0.000000;0.000000;0.000000;-529.000000;-222.000000;634.000000
1608557111;4;;;;;;;;;;;;;;;;;;0.235360;5.256365;-8.669079;1.532728;-0.915560;2.425721;0.179900;-0.304822;0.429133;149.641113;-0.726425;201.525803;0.000000;0.000000;0.000000;0.000000;-531.000000;-224.000000;632.000000
1608557111;5;;;;;;;;;;;;;;92528400;75972;734;77;0.117680;4.981778;-9.022118;1.532728;-0.922369;2.415288;0.173180;-0.306654;0.400728;149.786377;-0.719202;200.671356;0.000000;0.000000;0.000000;0.000000;-531.000000;-226.000000;629.000000
1608557111;6;466839628;67417665;900;853;28;34;138;567;9;3;48311;237064;1;;;;;-0.039227;5.099458;-8.943665;1.515096;-0.915560;2.404855;0.135917;-0.288939;0.386678;149.838684;-0.625451;200.077347;0.000000;0.000000;0.000000;0.000000;-526.000000;-224.000000;626.000000
1608557111;7;;;;;;;;;;;;;;;;;;0.039227;5.177911;-9.257478;1.525675;-0.935987;2.390943;0.095906;-0.261756;0.372017;149.932907;-0.584095;199.354919;0.000000;0.000000;0.000000;0.000000;-529.000000;-230.000000;622.000000
1608557111;8;;;;;;;;;;;;;;92515556;76087;755;77;0.117680;4.903325;-9.688971;1.515096;-0.932582;2.373554;0.042455;-0.244651;0.343306;150.255356;-0.587775;198.302582;0.000000;0.000000;0.000000;0.000000;-526.000000;-229.000000;617.000000
1608557111;9;;;;;;;;;;;;;;;;;;0.117680;4.903325;-9.610517;1.522149;-0.949605;2.366598;-0.006414;-0.219606;0.324064;150.526749;-0.591489;197.315323;0.000000;0.000000;0.000000;0.000000;-528.000000;-234.000000;615.000000
1608557111;10;;;;;;;;;;;;;;92501905;76208;779;77;-0.039227;5.099458;-9.335931;1.536254;-0.949605;2.349209;-0.047342;-0.153633;0.309403;150.609665;-0.511213;196.669098;0.000000;0.000000;0.000000;0.000000;-532.000000;-234.000000;610.000000
1608557111;11;466839851;67417983;902;855;28;34;147;537;9;3;48311;200236541;1;;;;;-0.117680;5.295591;-9.100572;1.532728;-0.959818;2.338776;-0.049786;-0.104458;0.306960;150.529205;-0.396057;196.299698;0.000000;0.000000;0.000000;0.000000;-531.000000;-237.000000;607.000000
1608557111;12;;;;;;;;;;;;;;;;;;0.000000;5.374045;-9.296705;1.532728;-0.959818;2.324865;-0.054367;-0.058032;0.285274;150.473251;-0.356451;195.893814;0.000000;0.000000;0.000000;0.000000;-531.000000;-237.000000;603.000000
1608557111;13;;;;;;;;;;;;;;92489025;76323;800;77;0.039227;5.530951;-8.904439;1.525675;-0.970032;2.314431;-0.001833;-0.035430;0.258701;150.241302;-0.342247;195.755203;0.000000;0.000000;0.000000;0.000000;-529.000000;-240.000000;600.000000
1608557111;14;466840103;67418314;903;856;29;34;157;510;9;3;48311;400236017;1;;;;;0.196133;5.374045;-8.865212;1.529202;-0.976841;2.307476;0.008552;-0.018326;0.225104;150.094788;-0.416408;195.469360;0.000000;0.000000;0.000000;0.000000;-530.000000;-242.000000;598.000000
1608557111;15;;;;;;;;;;;;;;92476241;76437;815;77;0.000000;5.413271;-8.786759;1.522149;-0.987054;2.290087;0.029932;-0.009468;0.199447;149.921722;-0.374768;195.255997;0.000000;0.000000;0.000000;0.000000;-528.000000;-245.000000;593.000000
1608557111;16;;;;;;;;;;;;;;;;;;0.156906;5.413271;-8.551399;1.518622;-0.990459;2.283131;0.083689;-0.001222;0.171042;149.696075;-0.426112;195.117233;0.000000;0.000000;0.000000;0.000000;-527.000000;-246.000000;591.000000
1608557111;17;;;;;;;;;;;;;;;;;;0.117680;5.570177;-8.669079;1.522149;-0.990459;2.283131;0.156381;-0.000916;0.142026;149.454269;-0.448932;195.055588;0.000000;0.000000;0.000000;0.000000;-528.000000;-246.000000;591.000000
1608557111;18;;;;;;;;;;;;;;92464290;76543;824;77;0.078453;5.452498;-8.433719;1.518622;-0.997268;2.283131;0.205556;0.001527;0.098044;149.220535;-0.448797;195.015350;0.000000;0.000000;0.000000;0.000000;-527.000000;-248.000000;591.000000
1608557111;19;466840404;67418681;905;858;29;34;173;491;10;3;48311;600235493;1;;;;;0.470719;5.374045;-8.904439;1.518622;-0.997268;2.286609;0.204640;-0.072998;0.017715;149.187286;-0.663058;194.651306;0.000000;0.000000;0.000000;0.000000;-527.000000;-248.000000;592.000000
1608557112;0;;;;;;;;;;;;;;;;;;0.274586;5.452498;-9.100572;1.525675;-0.990459;2.283131;0.160047;-0.064141;-0.024129;149.175827;-0.745015;194.337891;0.000000;0.000000;0.000000;0.000000;-529.000000;-246.000000;591.000000
1608557112;1;;;;;;;;;;;;;;92451360;76658;832;77;0.156906;5.217138;-9.022118;1.532728;-0.993863;2.279653;0.150578;-0.076664;-0.073915;149.254349;-0.756768;193.918304;0.000000;0.000000;0.000000;0.000000;-531.000000;-247.000000;590.000000
1608557112;2;;;;;;;;;;;;;;;;;;0.313813;5.295591;-9.218252;1.525675;-0.990459;2.286609;0.094073;-0.067806;-0.113315;149.341324;-0.850171;193.520905;0.000000;0.000000;0.000000;0.000000;-529.000000;-246.000000;592.000000
1608557112;3;466840714;67419059;906;859;29;34;186;476;10;3;48311;800234969;1;92438257;76775;842;77;-0.235360;5.256365;-8.982892;1.529202;-0.983650;2.297042;0.087354;0.049480;-0.093462;149.373795;-0.635608;193.361649;0.000000;0.000000;0.000000;0.000000;-530.000000;-244.000000;595.000000
1608557112;4;;;;;;;;;;;;;;;;;;-0.274586;5.491724;-8.982892;1.529202;-0.980245;2.297042;0.089797;0.093157;-0.115454;149.292465;-0.422653;193.413406;0.000000;0.000000;0.000000;0.000000;-530.000000;-243.000000;595.000000
1608557112;5;;;;;;;;;;;;;;;;;;0.078453;5.177911;-9.257478;1.522149;-0.973436;2.303998;0.025045;0.128587;-0.145691;149.441315;-0.422765;193.084686;0.000000;0.000000;0.000000;0.000000;-528.000000;-241.000000;597.000000
1608557112;6;;;;;;;;;;;;;;92425939;76884;848;77;-0.039227;5.217138;-9.218252;1.522149;-0.976841;2.314431;-0.006720;0.158214;-0.176540;149.546387;-0.359270;192.860718;0.000000;0.000000;0.000000;0.000000;-528.000000;-242.000000;600.000000
1608557112;7;466841017;67419434;908;860;29;34;194;463;10;3;48312;234445;1;;;;;-0.117680;5.177911;-9.022118;1.518622;-0.976841;2.314431;-0.043677;0.227242;-0.197309;149.606552;-0.258528;192.730560;0.000000;0.000000;0.000000;0.000000;-527.000000;-242.000000;600.000000
1608557112;8;;;;;;;;;;;;;;92414024;76990;850;77;0.000000;5.256365;-9.139798;1.525675;-0.970032;2.328342;-0.064141;0.260229;-0.228158;149.655563;-0.232675;192.641663;0.000000;0.000000;0.000000;0.000000;-529.000000;-240.000000;604.000000
1608557112;9;;;;;;;;;;;;;;;;;;-0.078453;5.256365;-8.904439;1.532728;-0.963223;2.331820;-0.073304;0.288939;-0.274278;149.634644;-0.165937;192.700531;0.000000;0.000000;0.000000;0.000000;-531.000000;-238.000000;605.000000
1608557112;10;;;;;;;;;;;;;;;;;;-0.039227;5.452498;-8.865212;1.522149;-0.963223;2.349209;-0.041844;0.325286;-0.311541;149.511856;-0.127748;192.947906;0.000000;0.000000;0.000000;0.000000;-528.000000;-238.000000;610.000000
1608557112;11;466841316;67419809;909;862;29;34;200;457;10;3;48312;200233921;1;92402326;77094;848;77;0.039227;5.491724;-8.472946;1.525675;-0.959818;2.356165;0.018937;0.341779;-0.369879;149.265762;-0.137233;193.375824;0.000000;0.000000;0.000000;0.000000;-529.000000;-237.000000;612.000000
1608557112;12;;;;;;;;;;;;;;;;;;0.000000;5.374045;-8.747532;1.525675;-0.953009;2.370076;0.070249;0.368352;-0.401338;149.182755;-0.123509;193.607452;0.000000;0.000000;0.000000;0.000000;-529.000000;-235.000000;616.000000
1608557112;13;;;;;;;;;;;;;;92389849;77205;848;77;0.235360;5.491724;-8.433719;1.529202;-0.953009;2.387465;0.151800;0.338725;-0.481667;148.957428;-0.245126;194.008362;0.000000;0.000000;0.000000;0.000000;-530.000000;-235.000000;621.000000
1608557112;14;;;;;;;;;;;;;;;;;;0.431493;5.530951;-8.512172;1.518622;-0.929178;2.408332;0.178067;0.322537;-0.553749;148.760239;-0.464010;194.424118;0.000000;0.000000;0.000000;0.000000;-527.000000;-228.000000;627.000000
1608557112;15;466841605;67420195;910;863;29;34;204;454;10;3;48312;400233398;1;;;;;0.117680;5.452498;-8.708306;1.522149;-0.925773;2.422244;0.228158;0.376293;-0.574213;148.679047;-0.483231;194.770935;0.000000;0.000000;0.000000;0.000000;-528.000000;-227.000000;631.000000
1608557112;16;;;;;;;;;;;;;;92376770;77322;850;77;-0.039227;5.295591;-8.629853;1.525675;-0.905346;2.453544;0.272751;0.436769;-0.608422;148.657669;-0.412710;195.158920;0.000000;0.000000;0.000000;0.000000;-529.000000;-221.000000;640.000000
1608557112;17;;;;;;;;;;;;;;;;;;-0.078453;5.138685;-8.943665;1.515096;-0.898537;2.474411;0.264810;0.460592;-0.664621;148.803909;-0.327861;195.330582;0.000000;0.000000;0.000000;0.000000;-526.000000;-219.000000;646.000000
1608557112;18;;;;;;;;;;;;;;92362498;77449;863;77;0.039227;5.177911;-8.943665;1.511570;-0.878110;2.512667;0.235794;0.482278;-0.713796;148.916672;-0.316823;195.613312;0.000000;0.000000;0.000000;0.000000;-525.000000;-213.000000;657.000000
1608557112;19;466841908;67420596;911;864;29;34;210;451;9;3;48312;600232875;1;;;;;0.117680;4.981778;-9.218252;1.518622;-0.864492;2.530056;0.181122;0.501520;-0.766636;149.186218;-0.349486;195.646606;0.000000;0.000000;0.000000;0.000000;-527.000000;-209.000000;662.000000
1608557113;0;;;;;;;;;;;;;;;;;;0.039227;4.981778;-9.335931;1.511570;-0.840661;2.568312;0.099876;0.569021;-0.809702;149.459106;-0.335777;195.789841;0.000000;0.000000;0.000000;0.000000;-525.000000;-202.000000;673.000000
1608557113;1;;;;;;;;;;;;;;92348692;77572;875;77;-0.039227;4.981778;-9.100572;1.511570;-0.830447;2.596134;0.006720;0.595899;-0.864985;149.643524;-0.280536;196.114838;0.000000;0.000000;0.000000;0.000000;-525.000000;-199.000000;681.000000
1608557113;2;;;;;;;;;;;;;;;;;;0.196133;4.903325;-9.571291;1.511570;-0.816829;2.634390;-0.054062;0.588263;-0.941038;149.966599;-0.356966;196.193115;0.000000;0.000000;0.000000;0.000000;-525.000000;-195.000000;692.000000
1608557113;3;466842220;67421000;912;865;29;34;216;447;9;3;48312;800232351;1;92336419;77681;884;77;0.078453;5.099458;-9.492838;1.508043;-0.806616;2.641346;-0.104763;0.615141;-0.989296;150.145523;-0.362983;196.518448;0.000000;0.000000;0.000000;0.000000;-524.000000;-192.000000;694.000000
1608557113;4;;;;;;;;;;;;;;;;;;0.156906;5.177911;-9.375158;1.500991;-0.792998;2.679602;-0.139277;0.623082;-1.060767;150.239792;-0.410619;196.998535;0.000000;0.000000;0.000000;0.000000;-522.000000;-188.000000;705.000000
1608557113;5;;;;;;;;;;;;;;;;;;0.117680;5.060232;-9.296705;1.504517;-0.786189;2.690035;-0.160352;0.620944;-1.112996;150.359863;-0.433256;197.419235;0.000000;0.000000;0.000000;0.000000;-523.000000;-186.000000;708.000000
1608557113;6;;;;;;;;;;;;;;92326659;77768;878;77;0.117680;5.177911;-9.375158;1.497464;-0.769166;2.724813;-0.152411;0.627664;-1.157589;150.432693;-0.452884;197.963303;0.000000;0.000000;0.000000;0.000000;-521.000000;-181.000000;718.000000
1608557113;7;466842536;67421416;913;866;29;34;221;446;10;3;48313;231827;1;;;;;-0.078453;5.138685;-9.453611;1.493938;-0.769166;2.731769;-0.143553;0.656680;-1.185384;150.536728;-0.365821;198.477783;0.000000;0.000000;0.000000;0.000000;-520.000000;-181.000000;720.000000
1608557113;8;;;;;;;;;;;;;;92316610;77857;863;77;-0.117680;5.217138;-9.179025;1.472779;-0.752144;2.756114;-0.083078;0.675617;-1.205542;150.521774;-0.265380;199.245285;0.000000;0.000000;0.000000;0.000000;-514.000000;-176.000000;727.000000
1608557113;9;;;;;;;;;;;;;;;;;;-0.470719;5.413271;-9.257478;1.486885;-0.748739;2.770025;-0.038485;0.734565;-1.190882;150.437927;0.012491;200.207306;0.000000;0.000000;0.000000;0.000000;-518.000000;-175.000000;731.000000
1608557113;10;;;;;;;;;;;;;;;;;;-0.196133;5.413271;-9.375158;1.465727;-0.738526;2.804803;0.001222;0.783435;-1.178053;150.393906;0.115035;201.020172;0.000000;0.000000;0.000000;0.000000;-512.000000;-172.000000;741.000000
1608557113;11;466842839;67421853;915;867;29;34;226;452;9;3;48313;200231303;1;92308008;77934;844;77;-0.431493;5.491724;-9.492838;1.458674;-0.735121;2.808281;0.004276;0.844216;-1.146899;150.349533;0.328846;201.892456;0.000000;0.000000;0.000000;0.000000;-510.000000;-171.000000;742.000000
1608557113;12;;;;;;;;;;;;;;;;;;-0.470719;5.374045;-9.492838;1.444568;-0.714694;2.825670;0.038790;0.876591;-1.123075;150.363098;0.543049;202.725403;0.000000;0.000000;0.000000;0.000000;-506.000000;-165.000000;747.000000
1608557113;13;;;;;;;;;;;;;;92303467;77974;808;77;-0.196133;5.413271;-9.649744;1.437515;-0.711290;2.843059;0.056810;0.858876;-1.127962;150.397659;0.590299;203.358231;0.000000;0.000000;0.000000;0.000000;-504.000000;-164.000000;752.000000
1608557113;14;;;;;;;;;;;;;;;;;;-0.117680;5.413271;-9.688971;1.426936;-0.707885;2.846537;0.068417;0.819476;-1.144456;150.438675;0.592018;203.910202;0.000000;0.000000;0.000000;0.000000;-501.000000;-163.000000;753.000000
1608557113;15;466843137;67422310;915;868;29;34;229;458;10;3;48313;400230780;1;;;;;-0.078453;5.334818;-9.845877;1.416357;-0.697672;2.843059;0.041844;0.785573;-1.158506;150.549789;0.572956;204.314331;0.000000;0.000000;0.000000;0.000000;-498.000000;-160.000000;752.000000
1608557113;16;;;;;;;;;;;;;;92305596;77955;735;77;0.000000;5.334818;-10.002784;1.409304;-0.701076;2.853492;-0.021686;0.762054;-1.166752;150.687576;0.515661;204.602707;0.000000;0.000000;0.000000;0.000000;-496.000000;-161.000000;755.000000
1608557113;17;;;;;;;;;;;;;;;;;;0.078453;5.217138;-10.081236;1.405778;-0.697672;2.843059;-0.070249;0.694554;-1.180802;150.882629;0.424495;204.715958;0.000000;0.000000;0.000000;0.000000;-495.000000;-160.000000;752.000000
1608557113;18;;;;;;;;;;;;;;92315120;77870;621;77;0.000000;5.138685;-10.042010;1.388146;-0.701076;2.846537;-0.065057;0.637743;-1.194241;151.084412;0.382046;204.829529;0.000000;0.000000;0.000000;0.000000;-490.000000;-161.000000;753.000000
1608557113;19;466843449;67422767;917;869;29;34;234;462;10;3;48313;600230256;1;;;;;0.000000;5.099458;-9.845877;1.388146;-0.714694;2.836103;-0.069639;0.618501;-1.173167;151.237885;0.343841;204.922073;0.000000;0.000000;0.000000;0.000000;-490.000000;-165.000000;750.000000
1608557114;0;;;;;;;;;;;;;;;;;;-0.039227;5.413271;-10.042010;1.374041;-0.718099;2.825670;-0.053145;0.606284;-1.148121;151.281372;0.329158;205.174866;0.000000;0.000000;0.000000;0.000000;-486.000000;-166.000000;747.000000
1608557114;1;;;;;;;;;;;;;;92331641;77723;463;77;-0.117680;5.413271;-9.885103;1.370514;-0.728312;2.811759;-0.030849;0.597732;-1.127657;151.282654;0.356066;205.453003;0.000000;0.000000;0.000000;0.000000;-485.000000;-169.000000;743.000000
1608557114;2;;;;;;;;;;;;;;;;;;-0.039227;5.530951;-9.885103;1.363461;-0.728312;2.794370;-0.021075;0.571159;-1.110247;151.231598;0.340301;205.737488;0.000000;0.000000;0.000000;0.000000;-483.000000;-169.000000;738.000000
1608557114;3;466843754;67423224;918;871;30;34;237;466;9;3;48313;800229732;1;92351010;77551;277;77;-0.117680;5.530951;-10.002784;1.359935;-0.741930;2.773503;-0.051007;0.564134;-1.088867;151.214447;0.365259;205.913162;0.000000;0.000000;0.000000;0.000000;-482.000000;-173.000000;732.000000
1608557114;4;;;;;;;;;;;;;;;;;;-0.196133;5.334818;-10.081236;1.352882;-0.745335;2.759592;-0.080634;0.552527;-1.064127;151.304306;0.427249;205.906189;0.000000;0.000000;0.000000;0.000000;-480.000000;-174.000000;728.000000
1608557114;5;;;;;;;;;;;;;;;;;;-0.235360;5.374045;-10.081236;1.338777;-0.762357;2.735247;-0.093157;0.572381;-1.019534;151.367798;0.502547;205.875595;0.000000;0.000000;0.000000;0.000000;-476.000000;-179.000000;721.000000
1608557114;6;;;;;;;;;;;;;;92369002;77391;89;77;-0.274586;5.452498;-9.845877;1.338777;-0.772571;2.717858;-0.086743;0.622777;-0.976162;151.333328;0.592051;205.963272;0.000000;0.000000;0.000000;0.000000;-476.000000;-182.000000;716.000000
1608557114;7;466844029;67423707;919;872;30;34;237;481;9;3;48314;229209;1;;;;;-0.196133;5.177911;-9.688971;1.328198;-0.789593;2.686558;-0.096822;0.633162;-0.947452;151.387939;0.635127;205.768433;0.000000;0.000000;0.000000;0.000000;-473.000000;-187.000000;707.000000
1608557114;8;;;;;;;;;;;;;;92384228;77255;-77;77;0.078453;5.295591;-9.688971;1.314092;-0.792998;2.669168;-0.078191;0.609338;-0.944703;151.383240;0.530906;205.557846;0.000000;0.000000;0.000000;0.000000;-469.000000;-188.000000;702.000000
1608557114;9;;;;;;;;;;;;;;;;;;0.235360;5.452498;-9.845877;1.317618;-0.816829;2.637868;-0.063225;0.577573;-0.956004;151.347229;0.358016;205.231735;0.000000;0.000000;0.000000;0.000000;-470.000000;-195.000000;693.000000
1608557114;10;;;;;;;;;;;;;;;;;;0.274586;5.570177;-9.806650;1.303513;-0.827043;2.617001;-0.046426;0.521984;-0.972497;151.252869;0.182746;204.981903;0.000000;0.000000;0.000000;0.000000;-466.000000;-198.000000;687.000000
1608557114;11;466844323;67424221;920;872;30;34;243;488;10;3;48314;200228686;1;92396545;77146;-208;77;0.353039;5.374045;-10.002784;1.299986;-0.840661;2.578745;-0.036346;0.503353;-0.969443;151.302887;-0.013611;204.398285;0.000000;0.000000;0.000000;0.000000;-465.000000;-202.000000;676.000000
1608557114;12;;;;;;;;;;;;;;;;;;0.313813;5.452498;-9.767424;1.299986;-0.840661;2.554400;0.007636;0.490830;-0.966389;151.255447;-0.172942;203.999374;0.000000;0.000000;0.000000;0.000000;-465.000000;-202.000000;669.000000
1608557114;13;;;;;;;;;;;;;;92405512;77066;-301;77;0.313813;5.570177;-9.649744;1.296460;-0.871301;2.523100;0.047037;0.473726;-0.972497;151.130402;-0.316978;203.629730;0.000000;0.000000;0.000000;0.000000;-464.000000;-211.000000;660.000000
1608557114;14;;;;;;;;;;;;;;;;;;0.392266;5.452498;-9.728197;1.282355;-0.884919;2.512667;0.073304;0.461203;-0.994183;151.090378;-0.486732;203.105103;0.000000;0.000000;0.000000;0.000000;-460.000000;-215.000000;657.000000
1608557114;15;466844626;67424731;921;873;30;35;247;492;10;3;48314;400228162;1;;;;;0.509946;5.413271;-10.081236;1.285881;-0.898537;2.474411;0.062919;0.441350;-1.022283;151.157928;-0.693230;202.308594;0.000000;0.000000;0.000000;0.000000;-461.000000;-219.000000;646.000000
1608557114;16;;;;;;;;;;;;;;92410267;77024;-350;77;0.431493;5.334818;-9.845877;1.285881;-0.905346;2.457022;0.038179;0.448375;-1.051604;151.197113;-0.844570;201.591141;0.000000;0.000000;0.000000;0.000000;-461.000000;-221.000000;641.000000
1608557114;17;;;;;;;;;;;;;;;;;;0.509946;5.021005;-9.728197;1.278828;-0.935987;2.425721;0.018937;0.462119;-1.063211;151.347458;-1.026810;200.567978;0.000000;0.000000;0.000000;0.000000;-459.000000;-230.000000;632.000000
1608557114;18;;;;;;;;;;;;;;92410485;77022;-357;77;0.392266;4.981778;-9.728197;1.282355;-0.939391;2.404855;-0.030849;0.490219;-1.064738;151.501038;-1.129677;199.583038;0.000000;0.000000;0.000000;0.000000;-460.000000;-231.000000;626.000000
1608557114;19;466844925;67425235;922;874;30;35;249;492;10;3;48314;600227639;1;;;;;0.509946;5.138685;-10.002784;1.278828;-0.963223;2.366598;-0.054367;0.488387;-1.071152;151.631882;-1.276348;198.540970;0.000000;0.000000;0.000000;0.000000;-459.000000;-238.000000;615.000000
1608557115;0;;;;;;;;;;;;;;;;;;0.470719;5.217138;-10.002784;1.271775;-0.980245;2.342254;-0.076358;0.516486;-1.060462;151.714188;-1.387639;197.570938;0.000000;0.000000;0.000000;0.000000;-457.000000;-243.000000;608.000000
1608557115;1;;;;;;;;;;;;;;92407002;77053;-326;77;0.353039;5.177911;-9.767424;1.261196;-0.993863;2.303998;-0.083383;0.548557;-1.035722;151.749878;-1.431786;196.666809;0.000000;0.000000;0.000000;0.000000;-454.000000;-247.000000;597.000000
1608557115;2;;;;;;;;;;;;;;;;;;0.509946;5.177911;-9.492838;1.268249;-1.007481;2.279653;-0.077274;0.559858;-1.025337;151.713852;-1.558613;195.851486;0.000000;0.000000;0.000000;0.000000;-456.000000;-251.000000;590.000000
1608557115;3;466845250;67425726;923;876;30;35;252;486;10;3;48314;800227115;1;92399230;77122;-262;77;0.706079;5.060232;-9.414384;1.261196;-1.031313;2.234442;-0.076969;0.539699;-1.011593;151.716675;-1.780709;194.867096;0.000000;0.000000;0.000000;0.000000;-454.000000;-258.000000;577.000000
1608557115;4;;;;;;;;;;;;;;;;;;0.666852;4.981778;-9.610517;1.268249;-1.041526;2.206619;-0.082772;0.540921;-0.998765;151.804947;-1.955153;193.747482;0.000000;0.000000;0.000000;0.000000;-456.000000;-261.000000;569.000000
1608557115;5;;;;;;;;;;;;;;;;;;0.745305;5.334818;-9.610517;1.271775;-1.068762;2.164885;-0.075136;0.523206;-0.979828;151.720993;-2.147537;192.836884;0.000000;0.000000;0.000000;0.000000;-457.000000;-269.000000;557.000000
1608557115;6;;;;;;;;;;;;;;92387715;77224;-167;77;0.549172;5.452498;-9.139798;1.261196;-1.082380;2.147496;-0.056200;0.499993;-0.956004;151.467010;-2.228175;192.256668;0.000000;0.000000;0.000000;0.000000;-454.000000;-273.000000;552.000000
1608557115;7;466845589;67426229;924;877;30;35;256;478;10;3;48315;226592;1;;;;;0.666852;5.530951;-9.257478;1.264723;-1.109616;2.102285;-0.001527;0.478002;-0.928820;151.234665;-2.359211;191.540802;0.000000;0.000000;0.000000;0.000000;-455.000000;-281.000000;539.000000
1608557115;8;;;;;;;;;;;;;;92369593;77386;-33;77;0.784532;5.530951;-9.022118;1.268249;-1.106212;2.088373;0.037263;0.460898;-0.902248;150.960205;-2.547275;190.975403;0.000000;0.000000;0.000000;0.000000;-456.000000;-280.000000;535.000000
1608557115;9;;;;;;;;;;;;;;;;;;0.706079;5.687857;-9.375158;1.268249;-1.133448;2.053595;0.080940;0.413556;-0.883616;150.739700;-2.660967;190.266235;0.000000;0.000000;0.000000;0.000000;-456.000000;-288.000000;525.000000
1608557115;10;;;;;;;;;;;;;;;;;;0.627626;5.648631;-9.571291;1.268249;-1.140257;2.043162;0.116064;0.394313;-0.859487;150.610992;-2.718092;189.470810;0.000000;0.000000;0.000000;0.000000;-456.000000;-290.000000;522.000000
1608557115;11;466845924;67426746;925;878;31;35;260;477;10;3;48315;200226068;1;92349656;77563;120;77;0.627626;5.374045;-9.257478;1.268249;-1.153875;2.018817;0.141110;0.353691;-0.834136;150.536346;-2.781842;188.587570;0.000000;0.000000;0.000000;0.000000;-456.000000;-294.000000;515.000000
1608557115;12;;;;;;;;;;;;;;;;;;0.470719;5.334818;-8.982892;1.268249;-1.160684;1.990995;0.154854;0.340252;-0.799317;150.412170;-2.761631;187.806946;0.000000;0.000000;0.000000;0.000000;-456.000000;-296.000000;507.000000
1608557115;13;;;;;;;;;;;;;;92326740;77767;284;77;0.666852;5.177911;-9.492838;1.275302;-1.170897;1.987517;0.153938;0.313374;-0.747393;150.509918;-2.838367;186.717957;0.000000;0.000000;0.000000;0.000000;-458.000000;-299.000000;506.000000
1608557115;14;;;;;;;;;;;;;;;;;;0.823759;5.413271;-9.924331;1.278828;-1.177706;1.973606;0.161879;0.251676;-0.705855;150.597900;-2.971301;185.693710;0.000000;0.000000;0.000000;0.000000;-459.000000;-301.000000;502.000000
1608557115;15;466846240;67427245;927;879;31;35;259;478;10;3;48315;400225544;1;;;;;0.862985;5.295591;-9.179025;1.278828;-1.187920;1.966650;0.179900;0.248317;-0.645379;150.539963;-3.139739;184.943298;0.000000;0.000000;0.000000;0.000000;-459.000000;-304.000000;500.000000
1608557115;16;;;;;;;;;;;;;;92303656;77972;451;77;0.156906;5.334818;-9.375158;1.282355;-1.184515;1.949261;0.128893;0.258091;-0.565356;150.521835;-2.909103;184.164078;0.000000;0.000000;0.000000;0.000000;-460.000000;-303.000000;495.000000
1608557115;17;;;;;;;;;;;;;;;;;;0.353039;5.413271;-8.825985;1.282355;-1.194729;1.945783;0.105985;0.278554;-0.481362;150.317444;-2.813482;183.742950;0.000000;0.000000;0.000000;0.000000;-460.000000;-306.000000;494.000000
1608557115;18;;;;;;;;;;;;;;92279596;78187;611;77;0.470719;5.334818;-9.806650;1.285881;-1.198133;1.942305;0.052840;0.263588;-0.412945;150.431091;-2.773577;182.854172;0.000000;0.000000;0.000000;0.000000;-461.000000;-307.000000;493.000000
1608557115;19;466846566;67427735;928;881;31;35;258;474;10;3;48315;600225021;1;;;;;0.509946;5.256365;-9.532064;1.275302;-1.204942;1.928394;-0.002749;0.214719;-0.372322;150.500580;-2.764438;182.055557;0.000000;0.000000;0.000000;0.000000;-458.000000;-309.000000;489.000000
1608557116;0;;;;;;;;;;;;;;;;;;0.470719;5.452498;-9.179025;1.285881;-1.208347;1.917960;-0.027489;0.196393;-0.313374;150.379425;-2.740448;181.604477;0.000000;0.000000;0.000000;0.000000;-461.000000;-310.000000;486.000000
1608557116;1;;;;;;;;;;;;;;92254296;78415;764;77;0.431493;5.256365;-9.139798;1.285881;-1.204942;1.911005;-0.063530;0.172875;-0.258396;150.351135;-2.700755;181.062607;0.000000;0.000000;0.000000;0.000000;-461.000000;-309.000000;484.000000
1608557116;2;;;;;;;;;;;;;;;;;;0.470719;5.452498;-9.179025;1.285881;-1.211751;1.904049;-0.069639;0.120035;-0.222660;150.244934;-2.683133;180.669312;0.000000;0.000000;0.000000;0.000000;-461.000000;-311.000000;482.000000
1608557116;3;466846883;67428180;929;882;31;35;252;468;10;3;48315;800224497;1;92232735;78611;886;77;0.666852;5.570177;-9.296705;1.292934;-1.225369;1.893616;-0.042455;0.043677;-0.172569;150.127640;-2.766922;180.290390;0.000000;0.000000;0.000000;0.000000;-463.000000;-315.000000;479.000000
1608557116;4;;;;;;;;;;;;;;;;;;0.784532;5.452498;-8.943665;1.289407;-1.221965;1.890138;-0.014661;-0.039401;-0.137139;149.978027;-2.918564;180.027130;0.000000;0.000000;0.000000;0.000000;-462.000000;-314.000000;478.000000
1608557116;5;;;;;;;;;;;;;;;;;;0.784532;5.295591;-8.198360;1.289407;-1.221965;1.890138;0.046426;-0.082467;-0.096211;149.694260;-3.086280;180.020935;0.000000;0.000000;0.000000;0.000000;-462.000000;-314.000000;478.000000
1608557116;6;;;;;;;;;;;;;;92209098;78825;993;77;0.470719;5.413271;-8.865212;1.282355;-1.228774;1.890138;0.070860;-0.132252;-0.053756;149.583939;-3.037121;179.755203;0.000000;0.000000;0.000000;0.000000;-460.000000;-316.000000;478.000000
1608557116;7;466847219;67428629;931;884;31;36;251;462;10;3;48316;223972;1;;;;;0.549172;5.334818;-9.022118;1.285881;-1.225369;1.886660;0.072998;-0.187841;-0.018937;149.565948;-3.033337;179.394012;0.000000;0.000000;0.000000;0.000000;-461.000000;-315.000000;477.000000
1608557116;8;;;;;;;;;;;;;;92188745;79009;1077;77;0.392266;5.491724;-9.414384;1.292934;-1.228774;1.890138;0.095295;-0.213192;0.043066;149.583725;-2.936127;179.000717;0.000000;0.000000;0.000000;0.000000;-463.000000;-316.000000;478.000000
1608557116;9;;;;;;;;;;;;;;;;;;0.431493;5.374045;-8.865212;1.296460;-1.221965;1.886660;0.087965;-0.189979;0.113010;149.502960;-2.880855;178.824677;0.000000;0.000000;0.000000;0.000000;-464.000000;-314.000000;477.000000
1608557116;10;;;;;;;;;;;;;;;;;;0.274586;5.217138;-8.904439;1.289407;-1.221965;1.904049;0.112094;-0.173486;0.193644;149.516052;-2.745178;178.553009;0.000000;0.000000;0.000000;0.000000;-462.000000;-314.000000;482.000000
1608557116;11;466847548;67429101;932;885;31;36;252;460;10;3;48316;200223448;1;92170342;79176;1135;77;0.274586;5.334818;-8.629853;1.299986;-1.218560;1.907527;0.110567;-0.174707;0.278249;149.392105;-2.625690;178.556763;0.000000;0.000000;0.000000;0.000000;-465.000000;-313.000000;483.000000
1608557116;12;;;;;;;;;;;;;;;;;;0.353039;5.374045;-9.688971;1.289407;-1.225369;1.914483;0.084910;-0.174707;0.340863;149.551392;-2.545627;178.101410;0.000000;0.000000;0.000000;0.000000;-462.000000;-315.000000;485.000000
1608557116;13;;;;;;;;;;;;;;92153796;79326;1169;77;0.353039;5.217138;-9.296705;1.285881;-1.208347;1.917960;0.067806;-0.165239;0.406531;149.666229;-2.480738;177.807419;0.000000;0.000000;0.000000;0.000000;-461.000000;-310.000000;486.000000
1608557116;14;;;;;;;;;;;;;;;;;;0.549172;4.864099;-9.218252;1.282355;-1.211751;1.928394;0.055589;-0.208610;0.457233;149.917740;-2.534273;177.327225;0.000000;0.000000;0.000000;0.000000;-460.000000;-311.000000;489.000000
1608557116;15;466847870;67429580;934;886;31;36;254;458;10;3;48316;400222924;1;;;;;0.549172;5.217138;-8.669079;1.292934;-1.201538;1.931872;0.031765;-0.233961;0.520152;149.821991;-2.591528;177.459442;0.000000;0.000000;0.000000;0.000000;-463.000000;-308.000000;490.000000
1608557116;16;;;;;;;;;;;;;;92141350;79439;1171;77;0.431493;5.217138;-9.100572;1.282355;-1.201538;1.945783;-0.017104;-0.243735;0.569326;149.857346;-2.567923;177.402710;0.000000;0.000000;0.000000;0.000000;-460.000000;-308.000000;494.000000
1608557116;17;;;;;;;;;;;;;;;;;;0.470719;5.334818;-9.375158;1.289407;-1.191324;1.949261;-0.032376;-0.263283;0.609949;149.907471;-2.561003;177.368011;0.000000;0.000000;0.000000;0.000000;-462.000000;-305.000000;495.000000
1608557116;18;;;;;;;;;;;;;;92132853;79516;1142;77;0.627626;5.295591;-9.649744;1.282355;-1.184515;1.963172;-0.037568;-0.298102;0.641714;150.041031;-2.631245;177.250198;0.000000;0.000000;0.000000;0.000000;-460.000000;-303.000000;499.000000
1608557116;19;466848194;67430051;935;888;31;36;254;458;10;3;48316;600222400;1;;;;;0.588399;5.334818;-8.669079;1.282355;-1.184515;1.966650;-0.012523;-0.329562;0.665232;149.876190;-2.698950;177.614044;0.000000;0.000000;0.000000;0.000000;-460.000000;-303.000000;500.000000
1608557117;0;;;;;;;;;;;;;;;;;;0.470719;5.374045;-9.061345;1.285881;-1.177706;1.980561;-0.003971;-0.369268;0.681726;149.821472;-2.684888;177.841675;0.000000;0.000000;0.000000;0.000000;-461.000000;-301.000000;504.000000
1608557117;1;;;;;;;;;;;;;;92132383;79520;1065;77;0.588399;5.138685;-9.649744;1.278828;-1.170897;1.990995;-0.012523;-0.421192;0.700357;150.035721;-2.724469;177.658722;0.000000;0.000000;0.000000;0.000000;-459.000000;-299.000000;507.000000
1608557117;2;;;;;;;;;;;;;;;;;;0.470719;5.374045;-9.453611;1.278828;-1.157279;2.008384;-0.014050;-0.453262;0.715323;150.070496;-2.699885;177.836517;0.000000;0.000000;0.000000;0.000000;-459.000000;-295.000000;512.000000
1608557117;3;466848501;67430528;936;889;31;36;254;462;10;3;48316;800221876;1;92132560;79519;961;77;0.431493;5.491724;-9.179025;1.275302;-1.150470;2.025773;0.003054;-0.445626;0.749532;149.974289;-2.660902;178.273880;0.000000;0.000000;0.000000;0.000000;-458.000000;-293.000000;517.000000
1608557117;4;;;;;;;;;;;;;;;;;;0.392266;5.530951;-9.296705;1.275302;-1.140257;2.043162;0.030543;-0.431576;0.789849;149.901871;-2.602487;178.719055;0.000000;0.000000;0.000000;0.000000;-458.000000;-290.000000;522.000000
1608557117;5;;;;;;;;;;;;;;;;;;0.549172;5.295591;-9.257478;1.278828;-1.133448;2.057073;0.039706;-0.434325;0.805426;149.934601;-2.637008;179.001053;0.000000;0.000000;0.000000;0.000000;-459.000000;-288.000000;526.000000
1608557117;6;;;;;;;;;;;;;;92133432;79511;850;77;0.549172;5.413271;-9.375158;1.268249;-1.119830;2.081418;0.051924;-0.434325;0.841772;149.940918;-2.663710;179.394165;0.000000;0.000000;0.000000;0.000000;-456.000000;-284.000000;533.000000
1608557117;7;466848812;67431010;938;890;31;36;254;466;10;3;48317;221353;1;;;;;0.235360;5.334818;-9.257478;1.257670;-1.113021;2.095329;0.064446;-0.450513;0.860098;149.951477;-2.523530;179.812347;0.000000;0.000000;0.000000;0.000000;-453.000000;-282.000000;537.000000
1608557117;8;;;;;;;;;;;;;;92135644;79491;736;77;0.509946;5.217138;-9.375158;1.271775;-1.095998;2.123152;0.065668;-0.463036;0.865901;150.046814;-2.543296;180.140182;0.000000;0.000000;0.000000;0.000000;-457.000000;-277.000000;545.000000
1608557117;9;;;;;;;;;;;;;;;;;;0.470719;5.217138;-9.061345;1.268249;-1.082380;2.150974;0.056200;-0.473726;0.870177;150.048996;-2.546735;180.687881;0.000000;0.000000;0.000000;0.000000;-456.000000;-273.000000;553.000000
1608557117;10;;;;;;;;;;;;;;;;;;0.588399;5.413271;-9.453611;1.268249;-1.068762;2.171841;0.049786;-0.473420;0.874148;150.064499;-2.601229;181.239166;0.000000;0.000000;0.000000;0.000000;-456.000000;-269.000000;559.000000
1608557117;11;466849122;67431496;939;892;31;36;254;470;10;3;48317;200220829;1;92141608;79437;612;77;0.470719;5.334818;-9.845877;1.268249;-1.055144;2.199663;0.038790;-0.485027;0.889114;150.213028;-2.581807;181.616837;0.000000;0.000000;0.000000;0.000000;-456.000000;-265.000000;567.000000
1608557117;12;;;;;;;;;;;;;;;;;;0.823759;5.334818;-9.845877;1.271775;-1.044931;2.213575;0.015882;-0.504575;0.877813;150.346710;-2.744344;181.991074;0.000000;0.000000;0.000000;0.000000;-457.000000;-262.000000;571.000000
1608557117;13;;;;;;;;;;;;;;92148677;79373;484;77;0.588399;5.374045;-10.081236;1.282355;-1.024504;2.248353;-0.001222;-0.513738;0.873537;150.505966;-2.764749;182.414673;0.000000;0.000000;0.000000;0.000000;-460.000000;-256.000000;581.000000
1608557117;14;;;;;;;;;;;;;;;;;;0.392266;5.374045;-9.649744;1.268249;-1.017695;2.262264;-0.004581;-0.507324;0.864985;150.543991;-2.691672;183.060608;0.000000;0.000000;0.000000;0.000000;-456.000000;-254.000000;585.000000
1608557117;15;466849431;67431985;940;893;31;36;254;473;10;3;48317;400220305;1;;;;;0.431493;5.295591;-9.610517;1.278828;-1.007481;2.290087;-0.006109;-0.504575;0.864069;150.604034;-2.647695;183.674515;0.000000;0.000000;0.000000;0.000000;-459.000000;-251.000000;593.000000
1608557117;16;;;;;;;;;;;;;;92155996;79306;362;77;0.392266;5.452498;-9.806650;1.275302;-1.004077;2.303998;-0.007025;-0.509462;0.849408;150.636230;-2.583148;184.314835;0.000000;0.000000;0.000000;0.000000;-458.000000;-250.000000;597.000000
1608557117;17;;;;;;;;;;;;;;;;;;0.353039;5.413271;-9.728197;1.289407;-0.976841;2.328342;-0.018021;-0.508545;0.848492;150.663239;-2.506465;185.034012;0.000000;0.000000;0.000000;0.000000;-462.000000;-242.000000;604.000000
1608557117;18;;;;;;;;;;;;;;92164320;79231;247;77;0.431493;5.334818;-9.649744;1.282355;-0.980245;2.345731;-0.006414;-0.522595;0.823446;150.703339;-2.479922;185.665680;0.000000;0.000000;0.000000;0.000000;-460.000000;-243.000000;609.000000
1608557117;19;466849742;67432481;942;894;32;36;255;476;10;3;48317;600219782;1;;;;;0.549172;5.295591;-9.296705;1.289407;-0.956414;2.383987;-0.003054;-0.514043;0.812756;150.666351;-2.525763;186.481339;0.000000;0.000000;0.000000;0.000000;-462.000000;-236.000000;620.000000
1608557118;0;;;;;;;;;;;;;;;;;;0.392266;5.413271;-9.453611;1.296460;-0.959818;2.394421;0.004276;-0.503047;0.810313;150.620117;-2.479410;187.275635;0.000000;0.000000;0.000000;0.000000;-464.000000;-237.000000;623.000000
1608557118;1;;;;;;;;;;;;;;92171249;79168;143;77;0.627626;5.295591;-9.571291;1.296460;-0.946200;2.415288;0.028405;-0.511600;0.801455;150.662628;-2.559856;187.880234;0.000000;0.000000;0.000000;0.000000;-464.000000;-233.000000;629.000000
1608557118;2;;;;;;;;;;;;;;;;;;0.353039;5.413271;-9.218252;1.299986;-0.932582;2.432677;0.068722;-0.506102;0.785573;150.554092;-2.493020;188.809296;0.000000;0.000000;0.000000;0.000000;-465.000000;-229.000000;634.000000
1608557118;3;466850057;67432992;943;896;32;36;257;480;10;3;48317;800219258;1;92177469;79112;57;77;0.470719;5.491724;-9.139798;1.307039;-0.925773;2.457022;0.086743;-0.507018;0.781602;150.398712;-2.496492;189.767090;0.000000;0.000000;0.000000;0.000000;-467.000000;-227.000000;641.000000
1608557118;4;;;;;;;;;;;;;;;;;;0.274586;5.256365;-9.492838;1.303513;-0.918964;2.481366;0.104153;-0.498466;0.790459;150.461441;-2.391800;190.411362;0.000000;0.000000;0.000000;0.000000;-466.000000;-225.000000;648.000000
1608557118;5;;;;;;;;;;;;;;;;;;0.000000;5.334818;-9.453611;1.307039;-0.908751;2.505711;0.107818;-0.487165;0.806342;150.471634;-2.152620;191.230865;0.000000;0.000000;0.000000;0.000000;-467.000000;-222.000000;655.000000
1608557118;6;;;;;;;;;;;;;;92183738;79055;-16;77;0.039227;5.295591;-9.610517;1.314092;-0.891728;2.512667;0.109345;-0.494801;0.810007;150.538910;-1.957840;191.914001;0.000000;0.000000;0.000000;0.000000;-469.000000;-217.000000;657.000000
1608557118;7;466850386;67433498;945;897;32;36;258;479;10;3;48318;218734;1;;;;;0.000000;5.021005;-9.610517;1.321145;-0.881515;2.537011;0.099876;-0.495106;0.817338;150.726562;-1.762056;192.381119;0.000000;0.000000;0.000000;0.000000;-471.000000;-214.000000;664.000000
1608557118;8;;;;;;;;;;;;;;92188700;79010;-73;77;0.078453;5.060232;-9.492838;1.317618;-0.867897;2.554400;0.079107;-0.484111;0.831082;150.847900;-1.627636;192.948013;0.000000;0.000000;0.000000;0.000000;-470.000000;-210.000000;669.000000
1608557118;9;;;;;;;;;;;;;;;;;;-0.078453;5.295591;-9.806650;1.324671;-0.857683;2.575267;0.057727;-0.473420;0.855517;150.926224;-1.424541;193.628677;0.000000;0.000000;0.000000;0.000000;-472.000000;-207.000000;675.000000
1608557118;10;;;;;;;;;;;;;;;;;;-0.078453;5.060232;-9.532064;1.324671;-0.857683;2.592656;0.059865;-0.466396;0.865596;151.037384;-1.240436;194.200058;0.000000;0.000000;0.000000;0.000000;-472.000000;-207.000000;680.000000
1608557118;11;466850697;67434005;946;899;32;36;258;485;10;3;48318;200218209;1;92192255;78978;-112;77;-0.156906;5.256365;-9.375158;1.342303;-0.840661;2.613523;0.074526;-0.449291;0.896139;151.005859;-1.032755;195.049530;0.000000;0.000000;0.000000;0.000000;-477.000000;-202.000000;686.000000
1608557118;12;;;;;;;;;;;;;;;;;;-0.117680;5.256365;-9.453611;1.342303;-0.837256;2.623957;0.100182;-0.446848;0.914465;150.997803;-0.867147;195.792953;0.000000;0.000000;0.000000;0.000000;-477.000000;-201.000000;689.000000
1608557118;13;;;;;;;;;;;;;;92195472;78948;-139;77;-0.196133;5.295591;-9.453611;1.349356;-0.823638;2.651779;0.110872;-0.449902;0.941343;150.972427;-0.676735;196.608490;0.000000;0.000000;0.000000;0.000000;-479.000000;-197.000000;697.000000
1608557118;14;;;;;;;;;;;;;;;;;;-0.196133;5.295591;-9.571291;1.352882;-0.820234;2.655257;0.098349;-0.491746;0.941649;150.979721;-0.506339;197.300629;0.000000;0.000000;0.000000;0.000000;-480.000000;-196.000000;698.000000
1608557118;15;466850980;67434526;948;901;32;36;257;497;10;3;48318;400217685;1;;;;;0.078453;5.334818;-9.610517;1.356409;-0.810020;2.672646;0.123089;-0.557720;0.941038;150.978287;-0.496599;197.887848;0.000000;0.000000;0.000000;0.000000;-481.000000;-193.000000;703.000000
1608557118;16;;;;;;;;;;;;;;92193710;78964;-140;77;0.000000;5.334818;-9.963557;1.356409;-0.799807;2.690035;0.112399;-0.594066;0.953560;151.063858;-0.446939;198.359283;0.000000;0.000000;0.000000;0.000000;-481.000000;-190.000000;708.000000
1608557118;17;;;;;;;;;;;;;;;;;;-0.039227;5.256365;-9.767424;1.366988;-0.789593;2.703947;0.098960;-0.626748;0.953866;151.128784;-0.381982;198.858871;0.000000;0.000000;0.000000;0.000000;-484.000000;-187.000000;712.000000
1608557118;18;;;;;;;;;;;;;;92184961;79044;-100;77;-0.039227;5.256365;-9.728197;1.366988;-0.786189;2.721336;0.061697;-0.634078;0.981355;151.177582;-0.323458;199.364914;0.000000;0.000000;0.000000;0.000000;-484.000000;-186.000000;717.000000
1608557118;19;466851265;67435050;950;902;32;36;256;505;10;3;48318;600217160;1;;;;;-0.235360;5.413271;-10.120463;1.384620;-0.786189;2.735247;0.024740;-0.646906;0.991129;151.245682;-0.173635;199.849625;0.000000;0.000000;0.000000;0.000000;-489.000000;-186.000000;721.000000
1608557119;0;;;;;;;;;;;;;;;;;;-0.078453;5.295591;-10.002784;1.381093;-0.779380;2.738725;0.007025;-0.666454;0.991129;151.331406;-0.116556;200.216431;0.000000;0.000000;0.000000;0.000000;-488.000000;-184.000000;722.000000
1608557119;1;;;;;;;;;;;;;;92170769;79172;-16;77;-0.313813;5.177911;-9.845877;1.388146;-0.769166;2.745680;0.000611;-0.668592;0.985631;151.424301;0.056685;200.647293;0.000000;0.000000;0.000000;0.000000;-490.000000;-181.000000;724.000000
1608557119;2;;;;;;;;;;;;;;;;;;-0.196133;5.334818;-9.728197;1.395199;-0.765762;2.749158;-0.004276;-0.653015;1.002124;151.407898;0.152292;201.162003;0.000000;0.000000;0.000000;0.000000;-492.000000;-180.000000;725.000000
1608557119;3;466851550;67435572;951;904;32;36;254;511;10;3;48318;800216635;1;92154178;79323;98;77;-0.470719;5.413271;-9.688971;1.409304;-0.769166;2.745680;-0.020159;-0.615141;1.040303;151.347885;0.379922;201.781403;0.000000;0.000000;0.000000;0.000000;-496.000000;-181.000000;724.000000
1608557119;4;;;;;;;;;;;;;;;;;;-0.549172;5.452498;-9.767424;1.412831;-0.772571;2.752636;-0.049786;-0.554666;1.053131;151.295944;0.622989;202.365662;0.000000;0.000000;0.000000;0.000000;-497.000000;-182.000000;726.000000
1608557119;5;;;;;;;;;;;;;;;;;;-0.353039;5.413271;-9.806650;1.412831;-0.779380;2.742203;-0.041233;-0.536645;1.053437;151.276489;0.741211;202.717926;0.000000;0.000000;0.000000;0.000000;-497.000000;-184.000000;723.000000
1608557119;6;;;;;;;;;;;;;;92126082;79577;263;77;-0.117680;5.374045;-9.492838;1.419884;-0.789593;2.749158;0.003054;-0.557720;1.026864;151.197357;0.728898;203.010712;0.000000;0.000000;0.000000;0.000000;-499.000000;-187.000000;725.000000
1608557119;7;466851843;67436095;953;906;32;36;255;514;10;3;48319;216111;1;;;;;0.000000;5.256365;-9.335931;1.426936;-0.789593;2.738725;0.017104;-0.561385;1.005179;151.139572;0.656008;203.177292;0.000000;0.000000;0.000000;0.000000;-501.000000;-187.000000;722.000000
1608557119;8;;;;;;;;;;;;;;92094007;79868;466;77;-0.196133;5.452498;-9.845877;1.441042;-0.796402;2.724813;0.039706;-0.534812;0.984104;151.127930;0.690244;203.271042;0.000000;0.000000;0.000000;0.000000;-505.000000;-189.000000;718.000000
1608557119;9;;;;;;;;;;;;;;;;;;-0.117680;5.374045;-9.335931;1.433989;-0.796402;2.721336;0.056505;-0.513432;0.966389;151.022552;0.683809;203.486710;0.000000;0.000000;0.000000;0.000000;-503.000000;-189.000000;717.000000
1608557119;10;;;;;;;;;;;;;;;;;;-0.196133;5.177911;-9.179025;1.444568;-0.803211;2.710902;0.076969;-0.530842;0.912633;150.977570;0.722047;203.579514;0.000000;0.000000;0.000000;0.000000;-506.000000;-191.000000;714.000000
1608557119;11;466852156;67436612;955;908;33;36;256;510;10;3;48319;200215586;1;92057846;80196;688;77;-0.078453;5.217138;-8.904439;1.448095;-0.806616;2.710902;0.089797;-0.567799;0.842383;150.843201;0.693397;203.751068;0.000000;0.000000;0.000000;0.000000;-507.000000;-192.000000;714.000000
1608557119;12;;;;;;;;;;;;;;;;;;-0.078453;5.217138;-9.218252;1.455148;-0.810020;2.696991;0.070249;-0.575130;0.794430;150.808090;0.666494;203.724564;0.000000;0.000000;0.000000;0.000000;-509.000000;-193.000000;710.000000
1608557119;13;;;;;;;;;;;;;;;;;;0.000000;5.334818;-9.492838;1.458674;-0.813425;2.690035;0.068722;-0.578184;0.735176;150.793762;0.599845;203.617447;0.000000;0.000000;0.000000;0.000000;-510.000000;-194.000000;708.000000
1608557119;14;;;;;;;;;;;;;;92017613;80561;923;77;-0.156906;5.217138;-9.257478;1.458674;-0.820234;2.683080;0.072998;-0.552833;0.681115;150.774017;0.624456;203.558395;0.000000;0.000000;0.000000;0.000000;-510.000000;-196.000000;706.000000
1608557119;15;466852496;67437134;957;910;33;36;261;503;10;3;48319;400215061;1;;;;;-0.156906;5.177911;-9.218252;1.469253;-0.823638;2.669168;0.072388;-0.516486;0.631024;150.764328;0.647033;203.443436;0.000000;0.000000;0.000000;0.000000;-513.000000;-197.000000;702.000000
1608557119;16;;;;;;;;;;;;;;91980290;80899;1154;77;-0.078453;5.217138;-9.100572;1.472779;-0.830447;2.662213;0.076664;-0.497550;0.577268;150.705444;0.625180;203.355804;0.000000;0.000000;0.000000;0.000000;-514.000000;-199.000000;700.000000
1608557119;17;;;;;;;;;;;;;;;;;;-0.117680;5.295591;-8.943665;1.476306;-0.830447;2.651779;0.074831;-0.443183;0.516792;150.571915;0.627530;203.396576;0.000000;0.000000;0.000000;0.000000;-515.000000;-199.000000;697.000000
1608557119;18;;;;;;;;;;;;;;;;;;-0.117680;5.334818;-8.669079;1.472779;-0.840661;2.641346;0.073304;-0.391259;0.455705;150.353989;0.631014;203.544327;0.000000;0.000000;0.000000;0.000000;-514.000000;-202.000000;694.000000
1608557119;19;466852838;67437653;959;912;33;36;264;496;10;3;48319;600214537;1;91947772;81194;1342;77;-0.117680;5.334818;-8.119907;1.479832;-0.837256;2.630912;0.085827;-0.349109;0.403782;149.988098;0.637308;203.912888;0.000000;0.000000;0.000000;0.000000;-516.000000;-201.000000;691.000000
1608557120;0;;;;;;;;;;;;;;;;;;-0.353039;4.667966;-8.708306;1.483359;-0.847470;2.627434;0.076053;-0.249538;0.360410;150.170013;0.778213;203.485474;0.000000;0.000000;0.000000;0.000000;-517.000000;-204.000000;690.000000
1608557120;1;;;;;;;;;;;;;;91919095;81454;1480;77;-0.313813;5.021005;-8.355266;1.479832;-0.840661;2.617001;0.082467;-0.162185;0.313679;150.052689;0.884780;203.561722;0.000000;0.000000;0.000000;0.000000;-516.000000;-202.000000;687.000000
1608557120;2;;;;;;;;;;;;;;;;;;-0.392266;5.138685;-8.198360;1.490411;-0.854279;2.617001;0.085827;-0.094379;0.251982;149.839508;1.028460;203.780273;0.000000;0.000000;0.000000;0.000000;-519.000000;-206.000000;687.000000
1608557120;3;466853188;67438174;961;913;33;36;266;487;10;3;48319;800214014;1;;;;;-0.156906;5.138685;-8.276813;1.483359;-0.854279;2.610045;0.091935;-0.085216;0.168904;149.672150;1.017886;203.834396;0.000000;0.000000;0.000000;0.000000;-517.000000;-206.000000;685.000000
1608557120;4;;;;;;;;;;;;;;91892411;81695;1576;77;-0.039227;4.746419;-8.590626;1.486885;-0.850874;2.606568;0.092851;-0.040012;0.102320;149.812836;0.938997;203.377029;0.000000;0.000000;0.000000;0.000000;-518.000000;-205.000000;684.000000
1608557120;5;;;;;;;;;;;;;;;;;;-0.117680;4.942552;-8.394493;1.483359;-0.854279;2.613523;0.079107;-0.001527;0.024129;149.782669;0.914309;203.251907;0.000000;0.000000;0.000000;0.000000;-517.000000;-206.000000;686.000000
1608557120;6;;;;;;;;;;;;;;91869038;81907;1628;77;0.078453;5.099458;-8.590626;1.472779;-0.850874;2.610045;0.056810;0.019548;-0.058948;149.735046;0.777884;203.117142;0.000000;0.000000;0.000000;0.000000;-514.000000;-205.000000;685.000000
1608557120;7;466853528;67438690;962;915;33;36;268;480;9;3;48320;213491;1;;;;;0.078453;5.177911;-8.472946;1.476306;-0.850874;2.606568;0.052534;0.025045;-0.145386;149.618591;0.654828;203.097565;0.000000;0.000000;0.000000;0.000000;-515.000000;-205.000000;684.000000
1608557120;8;;;;;;;;;;;;;;;;;;0.078453;4.903325;-8.119907;1.486885;-0.837256;2.613523;0.059254;0.013134;-0.252287;149.544113;0.541958;203.067780;0.000000;0.000000;0.000000;0.000000;-518.000000;-201.000000;686.000000
1608557120;9;;;;;;;;;;;;;;91849990;82080;1642;77;0.156906;4.903325;-8.237586;1.483359;-0.844065;2.620479;0.064446;0.033292;-0.351247;149.513443;0.393992;202.954727;0.000000;0.000000;0.000000;0.000000;-517.000000;-203.000000;688.000000
1608557120;10;;;;;;;;;;;;;;;;;;0.039227;4.628739;-7.923773;1.486885;-0.844065;2.630912;0.056505;0.052534;-0.424551;149.532944;0.330101;202.835617;0.000000;0.000000;0.000000;0.000000;-518.000000;-203.000000;691.000000
1608557120;11;466853874;67439212;963;916;33;36;270;475;9;3;48320;200212968;1;91834755;82218;1616;77;0.078453;4.667966;-8.276813;1.486885;-0.830447;2.630912;0.043066;0.073915;-0.503353;149.637451;0.249788;202.618149;0.000000;0.000000;0.000000;0.000000;-518.000000;-199.000000;691.000000
1608557120;12;;;;;;;;;;;;;;;;;;-0.078453;4.511059;-8.080680;1.483359;-0.830447;2.637868;0.025045;0.135307;-0.560163;149.756470;0.273379;202.456741;0.000000;0.000000;0.000000;0.000000;-517.000000;-199.000000;693.000000
1608557120;13;;;;;;;;;;;;;;;;;;-0.117680;4.746419;-7.884547;1.483359;-0.827043;2.648302;0.025962;0.197309;-0.610560;149.676086;0.319302;202.651413;0.000000;0.000000;0.000000;0.000000;-517.000000;-198.000000;696.000000
1608557120;14;;;;;;;;;;;;;;91818809;82363;1571;77;-0.235360;4.785646;-7.649187;1.476306;-0.810020;2.669168;0.034819;0.277638;-0.653320;149.505310;0.436793;203.127594;0.000000;0.000000;0.000000;0.000000;-515.000000;-193.000000;702.000000
1608557120;15;466854229;67439737;965;918;33;36;273;472;9;3;48320;400212445;1;;;;;-0.353039;4.864099;-8.198360;1.479832;-0.806616;2.672646;0.033598;0.349415;-0.683558;149.486725;0.605209;203.407013;0.000000;0.000000;0.000000;0.000000;-516.000000;-192.000000;703.000000
1608557120;16;;;;;;;;;;;;;;91797916;82552;1541;77;-0.235360;4.628739;-8.355266;1.483359;-0.792998;2.690035;0.054978;0.380569;-0.730900;149.639465;0.685839;203.397385;0.000000;0.000000;0.000000;0.000000;-517.000000;-188.000000;708.000000
1608557120;17;;;;;;;;;;;;;;;;;;-0.353039;4.746419;-8.041454;1.479832;-0.792998;2.703947;0.080940;0.414167;-0.776715;149.620438;0.833775;203.726578;0.000000;0.000000;0.000000;0.000000;-516.000000;-188.000000;712.000000
1608557120;18;466854584;67440263;966;919;33;36;276;468;9;3;48320;600211921;1;;;;;-0.235360;4.746419;-7.845320;1.469253;-0.786189;2.724813;0.127060;0.445321;-0.820086;149.541016;0.897432;204.135376;0.000000;0.000000;0.000000;0.000000;-513.000000;-186.000000;718.000000
1608557120;19;;;;;;;;;;;;;;91779854;82716;1517;77;-0.353039;4.942552;-7.845320;1.479832;-0.775975;2.738725;0.149357;0.481362;-0.851851;149.365829;1.025733;204.751511;0.000000;0.000000;0.000000;0.000000;-516.000000;-183.000000;722.000000
1608557121;0;;;;;;;;;;;;;;;;;;-0.156906;4.785646;-8.747532;1.465727;-0.758953;2.759592;0.147218;0.508851;-0.891252;149.561020;1.013314;204.762085;0.000000;0.000000;0.000000;0.000000;-512.000000;-178.000000;728.000000
1608557121;1;;;;;;;;;;;;;;91759997;82896;1500;77;-0.353039;4.511059;-8.433719;1.455148;-0.755548;2.770025;0.179289;0.543059;-0.906829;149.790771;1.123376;204.821716;0.000000;0.000000;0.000000;0.000000;-509.000000;-177.000000;731.000000
1608557121;2;;;;;;;;;;;;;;;;;;-0.313813;4.550286;-8.119907;1.448095;-0.738526;2.794370;0.182038;0.564439;-0.945008;149.885132;1.204135;205.147491;0.000000;0.000000;0.000000;0.000000;-507.000000;-172.000000;738.000000
1608557121;3;466854948;67440796;967;920;33;36;279;465;9;3;48320;800211398;1;;;;;-0.274586;4.471833;-8.316040;1.444568;-0.738526;2.804803;0.168293;0.564134;-0.966083;150.069778;1.250297;205.278900;0.000000;0.000000;0.000000;0.000000;-506.000000;-172.000000;741.000000
1608557121;4;;;;;;;;;;;;;;91745695;83025;1471;77;-0.353039;4.471833;-8.041454;1.441042;-0.714694;2.829148;0.175318;0.540921;-1.007317;150.154984;1.344996;205.690689;0.000000;0.000000;0.000000;0.000000;-505.000000;-165.000000;748.000000
1608557121;5;;;;;;;;;;;;;;;;;;-0.156906;4.471833;-8.708306;1.433989;-0.711290;2.836103;0.157909;0.502131;-1.033584;150.421387;1.302324;205.673920;0.000000;0.000000;0.000000;0.000000;-503.000000;-164.000000;750.000000
1608557121;6;466855320;67441335;969;921;33;36;283;462;9;3;48321;210875;1;91744182;83039;1383;77;-0.117680;4.393379;-8.551399;1.426936;-0.704481;2.850015;0.143859;0.488998;-1.054048;150.660034;1.242221;205.696289;0.000000;0.000000;0.000000;0.000000;-501.000000;-162.000000;754.000000
1608557121;7;;;;;;;;;;;;;;;;;;-0.274586;4.314926;-8.355266;1.416357;-0.694267;2.856970;0.124922;0.504575;-1.041220;150.862717;1.285255;205.878311;0.000000;0.000000;0.000000;0.000000;-498.000000;-159.000000;756.000000
1608557121;8;;;;;;;;;;;;;;;;;;-0.313813;4.275700;-8.433719;1.419884;-0.690863;2.856970;0.108429;0.496022;-1.035111;151.088058;1.346812;205.993774;0.000000;0.000000;0.000000;0.000000;-499.000000;-158.000000;756.000000
1608557121;9;;;;;;;;;;;;;;91748990;82996;1237;77;-0.274586;4.471833;-8.472946;1.405778;-0.677245;2.860448;0.125533;0.453567;-1.039387;151.196854;1.376300;206.302582;0.000000;0.000000;0.000000;0.000000;-495.000000;-154.000000;757.000000
1608557121;10;466855688;67441884;970;923;33;36;287;461;9;3;48321;200210351;1;;;;;-0.117680;4.471833;-8.198360;1.405778;-0.684054;2.867404;0.130420;0.420886;-1.039998;151.216141;1.310866;206.614487;0.000000;0.000000;0.000000;0.000000;-495.000000;-156.000000;759.000000
1608557121;11;;;;;;;;;;;;;;91763868;82861;1030;77;-0.353039;4.354153;-8.316040;1.405778;-0.677245;2.867404;0.090408;0.446848;-1.001819;151.330948;1.395165;206.889557;0.000000;0.000000;0.000000;0.000000;-495.000000;-154.000000;759.000000
1608557121;12;;;;;;;;;;;;;;;;;;-0.784532;4.079566;-8.355266;1.395199;-0.677245;2.860448;0.055283;0.489914;-0.937067;151.595413;1.737947;207.136597;0.000000;0.000000;0.000000;0.000000;-492.000000;-154.000000;757.000000
1608557121;13;;;;;;;;;;;;;;;;;;-0.549172;4.040340;-8.002227;1.381093;-0.680649;2.856970;0.012828;0.496633;-0.890031;151.756958;1.914718;207.369308;0.000000;0.000000;0.000000;0.000000;-488.000000;-155.000000;756.000000
1608557121;14;466856076;67442441;971;924;33;36;292;460;9;3;48321;400209827;1;91784642;82672;777;77;-0.353039;4.158020;-8.316040;1.381093;-0.677245;2.856970;-0.007636;0.513432;-0.845132;151.924774;1.940699;207.417542;0.000000;0.000000;0.000000;0.000000;-488.000000;-154.000000;756.000000
1608557121;15;;;;;;;;;;;;;;;;;;-0.470719;4.275700;-8.119907;1.370514;-0.687458;2.850015;0.022297;0.536950;-0.794736;151.955322;2.040267;207.722763;0.000000;0.000000;0.000000;0.000000;-485.000000;-157.000000;754.000000
1608557121;16;;;;;;;;;;;;;;91807368;82466;509;77;-0.392266;4.432606;-7.884547;1.370514;-0.690863;2.850015;0.053145;0.544281;-0.732427;151.825378;2.084563;208.200714;0.000000;0.000000;0.000000;0.000000;-485.000000;-158.000000;754.000000
1608557121;17;;;;;;;;;;;;;;;;;;-0.313813;4.471833;-8.080680;1.356409;-0.690863;2.818714;0.058032;0.541227;-0.683864;151.746841;2.070717;208.490494;0.000000;0.000000;0.000000;0.000000;-481.000000;-158.000000;745.000000
1608557121;18;;;;;;;;;;;;;;;;;;-0.353039;4.314926;-8.159133;1.349356;-0.694267;2.822192;0.053451;0.546419;-0.632245;151.784973;2.082694;208.604492;0.000000;0.000000;0.000000;0.000000;-479.000000;-159.000000;746.000000
1608557121;19;466856423;67443020;973;925;33;36;293;474;9;3;48321;600209303;1;91828970;82271;248;77;-0.156906;4.511059;-8.590626;1.342303;-0.701076;2.801325;0.044288;0.510989;-0.599564;151.836029;1.967069;208.517014;0.000000;0.000000;0.000000;0.000000;-477.000000;-161.000000;740.000000
1608557122;0;;;;;;;;;;;;;;;;;;-0.078453;4.471833;-8.472946;1.338777;-0.711290;2.794370;0.043677;0.465174;-0.596815;151.870026;1.817279;208.381958;0.000000;0.000000;0.000000;0.000000;-476.000000;-164.000000;738.000000
1608557122;1;;;;;;;;;;;;;;91849853;82081;11;77;0.000000;4.550286;-8.276813;1.335250;-0.714694;2.773503;0.062003;0.413556;-0.585209;151.802994;1.635551;208.343445;0.000000;0.000000;0.000000;0.000000;-475.000000;-165.000000;732.000000
1608557122;2;466856766;67443598;974;927;33;36;293;479;9;3;48321;800208778;1;;;;;-0.039227;4.628739;-8.316040;1.328198;-0.724908;2.770025;0.081856;0.368046;-0.564134;151.712662;1.495611;208.355194;0.000000;0.000000;0.000000;0.000000;-473.000000;-168.000000;731.000000
1608557122;3;;;;;;;;;;;;;;;;;;-0.117680;4.785646;-8.316040;1.324671;-0.721503;2.749158;0.095906;0.328951;-0.554971;151.549484;1.416320;208.521515;0.000000;0.000000;0.000000;0.000000;-472.000000;-167.000000;725.000000
1608557122;4;;;;;;;;;;;;;;91869539;81903;-193;77;-0.039227;4.589512;-8.355266;1.324671;-0.724908;2.742203;0.115454;0.280693;-0.546419;151.516571;1.298264;208.423401;0.000000;0.000000;0.000000;0.000000;-472.000000;-168.000000;723.000000
1608557122;5;;;;;;;;;;;;;;;;;;0.196133;4.628739;-7.963000;1.310566;-0.731717;2.728291;0.135917;0.219606;-0.547030;151.348068;1.046449;208.416656;0.000000;0.000000;0.000000;0.000000;-468.000000;-170.000000;719.000000
1608557122;6;;;;;;;;;;;;;;91885267;81760;-354;77;0.117680;4.471833;-7.845320;1.310566;-0.735121;2.724813;0.151800;0.211054;-0.535729;151.244965;0.867142;208.358292;0.000000;0.000000;0.000000;0.000000;-468.000000;-171.000000;718.000000
1608557122;7;466857119;67444179;975;928;33;36;293;478;9;3;48322;208254;1;;;;;-0.117680;4.628739;-8.080680;1.310566;-0.738526;2.714380;0.147829;0.214108;-0.517097;151.139999;0.852827;208.425903;0.000000;0.000000;0.000000;0.000000;-468.000000;-172.000000;715.000000
1608557122;8;;;;;;;;;;;;;;;;;;-0.039227;4.393379;-8.119907;1.307039;-0.748739;2.707424;0.143859;0.218384;-0.490830;151.184402;0.791889;208.176361;0.000000;0.000000;0.000000;0.000000;-467.000000;-175.000000;713.000000
1608557122;9;;;;;;;;;;;;;;91898126;81644;-469;77;-0.117680;4.354153;-7.806094;1.307039;-0.745335;2.693513;0.129503;0.219301;-0.460287;151.150742;0.788130;208.106750;0.000000;0.000000;0.000000;0.000000;-467.000000;-174.000000;709.000000
1608557122;10;;;;;;;;;;;;;;;;;;-0.156906;4.314926;-8.316040;1.299986;-0.752144;2.696991;0.114843;0.224188;-0.445626;151.293350;0.805265;207.757660;0.000000;0.000000;0.000000;0.000000;-465.000000;-176.000000;710.000000
1608557122;11;466857480;67444756;976;929;33;36;296;477;9;3;48322;200207730;1;91906517;81568;-537;77;0.196133;4.707192;-8.551399;1.292934;-0.758953;2.683080;0.074220;0.231823;-0.417526;151.280930;0.609631;207.484497;0.000000;0.000000;0.000000;0.000000;-463.000000;-178.000000;706.000000
1608557122;12;;;;;;;;;;;;;;;;;;0.039227;4.628739;-8.355266;1.299986;-0.748739;2.672646;0.025962;0.257785;-0.400422;151.254242;0.525138;207.338715;0.000000;0.000000;0.000000;0.000000;-465.000000;-175.000000;703.000000
1608557122;13;;;;;;;;;;;;;;;;;;0.156906;4.354153;-8.747532;1.289407;-0.758953;2.655257;-0.004581;0.263588;-0.380874;151.482605;0.380627;206.675323;0.000000;0.000000;0.000000;0.000000;-462.000000;-178.000000;698.000000
1608557122;14;;;;;;;;;;;;;;91912485;81514;-566;77;0.078453;4.432606;-8.198360;1.282355;-0.772571;2.651779;-0.018631;0.275195;-0.362548;151.494476;0.294335;206.409851;0.000000;0.000000;0.000000;0.000000;-460.000000;-182.000000;697.000000
1608557122;15;466857862;67445370;977;930;33;36;305;476;9;3;48322;400207206;1;;;;;0.235360;4.628739;-8.159133;1.289407;-0.782784;2.634390;-0.000611;0.290772;-0.353996;151.388382;0.121177;206.222397;0.000000;0.000000;0.000000;0.000000;-462.000000;-185.000000;692.000000
1608557122;16;;;;;;;;;;;;;;91917585;81467;-567;77;0.431493;4.942552;-8.943665;1.292934;-0.786189;2.620479;0.009774;0.274278;-0.355829;151.356918;-0.132738;205.841736;0.000000;0.000000;0.000000;0.000000;-463.000000;-186.000000;688.000000
1608557122;17;;;;;;;;;;;;;;;;;;0.196133;4.981778;-8.394493;1.278828;-0.792998;2.599612;0.016493;0.250455;-0.351858;151.152512;-0.234571;205.841202;0.000000;0.000000;0.000000;0.000000;-459.000000;-188.000000;682.000000
1608557122;18;466858252;67445986;978;931;33;36;311;470;8;3;48322;600206682;1;;;;;0.313813;4.707192;-8.708306;1.275302;-0.796402;2.599612;0.031154;0.222966;-0.376904;151.197968;-0.392687;205.407761;0.000000;0.000000;0.000000;0.000000;-458.000000;-189.000000;682.000000
1608557122;19;;;;;;;;;;;;;;91920182;81444;-547;77;0.431493;4.511059;-8.276813;1.271775;-0.803211;2.582223;0.060781;0.215941;-0.378736;151.219040;-0.615509;204.953568;0.000000;0.000000;0.000000;0.000000;-457.000000;-191.000000;677.000000
1608557123;0;;;;;;;;;;;;;;;;;;0.313813;4.707192;-8.198360;1.271775;-0.803211;2.571790;0.095295;0.213803;-0.386067;151.110870;-0.744082;204.784668;0.000000;0.000000;0.000000;0.000000;-457.000000;-191.000000;674.000000
1608557123;1;;;;;;;;;;;;;;91921721;81430;-511;77;0.549172;4.393379;-8.394493;1.261196;-0.816829;2.561356;0.093157;0.203724;-0.400117;151.237198;-1.001402;204.124893;0.000000;0.000000;0.000000;0.000000;-454.000000;-195.000000;671.000000
1608557123;2;466858666;67446603;979;932;34;36;318;463;8;3;48322;800206157;1;;;;;0.470719;4.707192;-8.708306;1.264723;-0.820234;2.547445;0.061392;0.202196;-0.415083;151.274185;-1.173508;203.655716;0.000000;0.000000;0.000000;0.000000;-455.000000;-196.000000;667.000000
1608557123;3;;;;;;;;;;;;;;;;;;0.353039;4.432606;-8.237586;1.264723;-0.827043;2.537011;0.054062;0.205251;-0.430660;151.318329;-1.272291;203.207397;0.000000;0.000000;0.000000;0.000000;-455.000000;-198.000000;664.000000
1608557123;4;;;;;;;;;;;;;;91921269;81434;-460;77;0.353039;4.550286;-7.374601;1.268249;-0.830447;2.512667;0.039401;0.203418;-0.440434;151.018967;-1.378362;203.293030;0.000000;0.000000;0.000000;0.000000;-456.000000;-199.000000;657.000000
1608557123;5;;;;;;;;;;;;;;;;;;0.706079;4.471833;-8.708306;1.257670;-0.844065;2.502233;0.013134;0.203418;-0.462119;151.198975;-1.653069;202.484909;0.000000;0.000000;0.000000;0.000000;-453.000000;-203.000000;654.000000
1608557123;6;466859104;67447222;980;933;34;36;325;452;8;3;48323;205633;1;91919292;81452;-401;77;1.098345;4.236473;-8.943665;1.264723;-0.857683;2.488322;-0.040623;0.196699;-0.499688;151.544479;-2.121070;201.299469;0.000000;0.000000;0.000000;0.000000;-455.000000;-207.000000;650.000000
1608557123;7;;;;;;;;;;;;;;;;;;0.784532;4.314926;-8.590626;1.257670;-0.857683;2.477889;-0.063225;0.212276;-0.501826;151.723083;-2.375510;200.497528;0.000000;0.000000;0.000000;0.000000;-453.000000;-207.000000;647.000000
1608557123;8;;;;;;;;;;;;;;;;;;0.549172;4.589512;-8.394493;1.261196;-0.864492;2.453544;-0.080940;0.251066;-0.504269;151.684113;-2.466486;200.104950;0.000000;0.000000;0.000000;0.000000;-454.000000;-209.000000;640.000000
1608557123;9;;;;;;;;;;;;;;91915191;81489;-331;77;0.627626;4.667966;-8.355266;1.254143;-0.878110;2.436155;-0.089797;0.266948;-0.510072;151.596573;-2.595030;199.749557;0.000000;0.000000;0.000000;0.000000;-452.000000;-213.000000;635.000000
1608557123;10;;;;;;;;;;;;;;;;;;0.627626;4.746419;-8.512172;1.250617;-0.895133;2.411810;-0.084299;0.303295;-0.507018;151.522507;-2.703991;199.329681;0.000000;0.000000;0.000000;0.000000;-451.000000;-218.000000;628.000000
