Time;Fraction;Latitude;Longitude;Height_ellipsoid;Height_msl;Accuracy_hor;Accuracy_ver;Speed_gnd;Heading;Satellites;Fix;TimeOfDay;Nanoseconds;Time_Valid;Pressure;Altitude;Vario;Temperature;Acc_X;Acc_Y;Acc_Z;Mag_X;Mag_Y;Mag_Z;Gyro_X;Gyro_Y;Gyro_Z;Roll;Pitch;Yaw;Quat0;Quat1;Quat2;Quat3;Temp_X;Temp_Y;Temp_Z
s;;°/1e7;°/1e7;m;m;dm;dm;dm/s;°/10;;;sec;ns;;mPA;cm;cm/s;°C/10;m/s^2;m/s^2;m/s^2;Gauss;Gauss;Gauss;rad/s;rad/s;rad/s;°;°;°;;;;;;;
1608555913;2;;;;;;;;;;;;;;92742995;74063;236;79;0.078453;5.727084;-9.571291;1.236511;-1.378572;1.813626;-0.137445;-0.729678;1.253190;149.499420;-0.968797;165.678787;0.000000;0.000000;0.000000;0.000000;-447.000000;-360.000000;456.000000
1608555913;3;466828613;67412247;891;844;15;16;128;1365;12;3;47112;800374326;1;92751116;73990;141;79;-0.039227;5.530951;-9.335931;1.215353;-1.330909;1.911005;-0.063225;-0.709825;1.294423;149.485077;-0.851206;166.304504;0.000000;0.000000;0.000000;0.000000;-441.000000;-346.000000;484.000000
1608555913;4;;;;;;;;;;;;;;;;;;-0.039227;5.727084;-9.296705;1.222406;-1.303673;1.963172;-0.025351;-0.722348;1.302670;149.373138;-0.745502;167.295685;0.000000;0.000000;0.000000;0.000000;-443.000000;-338.000000;499.000000
1608555913;5;;;;;;;;;;;;;;;;;;-0.078453;5.491724;-9.139798;1.218880;-1.293459;1.973606;-0.019853;-0.719905;1.328632;149.335846;-0.628796;168.127151;0.000000;0.000000;0.000000;0.000000;-442.000000;-335.000000;502.000000
1608555913;6;466828428;67412509;893;845;15;16;136;1358;12;3;47113;373818;1;92760025;73911;45;79;0.078453;5.099458;-9.649744;1.222406;-1.262819;2.018817;-0.018631;-0.697913;1.345125;149.616821;-0.607101;168.518661;0.000000;0.000000;0.000000;0.000000;-443.000000;-326.000000;515.000000
1608555913;7;;;;;;;;;;;;;;;;;;-0.039227;5.295591;-9.649744;1.208300;-1.249201;2.046639;-0.045509;-0.686918;1.372614;149.779434;-0.525972;169.140579;0.000000;0.000000;0.000000;0.000000;-439.000000;-322.000000;523.000000
1608555913;8;;;;;;;;;;;;;;92765150;73866;-32;79;-0.117680;5.413271;-9.610517;1.215353;-1.221965;2.095329;-0.068111;-0.678671;1.395521;149.862396;-0.412249;170.051392;0.000000;0.000000;0.000000;0.000000;-441.000000;-314.000000;537.000000
1608555913;9;;;;;;;;;;;;;;;;;;-0.039227;5.177911;-9.375158;1.225932;-1.201538;2.130107;-0.095906;-0.675311;1.403768;149.984970;-0.350039;170.942917;0.000000;0.000000;0.000000;0.000000;-444.000000;-308.000000;547.000000
1608555913;10;466828233;67412801;894;846;15;16;145;1344;12;3;47113;200373310;1;;;;;0.039227;5.374045;-9.492838;1.240038;-1.174302;2.168363;-0.097433;-0.700357;1.397354;150.035004;-0.335639;172.061096;0.000000;0.000000;0.000000;0.000000;-448.000000;-300.000000;558.000000
1608555913;11;;;;;;;;;;;;;;92763922;73876;-69;79;0.000000;5.334818;-9.414384;1.236511;-1.157279;2.199663;-0.084605;-0.711963;1.387886;150.077637;-0.302075;173.214096;0.000000;0.000000;0.000000;0.000000;-447.000000;-295.000000;567.000000
1608555913;12;;;;;;;;;;;;;;;;;;-0.039227;5.334818;-9.335931;1.243564;-1.126639;2.251831;-0.083383;-0.722043;1.387886;150.095398;-0.250965;174.535278;0.000000;0.000000;0.000000;0.000000;-449.000000;-286.000000;582.000000
1608555913;13;;;;;;;;;;;;;;92756540;73942;-56;79;0.078453;5.295591;-9.335931;1.247091;-1.116425;2.276175;-0.068111;-0.715323;1.396438;150.129562;-0.267748;175.766357;0.000000;0.000000;0.000000;0.000000;-450.000000;-283.000000;589.000000
1608555913;14;466828029;67413119;895;847;16;16;155;1330;12;3;47113;400372803;1;;;;;0.078453;5.491724;-9.571291;1.254143;-1.089189;2.328342;-0.052840;-0.736398;1.383610;150.132019;-0.281707;177.144562;0.000000;0.000000;0.000000;0.000000;-452.000000;-275.000000;604.000000
1608555913;15;;;;;;;;;;;;;;;;;;0.039227;5.530951;-9.453611;1.254143;-1.072167;2.352687;-0.037874;-0.740674;1.369560;150.085800;-0.274056;178.604568;0.000000;0.000000;0.000000;0.000000;-452.000000;-270.000000;611.000000
1608555913;16;;;;;;;;;;;;;;92740027;74089;18;79;-0.039227;5.530951;-9.414384;1.271775;-1.051740;2.408332;0.000000;-0.758084;1.363451;150.033813;-0.226067;180.137131;0.000000;0.000000;0.000000;0.000000;-457.000000;-264.000000;627.000000
1608555913;17;;;;;;;;;;;;;;;;;;0.000000;5.530951;-9.571291;1.271775;-1.034717;2.429199;0.025962;-0.754113;1.348179;150.028214;-0.203460;181.533752;0.000000;0.000000;0.000000;0.000000;-457.000000;-259.000000;633.000000
1608555913;18;466827859;67413470;896;849;16;17;160;1290;12;3;47113;600372295;1;92713443;74326;159;79;0.000000;5.413271;-9.375158;1.285881;-1.014290;2.477889;0.041539;-0.744034;1.346041;150.025162;-0.183114;182.947113;0.000000;0.000000;0.000000;0.000000;-461.000000;-253.000000;647.000000
1608555913;19;;;;;;;;;;;;;;;;;;-0.117680;5.491724;-9.296705;1.289407;-0.993863;2.498755;0.045509;-0.741590;1.328632;149.965546;-0.102360;184.475601;0.000000;0.000000;0.000000;0.000000;-462.000000;-247.000000;653.000000
1608555914;0;;;;;;;;;;;;;;;;;;-0.156906;5.570177;-9.571291;1.303513;-0.976841;2.540489;0.053756;-0.726013;1.312444;149.949203;-0.010949;185.919464;0.000000;0.000000;0.000000;0.000000;-466.000000;-242.000000;665.000000
1608555914;1;;;;;;;;;;;;;;92681375;74611;352;79;-0.235360;5.491724;-9.610517;1.299986;-0.959818;2.571790;0.055589;-0.700968;1.299005;149.979813;0.111956;187.288818;0.000000;0.000000;0.000000;0.000000;-465.000000;-237.000000;674.000000
1608555914;2;466827684;67413845;897;850;16;17;167;1265;12;3;47113;800371787;1;;;;;-0.078453;5.766310;-9.532064;1.314092;-0.942796;2.606568;0.057727;-0.659429;1.304197;149.864716;0.141109;188.832962;0.000000;0.000000;0.000000;0.000000;-469.000000;-232.000000;684.000000
1608555914;3;;;;;;;;;;;;;;92648619;74903;559;79;-0.117680;5.687857;-9.571291;1.328198;-0.932582;2.623957;0.058948;-0.628275;1.273348;149.806122;0.187555;190.201981;0.000000;0.000000;0.000000;0.000000;-473.000000;-229.000000;689.000000
1608555914;4;;;;;;;;;;;;;;;;;;0.039227;5.687857;-9.924331;1.331724;-0.915560;2.655257;0.076053;-0.600786;1.246165;149.843719;0.149151;191.323151;0.000000;0.000000;0.000000;0.000000;-474.000000;-224.000000;698.000000
1608555914;5;;;;;;;;;;;;;;;;;;0.000000;5.766310;-9.492838;1.345829;-0.908751;2.672646;0.084910;-0.594066;1.223868;149.731750;0.134236;192.632095;0.000000;0.000000;0.000000;0.000000;-478.000000;-222.000000;703.000000
1608555914;6;466827516;67414234;898;851;16;17;172;1243;12;3;47114;371279;1;92617482;75180;763;79;0.000000;5.727084;-9.453611;1.349356;-0.888324;2.700469;0.073609;-0.583376;1.187216;149.637802;0.120813;193.904495;0.000000;0.000000;0.000000;0.000000;-479.000000;-216.000000;711.000000
1608555914;7;;;;;;;;;;;;;;;;;;0.117680;5.687857;-9.492838;1.352882;-0.888324;2.714380;0.083994;-0.584292;1.142623;149.581146;0.047805;194.974701;0.000000;0.000000;0.000000;0.000000;-480.000000;-216.000000;715.000000
1608555914;8;;;;;;;;;;;;;;92593269;75395;925;79;0.078453;5.727084;-9.492838;1.370514;-0.874706;2.735247;0.105680;-0.579711;1.108720;149.512756;0.002481;196.030212;0.000000;0.000000;0.000000;0.000000;-485.000000;-212.000000;721.000000
1608555914;9;;;;;;;;;;;;;;;;;;0.078453;5.805537;-9.375158;1.370514;-0.864492;2.742203;0.093157;-0.573602;1.063516;149.384720;-0.038530;197.128265;0.000000;0.000000;0.000000;0.000000;-485.000000;-209.000000;723.000000
1608555914;10;466827340;67414646;899;851;16;17;178;1229;12;3;47114;200370771;1;;;;;0.196133;5.844764;-9.728197;1.377567;-0.864492;2.759592;0.091019;-0.554666;1.021977;149.346497;-0.133686;197.965561;0.000000;0.000000;0.000000;0.000000;-487.000000;-209.000000;728.000000
1608555914;11;;;;;;;;;;;;;;92573809;75568;1035;79;0.078453;5.923217;-9.532064;1.391672;-0.854279;2.766547;0.102931;-0.544892;0.991129;149.226181;-0.160370;198.918839;0.000000;0.000000;0.000000;0.000000;-491.000000;-206.000000;730.000000
1608555914;12;;;;;;;;;;;;;;;;;;0.117680;5.962444;-9.492838;1.395199;-0.850874;2.776981;0.143248;-0.528704;0.954477;149.090286;-0.204479;199.823975;0.000000;0.000000;0.000000;0.000000;-492.000000;-205.000000;733.000000
1608555914;13;;;;;;;;;;;;;;92557659;75712;1094;79;0.039227;6.080123;-9.688971;1.402252;-0.850874;2.776981;0.167988;-0.488387;0.928210;148.970322;-0.203679;200.656281;0.000000;0.000000;0.000000;0.000000;-494.000000;-205.000000;733.000000
1608555914;14;466827187;67415083;900;852;17;18;183;1202;12;3;47114;400370264;1;;;;;-0.039227;6.119350;-9.532064;1.405778;-0.850874;2.790892;0.181122;-0.457843;0.902248;148.803360;-0.163470;201.546448;0.000000;0.000000;0.000000;0.000000;-495.000000;-205.000000;737.000000
1608555914;15;;;;;;;;;;;;;;;;;;0.196133;6.001670;-9.728197;1.412831;-0.833852;2.794370;0.186008;-0.462730;0.852462;148.755844;-0.245425;202.132599;0.000000;0.000000;0.000000;0.000000;-497.000000;-200.000000;738.000000
1608555914;16;;;;;;;;;;;;;;92543089;75842;1119;79;0.156906;6.197803;-9.806650;1.416357;-0.840661;2.797848;0.172569;-0.464868;0.813978;148.650986;-0.298372;202.752563;0.000000;0.000000;0.000000;0.000000;-498.000000;-202.000000;739.000000
1608555914;17;;;;;;;;;;;;;;;;;;0.196133;6.197803;-10.081236;1.419884;-0.837256;2.797848;0.150884;-0.425773;0.772744;148.627640;-0.363486;203.192383;0.000000;0.000000;0.000000;0.000000;-499.000000;-201.000000;739.000000
1608555914;18;466827039;67415552;901;853;17;18;190;1178;12;3;47114;600369756;1;92526668;75988;1131;79;0.117680;6.158576;-10.042010;1.433989;-0.833852;2.794370;0.116064;-0.385761;0.729984;148.612885;-0.384372;203.589005;0.000000;0.000000;0.000000;0.000000;-503.000000;-200.000000;738.000000
1608555914;19;;;;;;;;;;;;;;;;;;0.117680;5.962444;-10.120463;1.433989;-0.840661;2.794370;0.084605;-0.350637;0.693026;148.701172;-0.403335;203.769379;0.000000;0.000000;0.000000;0.000000;-503.000000;-202.000000;738.000000
1608555915;0;;;;;;;;;;;;;;;;;;-0.078453;6.119350;-9.649744;1.441042;-0.837256;2.801325;0.093768;-0.324980;0.658818;148.593002;-0.323663;204.308151;0.000000;0.000000;0.000000;0.000000;-505.000000;-201.000000;740.000000
1608555915;1;;;;;;;;;;;;;;92516508;76078;1117;79;0.000000;6.237030;-9.532064;1.444568;-0.840661;2.790892;0.128282;-0.304211;0.621555;148.413956;-0.291297;204.849335;0.000000;0.000000;0.000000;0.000000;-506.000000;-202.000000;737.000000
1608555915;2;466826896;67416040;902;854;17;18;196;1158;12;3;47114;800369247;1;;;;;0.039227;6.276256;-9.571291;1.451621;-0.837256;2.790892;0.161879;-0.273057;0.594372;148.247131;-0.281804;205.324951;0.000000;0.000000;0.000000;0.000000;-508.000000;-201.000000;737.000000
1608555915;3;;;;;;;;;;;;;;92504815;76182;1086;79;0.078453;6.315483;-9.453611;1.462200;-0.844065;2.790892;0.173791;-0.251371;0.561080;148.047943;-0.293160;205.772629;0.000000;0.000000;0.000000;0.000000;-511.000000;-203.000000;737.000000
1608555915;4;;;;;;;;;;;;;;;;;;0.156906;6.197803;-9.885103;1.458674;-0.840661;2.787414;0.175318;-0.239459;0.519541;148.034454;-0.340893;205.913727;0.000000;0.000000;0.000000;0.000000;-510.000000;-202.000000;736.000000
1608555915;5;;;;;;;;;;;;;;;;;;0.196133;6.393936;-9.532064;1.462200;-0.844065;2.787414;0.178983;-0.227242;0.464563;147.845718;-0.404700;206.265808;0.000000;0.000000;0.000000;0.000000;-511.000000;-203.000000;736.000000
1608555915;6;466826761;67416544;903;855;17;18;201;1138;11;3;47115;368739;1;92492359;76293;1058;79;0.235360;6.393936;-9.492838;1.458674;-0.844065;2.783936;0.206472;-0.218690;0.415999;147.664917;-0.482035;206.582703;0.000000;0.000000;0.000000;0.000000;-510.000000;-203.000000;735.000000
1608555915;7;;;;;;;;;;;;;;;;;;0.313813;6.393936;-9.610517;1.469253;-0.844065;2.787414;0.226020;-0.201891;0.369573;147.534836;-0.589558;206.782043;0.000000;0.000000;0.000000;0.000000;-513.000000;-203.000000;736.000000
1608555915;8;;;;;;;;;;;;;;92479178;76410;1034;79;0.117680;6.472389;-9.688971;1.462200;-0.844065;2.783936;0.244041;-0.178373;0.332311;147.407013;-0.588467;207.057938;0.000000;0.000000;0.000000;0.000000;-511.000000;-203.000000;735.000000
1608555915;9;;;;;;;;;;;;;;;;;;0.039227;6.393936;-9.767424;1.469253;-0.840661;2.790892;0.252898;-0.149967;0.276111;147.345367;-0.548872;207.268707;0.000000;0.000000;0.000000;0.000000;-513.000000;-202.000000;737.000000
1608555915;10;466826635;67417069;904;857;18;19;206;1118;9;3;47115;200368231;1;;;;;0.196133;6.472389;-9.885103;1.462200;-0.837256;2.790892;0.240070;-0.137445;0.232434;147.289322;-0.589085;207.419266;0.000000;0.000000;0.000000;0.000000;-511.000000;-201.000000;737.000000
1608555915;11;;;;;;;;;;;;;;92466185;76526;1016;79;0.156906;6.472389;-10.081236;1.472779;-0.827043;2.797848;0.218384;-0.101098;0.173486;147.290253;-0.605214;207.515930;0.000000;0.000000;0.000000;0.000000;-514.000000;-198.000000;739.000000
1608555915;12;;;;;;;;;;;;;;;;;;0.235360;6.629296;-10.081236;1.469253;-0.830447;2.797848;0.199447;-0.067806;0.137445;147.228394;-0.656443;207.661194;0.000000;0.000000;0.000000;0.000000;-513.000000;-199.000000;739.000000
1608555915;13;;;;;;;;;;;;;;92455575;76621;990;79;0.196133;6.786202;-10.512729;1.469253;-0.827043;2.797848;0.181122;-0.043371;0.102014;147.221252;-0.680600;207.748230;0.000000;0.000000;0.000000;0.000000;-513.000000;-198.000000;739.000000
1608555915;14;466826527;67417617;905;858;18;19;212;1095;10;3;47115;400367723;1;;;;;0.039227;6.629296;-10.434276;1.465727;-0.823638;2.808281;0.156076;0.012523;0.058338;147.256195;-0.630721;207.853653;0.000000;0.000000;0.000000;0.000000;-512.000000;-197.000000;742.000000
1608555915;15;;;;;;;;;;;;;;;;;;0.039227;6.668522;-10.120463;1.472779;-0.816829;2.801325;0.134696;0.063225;0.041233;147.192444;-0.586193;208.079102;0.000000;0.000000;0.000000;0.000000;-514.000000;-195.000000;740.000000
1608555915;16;;;;;;;;;;;;;;92445300;76712;959;79;-0.117680;6.668522;-10.002784;1.469253;-0.816829;2.815237;0.135612;0.107512;0.000916;147.104202;-0.471489;208.416626;0.000000;0.000000;0.000000;0.000000;-513.000000;-195.000000;744.000000
1608555915;17;;;;;;;;;;;;;;;;;;0.156906;6.629296;-9.885103;1.469253;-0.816829;2.811759;0.146608;0.138056;-0.050091;147.009079;-0.499869;208.626801;0.000000;0.000000;0.000000;0.000000;-513.000000;-195.000000;743.000000
1608555915;18;466826438;67418184;906;859;18;19;217;1069;10;3;47115;600367214;1;92433177;76820;938;79;0.235360;6.746975;-9.963557;1.465727;-0.810020;2.818714;0.179900;0.166155;-0.087965;146.897736;-0.561935;208.854324;0.000000;0.000000;0.000000;0.000000;-512.000000;-193.000000;745.000000
1608555915;19;;;;;;;;;;;;;;;;;;0.117680;6.590069;-9.728197;1.472779;-0.806616;2.822192;0.220828;0.187536;-0.137445;146.796524;-0.563122;209.106155;0.000000;0.000000;0.000000;0.000000;-514.000000;-192.000000;746.000000
1608555916;0;;;;;;;;;;;;;;;;;;0.235360;6.629296;-9.571291;1.472779;-0.803211;2.829148;0.238237;0.214414;-0.183870;146.646149;-0.622617;209.382919;0.000000;0.000000;0.000000;0.000000;-514.000000;-191.000000;748.000000
1608555916;1;;;;;;;;;;;;;;92419410;76942;925;79;0.156906;6.629296;-10.042010;1.469253;-0.792998;2.839581;0.235794;0.240986;-0.231518;146.638443;-0.635064;209.538727;0.000000;0.000000;0.000000;0.000000;-513.000000;-188.000000;751.000000
1608555916;2;466826351;67418763;907;860;18;19;222;1049;10;3;47115;800366706;1;;;;;0.000000;6.550843;-9.963557;1.465727;-0.786189;2.853492;0.229074;0.278249;-0.269392;146.642197;-0.571558;209.770294;0.000000;0.000000;0.000000;0.000000;-512.000000;-186.000000;755.000000
1608555916;3;;;;;;;;;;;;;;92409395;77031;910;79;0.039227;6.472389;-9.924331;1.462200;-0.782784;2.860448;0.205251;0.324064;-0.299018;146.666855;-0.533371;209.957794;0.000000;0.000000;0.000000;0.000000;-511.000000;-185.000000;757.000000
1608555916;4;;;;;;;;;;;;;;;;;;-0.039227;6.472389;-10.120463;1.462200;-0.779380;2.860448;0.197309;0.372322;-0.330783;146.740143;-0.461325;210.095306;0.000000;0.000000;0.000000;0.000000;-511.000000;-184.000000;757.000000
1608555916;5;;;;;;;;;;;;;;;;;;0.078453;6.629296;-10.198917;1.451621;-0.772571;2.877837;0.192423;0.390648;-0.383318;146.763748;-0.452145;210.291809;0.000000;0.000000;0.000000;0.000000;-508.000000;-182.000000;762.000000
1608555916;6;466826283;67419360;908;861;19;20;226;1024;10;3;47116;366198;1;92399043;77124;889;79;0.235360;6.550843;-10.198917;1.448095;-0.765762;2.884793;0.163712;0.396146;-0.460287;146.816086;-0.518166;210.395142;0.000000;0.000000;0.000000;0.000000;-507.000000;-180.000000;764.000000
1608555916;7;;;;;;;;;;;;;;;;;;0.078453;6.550843;-10.120463;1.448095;-0.755548;2.898704;0.148135;0.430660;-0.499077;146.843048;-0.503635;210.623764;0.000000;0.000000;0.000000;0.000000;-507.000000;-177.000000;768.000000
1608555916;8;;;;;;;;;;;;;;92387715;77224;873;79;0.039227;5.530951;-10.355822;1.444568;-0.752144;2.891748;0.135917;0.469450;-0.530536;147.348129;-0.472415;210.128143;0.000000;0.000000;0.000000;0.000000;-506.000000;-176.000000;766.000000
1608555916;9;;;;;;;;;;;;;;;;;;0.117680;6.550843;-9.924331;1.426936;-0.741930;2.916093;0.151495;0.499688;-0.578184;147.270538;-0.481873;210.531097;0.000000;0.000000;0.000000;0.000000;-501.000000;-173.000000;773.000000
1608555916;10;466826234;67419979;909;862;19;20;233;1000;11;3;47116;200365689;1;;;;;0.078453;6.315483;-10.198917;1.423410;-0.741930;2.912616;0.167377;0.532064;-0.616057;147.366791;-0.471156;210.682190;0.000000;0.000000;0.000000;0.000000;-500.000000;-173.000000;772.000000
1608555916;11;;;;;;;;;;;;;;92377462;77316;855;79;0.078453;6.590069;-10.081236;1.426936;-0.738526;2.916093;0.174707;0.561385;-0.668286;147.312866;-0.461362;211.020645;0.000000;0.000000;0.000000;0.000000;-501.000000;-172.000000;773.000000
1608555916;12;;;;;;;;;;;;;;;;;;0.000000;6.629296;-10.395050;1.419884;-0.728312;2.916093;0.161879;0.575435;-0.712880;147.328888;-0.415225;211.307999;0.000000;0.000000;0.000000;0.000000;-499.000000;-169.000000;773.000000
1608555916;13;;;;;;;;;;;;;;92364367;77432;852;79;0.156906;6.629296;-10.708862;1.405778;-0.721503;2.916093;0.150884;0.621861;-0.738536;147.420059;-0.445079;211.436325;0.000000;0.000000;0.000000;0.000000;-495.000000;-167.000000;773.000000
1608555916;14;466826201;67420604;911;863;19;20;237;977;10;3;47116;400365181;1;;;;;-0.078453;6.393936;-10.708862;1.398725;-0.724908;2.919571;0.129503;0.679587;-0.770912;147.594055;-0.364532;211.527206;0.000000;0.000000;0.000000;0.000000;-493.000000;-168.000000;774.000000
1608555916;15;;;;;;;;;;;;;;;;;;0.039227;6.707749;-10.395050;1.388146;-0.721503;2.916093;0.132252;0.715018;-0.778242;147.551315;-0.346246;211.865021;0.000000;0.000000;0.000000;0.000000;-490.000000;-167.000000;773.000000
1608555916;16;;;;;;;;;;;;;;92348544;77573;860;79;0.156906;6.746975;-10.198917;1.388146;-0.718099;2.912616;0.121257;0.736703;-0.819170;147.447586;-0.385134;212.207550;0.000000;0.000000;0.000000;0.000000;-490.000000;-166.000000;772.000000
1608555916;17;;;;;;;;;;;;;;;;;;0.078453;6.472389;-10.395050;1.366988;-0.731717;2.902182;0.093157;0.751364;-0.853379;147.512024;-0.383328;212.325165;0.000000;0.000000;0.000000;0.000000;-484.000000;-170.000000;769.000000
1608555916;18;466826212;67421244;912;865;19;20;241;949;12;3;47116;600364671;1;92331596;77724;887;79;0.039227;6.707749;-10.708862;1.359935;-0.724908;2.891748;0.057727;0.761443;-0.889420;147.554642;-0.362781;212.485397;0.000000;0.000000;0.000000;0.000000;-482.000000;-168.000000;766.000000
1608555916;19;;;;;;;;;;;;;;;;;;0.000000;6.511616;-11.061901;1.349356;-0.738526;2.874359;0.029627;0.773355;-0.912938;147.750854;-0.326503;212.370758;0.000000;0.000000;0.000000;0.000000;-479.000000;-172.000000;761.000000
1608555917;0;;;;;;;;;;;;;;;;;;-0.156906;6.511616;-10.473503;1.338777;-0.748739;2.843059;0.027794;0.778242;-0.933096;147.788757;-0.220960;212.492462;0.000000;0.000000;0.000000;0.000000;-476.000000;-175.000000;752.000000
1608555917;1;;;;;;;;;;;;;;92313356;77886;929;79;-0.078453;6.668522;-10.355822;1.324671;-0.758953;2.829148;0.036957;0.788932;-0.945314;147.731995;-0.162371;212.679535;0.000000;0.000000;0.000000;0.000000;-472.000000;-178.000000;748.000000
1608555917;2;466826248;67421895;914;866;19;20;246;918;11;3;47116;800364162;1;;;;;-0.156906;6.511616;-10.198917;1.310566;-0.772571;2.790892;0.040317;0.802066;-0.952950;147.703140;-0.071842;212.783691;0.000000;0.000000;0.000000;0.000000;-468.000000;-182.000000;737.000000
1608555917;3;;;;;;;;;;;;;;92309206;77923;924;79;-0.196133;6.433163;-10.630410;1.310566;-0.779380;2.766547;0.037568;0.811534;-0.949590;147.814743;0.025775;212.620163;0.000000;0.000000;0.000000;0.000000;-468.000000;-184.000000;730.000000
1608555917;4;;;;;;;;;;;;;;;;;;-0.156906;6.550843;-10.120463;1.296460;-0.796402;2.731769;0.035736;0.808785;-0.947757;147.741837;0.097765;212.648605;0.000000;0.000000;0.000000;0.000000;-464.000000;-189.000000;720.000000
1608555917;5;;;;;;;;;;;;;;;;;;0.039227;6.433163;-10.434276;1.285881;-0.813425;2.710902;0.042150;0.784351;-0.955393;147.802109;0.069654;212.326523;0.000000;0.000000;0.000000;0.000000;-461.000000;-194.000000;714.000000
1608555917;6;466826293;67422555;915;868;19;20;250;888;11;3;47117;363653;1;92323249;77798;820;79;-0.117680;6.315483;-10.669636;1.275302;-0.833852;2.658735;0.042150;0.766636;-0.943176;147.959732;0.117068;211.794083;0.000000;0.000000;0.000000;0.000000;-458.000000;-200.000000;699.000000
1608555917;7;;;;;;;;;;;;;;;;;;-0.117680;6.433163;-10.434276;1.264723;-0.840661;2.627434;0.027489;0.751670;-0.925461;147.998215;0.160365;211.431076;0.000000;0.000000;0.000000;0.000000;-455.000000;-202.000000;690.000000
1608555917;8;;;;;;;;;;;;;;92351716;77545;610;79;-0.039227;6.119350;-10.277370;1.247091;-0.864492;2.578745;0.013744;0.738841;-0.926988;148.121368;0.163118;210.784286;0.000000;0.000000;0.000000;0.000000;-450.000000;-209.000000;676.000000
1608555917;9;;;;;;;;;;;;;;;;;;-0.078453;5.962444;-9.963557;1.247091;-0.874706;2.554400;-0.004887;0.705855;-0.912938;148.219513;0.185518;210.159439;0.000000;0.000000;0.000000;0.000000;-450.000000;-212.000000;669.000000
1608555917;10;466826352;67423219;916;869;19;21;253;860;11;3;47117;200363145;1;;;;;0.078453;6.040897;-10.002784;1.236511;-0.912155;2.498755;-0.037874;0.685085;-0.901026;148.284698;0.128500;209.360352;0.000000;0.000000;0.000000;0.000000;-447.000000;-223.000000;653.000000
1608555917;11;;;;;;;;;;;;;;92382222;77273;332;79;-0.156906;6.040897;-10.002784;1.222406;-0.918964;2.474411;-0.063835;0.667676;-0.880868;148.343369;0.192580;208.677063;0.000000;0.000000;0.000000;0.000000;-443.000000;-225.000000;646.000000
1608555917;12;;;;;;;;;;;;;;;;;;0.078453;6.040897;-9.924331;1.218880;-0.949605;2.411810;-0.074220;0.654237;-0.877813;148.376175;0.134633;207.780487;0.000000;0.000000;0.000000;0.000000;-442.000000;-234.000000;628.000000
1608555917;13;;;;;;;;;;;;;;92415019;76981;31;79;0.156906;5.962444;-9.688971;1.218880;-0.963223;2.394421;-0.095600;0.633467;-0.856433;148.377823;0.042152;206.914032;0.000000;0.000000;0.000000;0.000000;-442.000000;-238.000000;623.000000
1608555917;14;466826423;67423885;917;870;19;21;254;837;11;3;47117;400362636;1;;;;;0.156906;5.805537;-9.688971;1.208300;-0.993863;2.328342;-0.103847;0.607200;-0.852462;148.447098;-0.041650;205.770386;0.000000;0.000000;0.000000;0.000000;-439.000000;-247.000000;604.000000
1608555917;15;;;;;;;;;;;;;;;;;;0.196133;5.805537;-9.806650;1.204774;-1.004077;2.297042;-0.121868;0.599564;-0.844521;148.539856;-0.136083;204.572281;0.000000;0.000000;0.000000;0.000000;-438.000000;-250.000000;595.000000
1608555917;16;;;;;;;;;;;;;;92444246;76721;-250;79;-0.039227;5.844764;-9.845877;1.201248;-1.041526;2.227486;-0.115454;0.599870;-0.838107;148.616440;-0.102846;203.259247;0.000000;0.000000;0.000000;0.000000;-437.000000;-261.000000;575.000000
1608555917;17;;;;;;;;;;;;;;;;;;0.313813;5.962444;-9.728197;1.194195;-1.055144;2.210097;-0.088881;0.580627;-0.834136;148.604385;-0.250104;202.078094;0.000000;0.000000;0.000000;0.000000;-435.000000;-265.000000;570.000000
1608555917;18;466826518;67424569;918;871;19;21;260;811;12;3;47117;600362128;1;92466343;76525;-472;79;0.117680;6.001670;-9.453611;1.197721;-1.078976;2.150974;-0.053145;0.600480;-0.833220;148.502991;-0.285305;200.989471;0.000000;0.000000;0.000000;0.000000;-436.000000;-272.000000;553.000000
1608555917;19;;;;;;;;;;;;;;;;;;0.039227;5.962444;-9.728197;1.190668;-1.099403;2.116196;-0.051007;0.601091;-0.825890;148.502274;-0.276472;199.690552;0.000000;0.000000;0.000000;0.000000;-434.000000;-278.000000;543.000000
1608555918;0;;;;;;;;;;;;;;;;;;0.000000;5.844764;-9.610517;1.190668;-1.126639;2.064029;-0.062919;0.595594;-0.811840;148.521423;-0.248825;198.248840;0.000000;0.000000;0.000000;0.000000;-434.000000;-286.000000;528.000000
1608555918;1;;;;;;;;;;;;;;92483205;76375;-629;79;0.235360;6.001670;-9.845877;1.183616;-1.140257;2.032728;-0.096517;0.562607;-0.837496;148.532806;-0.340874;196.816101;0.000000;0.000000;0.000000;0.000000;-432.000000;-290.000000;519.000000
1608555918;2;466826630;67425239;919;872;19;21;262;785;12;3;47117;800361619;1;;;;;0.156906;5.883990;-9.924331;1.176563;-1.167493;1.980561;-0.105069;0.546419;-0.832915;148.613235;-0.384702;195.162048;0.000000;0.000000;0.000000;0.000000;-430.000000;-298.000000;504.000000
1608555918;3;;;;;;;;;;;;;;92493466;76283;-717;79;0.274586;5.766310;-9.885103;1.176563;-1.184515;1.945783;-0.118813;0.522901;-0.850935;148.726288;-0.483681;193.446991;0.000000;0.000000;0.000000;0.000000;-430.000000;-303.000000;494.000000
1608555918;4;;;;;;;;;;;;;;;;;;0.196133;5.844764;-9.492838;1.176563;-1.208347;1.900571;-0.102014;0.503658;-0.863458;148.691605;-0.536107;191.949219;0.000000;0.000000;0.000000;0.000000;-430.000000;-310.000000;481.000000
1608555918;5;;;;;;;;;;;;;;;;;;0.509946;5.648631;-9.532064;1.176563;-1.225369;1.865793;-0.109039;0.476169;-0.873537;148.757385;-0.746008;190.293503;0.000000;0.000000;0.000000;0.000000;-430.000000;-315.000000;471.000000
1608555918;6;466826763;67425909;920;873;20;21;266;757;12;3;47118;361111;1;92497625;76246;-739;79;0.313813;5.530951;-9.924331;1.180089;-1.262819;1.817104;-0.133169;0.459981;-0.884533;148.968521;-0.829622;188.265213;0.000000;0.000000;0.000000;0.000000;-431.000000;-326.000000;457.000000
1608555918;7;;;;;;;;;;;;;;;;;;0.470719;5.923217;-9.767424;1.183616;-1.266223;1.789281;-0.145691;0.445626;-0.892169;148.948318;-0.982629;186.744720;0.000000;0.000000;0.000000;0.000000;-432.000000;-327.000000;449.000000
1608555918;8;;;;;;;;;;;;;;92492159;76295;-691;79;0.431493;6.001670;-9.767424;1.190668;-1.293459;1.737114;-0.131336;0.431271;-0.906524;148.896606;-1.099920;185.208466;0.000000;0.000000;0.000000;0.000000;-434.000000;-335.000000;434.000000
1608555918;9;;;;;;;;;;;;;;;;;;0.392266;5.923217;-9.571291;1.183616;-1.307077;1.712769;-0.095600;0.428827;-0.911716;148.831818;-1.189523;183.738968;0.000000;0.000000;0.000000;0.000000;-432.000000;-339.000000;427.000000
1608555918;10;466826919;67426585;921;874;20;21;270;732;12;3;47118;200360603;1;;;;;0.078453;6.197803;-9.296705;1.190668;-1.334313;1.677991;-0.060476;0.460898;-0.881784;148.579636;-1.110801;182.518555;0.000000;0.000000;0.000000;0.000000;-434.000000;-347.000000;417.000000
1608555918;11;;;;;;;;;;;;;;92480341;76400;-576;79;0.196133;5.962444;-9.649744;1.190668;-1.344527;1.646691;-0.012523;0.479529;-0.862236;148.550552;-1.098780;180.989014;0.000000;0.000000;0.000000;0.000000;-434.000000;-350.000000;408.000000
1608555918;12;;;;;;;;;;;;;;;;;;0.196133;5.962444;-9.688971;1.194195;-1.371763;1.608435;-0.001833;0.457233;-0.867428;148.534760;-1.087670;179.408752;0.000000;0.000000;0.000000;0.000000;-435.000000;-358.000000;397.000000
1608555918;13;;;;;;;;;;;;;;92460697;76575;-404;79;0.431493;5.844764;-9.806650;1.201248;-1.375167;1.587568;0.000000;0.422413;-0.880257;148.601807;-1.195357;177.860046;0.000000;0.000000;0.000000;0.000000;-437.000000;-359.000000;391.000000
1608555918;14;466827090;67427249;922;875;20;21;271;709;12;3;47118;400360095;1;;;;;0.353039;5.648631;-9.649744;1.197721;-1.395594;1.552790;-0.016799;0.395535;-0.897055;148.707306;-1.256665;176.232895;0.000000;0.000000;0.000000;0.000000;-436.000000;-365.000000;381.000000
1608555918;15;;;;;;;;;;;;;;;;;;0.509946;5.530951;-9.296705;1.201248;-1.409212;1.535401;-0.021075;0.382096;-0.886976;148.761597;-1.400894;174.789795;0.000000;0.000000;0.000000;0.000000;-437.000000;-369.000000;376.000000
1608555918;16;;;;;;;;;;;;;;92431681;76833;-175;79;0.392266;5.452498;-9.139798;1.211827;-1.433043;1.504100;-0.026878;0.359189;-0.871094;148.803558;-1.471890;173.341705;0.000000;0.000000;0.000000;0.000000;-440.000000;-376.000000;367.000000
1608555918;17;;;;;;;;;;;;;;;;;;0.313813;5.334818;-9.218252;1.215353;-1.436448;1.483233;-0.035736;0.357356;-0.871705;148.917313;-1.493469;171.863190;0.000000;0.000000;0.000000;0.000000;-441.000000;-377.000000;361.000000
1608555918;18;466827288;67427898;924;876;20;21;270;682;12;3;47118;600359586;1;92397932;77133;92;79;0.313813;5.452498;-8.943665;1.215353;-1.456875;1.462367;-0.061697;0.338725;-0.860098;148.888733;-1.515725;170.603073;0.000000;0.000000;0.000000;0.000000;-441.000000;-383.000000;355.000000
1608555918;19;;;;;;;;;;;;;;;;;;0.470719;5.334818;-9.139798;1.232985;-1.467088;1.431066;-0.083689;0.328645;-0.849408;148.972702;-1.618834;169.296234;0.000000;0.000000;0.000000;0.000000;-446.000000;-386.000000;346.000000
1608555919;0;;;;;;;;;;;;;;;;;;0.196133;5.491724;-8.982892;1.236511;-1.480706;1.424111;-0.097433;0.331089;-0.831082;148.931473;-1.563672;168.143219;0.000000;0.000000;0.000000;0.000000;-447.000000;-390.000000;344.000000
1608555919;1;;;;;;;;;;;;;;92367083;77408;352;79;0.274586;5.374045;-8.904439;1.247091;-1.490920;1.406721;-0.078191;0.336892;-0.798706;148.927139;-1.558539;167.035263;0.000000;0.000000;0.000000;0.000000;-450.000000;-393.000000;339.000000
1608555919;2;466827504;67428539;925;877;20;21;270;656;12;3;47118;800359078;1;;;;;0.431493;5.530951;-8.865212;1.243564;-1.490920;1.389332;-0.038790;0.327424;-0.769385;148.838455;-1.639152;166.151443;0.000000;0.000000;0.000000;0.000000;-449.000000;-393.000000;334.000000
1608555919;3;;;;;;;;;;;;;;92338934;77659;580;79;0.392266;5.609404;-8.590626;1.257670;-1.501133;1.375421;0.003665;0.325591;-0.735482;148.640289;-1.694190;165.460434;0.000000;0.000000;0.000000;0.000000;-453.000000;-396.000000;330.000000
1608555919;4;;;;;;;;;;;;;;;;;;0.353039;5.805537;-8.825985;1.261196;-1.501133;1.371943;0.026573;0.310625;-0.723875;148.442673;-1.716174;164.848114;0.000000;0.000000;0.000000;0.000000;-454.000000;-396.000000;329.000000
1608555919;5;;;;;;;;;;;;;;;;;;0.470719;5.609404;-9.022118;1.257670;-1.504538;1.364988;0.045204;0.293215;-0.707687;148.411331;-1.798258;164.110611;0.000000;0.000000;0.000000;0.000000;-453.000000;-397.000000;327.000000
1608555919;6;466827740;67429182;925;878;20;21;274;629;12;3;47119;358569;1;92313714;77883;768;79;0.392266;5.609404;-8.786759;1.271775;-1.518156;1.358032;0.063225;0.275195;-0.671646;148.314819;-1.833928;163.479004;0.000000;0.000000;0.000000;0.000000;-457.000000;-401.000000;325.000000
1608555919;7;;;;;;;;;;;;;;;;;;0.274586;5.766310;-8.904439;1.271775;-1.521560;1.354554;0.104458;0.255952;-0.633162;148.190735;-1.798805;162.906235;0.000000;0.000000;0.000000;0.000000;-457.000000;-402.000000;324.000000
1608555919;8;;;;;;;;;;;;;;92289291;78100;919;79;0.235360;5.923217;-8.865212;1.278828;-1.518156;1.358032;0.119119;0.254120;-0.578184;147.996826;-1.745384;162.514175;0.000000;0.000000;0.000000;0.000000;-459.000000;-401.000000;325.000000
1608555919;9;;;;;;;;;;;;;;;;;;0.274586;5.687857;-9.100572;1.285881;-1.524965;1.358032;0.127976;0.241292;-0.532369;147.996613;-1.717411;161.939209;0.000000;0.000000;0.000000;0.000000;-461.000000;-403.000000;325.000000
1608555919;10;466827997;67429808;926;879;19;21;278;606;12;3;47119;200358061;1;;;;;0.353039;5.923217;-9.100572;1.285881;-1.521560;1.354554;0.111177;0.202196;-0.496022;147.891113;-1.731890;161.577209;0.000000;0.000000;0.000000;0.000000;-461.000000;-402.000000;324.000000
1608555919;11;;;;;;;;;;;;;;92267474;78296;1031;79;0.862985;5.883990;-9.375158;1.296460;-1.531774;1.354554;0.092851;0.145691;-0.475558;147.890717;-2.004516;161.241608;0.000000;0.000000;0.000000;0.000000;-464.000000;-405.000000;324.000000
1608555919;12;;;;;;;;;;;;;;;;;;0.666852;5.962444;-9.218252;1.296460;-1.528369;1.354554;0.071166;0.104458;-0.446237;147.812149;-2.151662;160.999374;0.000000;0.000000;0.000000;0.000000;-464.000000;-404.000000;324.000000
1608555919;13;;;;;;;;;;;;;;92246309;78488;1115;79;0.353039;6.080123;-9.022118;1.303513;-1.521560;1.364988;0.058032;0.075136;-0.408363;147.633301;-2.122353;160.894394;0.000000;0.000000;0.000000;0.000000;-466.000000;-402.000000;327.000000
1608555919;14;466828274;67430424;927;880;20;21;280;583;11;3;47119;400357553;1;;;;;0.117680;5.883990;-8.982892;1.296460;-1.524965;1.361510;0.066279;0.039401;-0.360716;147.547424;-1.972905;160.615707;0.000000;0.000000;0.000000;0.000000;-464.000000;-403.000000;326.000000
1608555919;15;;;;;;;;;;;;;;;;;;0.156906;5.805537;-9.061345;1.310566;-1.524965;1.368466;0.070860;0.006720;-0.313679;147.527954;-1.859147;160.336838;0.000000;0.000000;0.000000;0.000000;-468.000000;-403.000000;328.000000
1608555919;16;;;;;;;;;;;;;;92228068;78653;1169;79;0.039227;5.883990;-8.865212;1.310566;-1.524965;1.371943;0.064141;-0.020769;-0.264810;147.417877;-1.694355;160.180420;0.000000;0.000000;0.000000;0.000000;-468.000000;-403.000000;329.000000
1608555919;17;;;;;;;;;;;;;;;;;;0.274586;6.040897;-9.100572;1.317618;-1.528369;1.371943;0.065057;-0.029932;-0.194255;147.318512;-1.668921;160.099655;0.000000;0.000000;0.000000;0.000000;-470.000000;-404.000000;329.000000
1608555919;18;466828575;67431026;928;881;19;21;283;556;12;3;47119;600357044;1;92208151;78833;1207;79;0.039227;5.805537;-9.139798;1.314092;-1.528369;1.371943;0.068417;-0.040623;-0.140194;147.344330;-1.522786;159.812973;0.000000;0.000000;0.000000;0.000000;-469.000000;-404.000000;329.000000
1608555919;19;;;;;;;;;;;;;;;;;;-0.078453;5.609404;-8.786759;1.324671;-1.528369;1.378899;0.076053;-0.069944;-0.079718;147.354523;-1.327388;159.567596;0.000000;0.000000;0.000000;0.000000;-472.000000;-404.000000;331.000000
1608555920;0;;;;;;;;;;;;;;;;;;0.117680;5.923217;-8.159133;1.321145;-1.524965;1.375421;0.091935;-0.098349;-0.022297;147.021255;-1.261521;159.852646;0.000000;0.000000;0.000000;0.000000;-471.000000;-403.000000;330.000000
1608555920;1;;;;;;;;;;;;;;92189153;79006;1236;79;0.549172;5.962444;-9.257478;1.317618;-1.524965;1.378899;0.090713;-0.128282;0.041539;147.040710;-1.420883;159.794586;0.000000;0.000000;0.000000;0.000000;-470.000000;-403.000000;331.000000
1608555920;2;466828878;67431623;929;881;19;21;285;535;12;3;47119;800356536;1;;;;;0.431493;5.687857;-9.139798;1.317618;-1.521560;1.385855;0.098044;-0.162490;0.084299;147.147186;-1.508328;159.630554;0.000000;0.000000;0.000000;0.000000;-470.000000;-402.000000;333.000000
1608555920;3;;;;;;;;;;;;;;92176696;79119;1236;79;0.274586;5.883990;-8.904439;1.310566;-1.524965;1.378899;0.101404;-0.188757;0.128587;147.086838;-1.504870;159.606018;0.000000;0.000000;0.000000;0.000000;-468.000000;-403.000000;331.000000
1608555920;4;;;;;;;;;;;;;;;;;;0.313813;6.040897;-8.943665;1.314092;-1.521560;1.375421;0.104763;-0.225409;0.189979;146.974503;-1.520933;159.675430;0.000000;0.000000;0.000000;0.000000;-469.000000;-402.000000;330.000000
1608555920;5;;;;;;;;;;;;;;;;;;0.235360;5.805537;-8.943665;1.314092;-1.524965;1.382377;0.097738;-0.261145;0.230602;146.978210;-1.495289;159.588486;0.000000;0.000000;0.000000;0.000000;-469.000000;-403.000000;332.000000
1608555920;6;466829191;67432203;929;882;19;21;288;516;12;3;47120;356028;1;92170934;79171;1191;79;0.353039;5.844764;-9.061345;1.310566;-1.524965;1.375421;0.081245;-0.284969;0.286496;146.998108;-1.533285;159.499710;0.000000;0.000000;0.000000;0.000000;-468.000000;-403.000000;330.000000
1608555920;7;;;;;;;;;;;;;;;;;;0.196133;5.766310;-9.492838;1.310566;-1.528369;1.382377;0.056200;-0.307571;0.332005;147.170700;-1.481122;159.186646;0.000000;0.000000;0.000000;0.000000;-468.000000;-404.000000;332.000000
1608555920;8;;;;;;;;;;;;;;92164349;79230;1119;79;0.235360;6.040897;-9.296705;1.299986;-1.528369;1.378899;0.065973;-0.319482;0.397673;147.152100;-1.454622;159.111801;0.000000;0.000000;0.000000;0.000000;-465.000000;-404.000000;331.000000
1608555920;9;;;;;;;;;;;;;;;;;;0.235360;5.883990;-9.335931;1.299986;-1.521560;1.382377;0.089797;-0.339336;0.446848;147.214783;-1.431339;158.971359;0.000000;0.000000;0.000000;0.000000;-465.000000;-402.000000;332.000000
1608555920;10;466829517;67432769;930;882;19;21;289;497;12;3;47120;200355521;1;;;;;0.392266;5.805537;-8.786759;1.303513;-1.524965;1.378899;0.131336;-0.371101;0.485332;147.147980;-1.501517;159.033463;0.000000;0.000000;0.000000;0.000000;-466.000000;-403.000000;331.000000
1608555920;11;;;;;;;;;;;;;;92156335;79303;1054;79;0.117680;5.923217;-8.708306;1.299986;-1.528369;1.382377;0.182649;-0.412029;0.531147;147.010925;-1.415384;159.110977;0.000000;0.000000;0.000000;0.000000;-465.000000;-404.000000;332.000000
1608555920;12;;;;;;;;;;;;;;;;;;0.392266;5.609404;-8.669079;1.285881;-1.528369;1.382377;0.194866;-0.440128;0.567799;147.019318;-1.491405;159.063492;0.000000;0.000000;0.000000;0.000000;-461.000000;-404.000000;332.000000
1608555920;13;;;;;;;;;;;;;;92149112;79369;988;79;0.196133;5.609404;-8.551399;1.285881;-1.524965;1.382377;0.193644;-0.492663;0.596815;146.991058;-1.452133;159.024338;0.000000;0.000000;0.000000;0.000000;-461.000000;-403.000000;332.000000
1608555920;14;466829872;67433319;930;883;19;21;292;472;11;3;47120;400355013;1;;;;;0.392266;5.609404;-9.179025;1.282355;-1.521560;1.396288;0.149357;-0.556193;0.608116;147.149002;-1.515757;158.837845;0.000000;0.000000;0.000000;0.000000;-460.000000;-402.000000;336.000000
1608555920;15;;;;;;;;;;;;;;;;;;0.392266;5.609404;-9.179025;1.271775;-1.524965;1.396288;0.120035;-0.587347;0.642936;147.291153;-1.573018;158.643509;0.000000;0.000000;0.000000;0.000000;-457.000000;-403.000000;336.000000
1608555920;16;;;;;;;;;;;;;;92142814;79426;926;79;0.196133;5.609404;-9.257478;1.261196;-1.514751;1.406721;0.082161;-0.602313;0.676533;147.440750;-1.519523;158.419739;0.000000;0.000000;0.000000;0.000000;-454.000000;-400.000000;339.000000
1608555920;17;;;;;;;;;;;;;;;;;;0.000000;5.648631;-9.100572;1.261196;-1.521560;1.417155;0.051313;-0.609949;0.724486;147.513947;-1.367570;158.239075;0.000000;0.000000;0.000000;0.000000;-454.000000;-402.000000;342.000000
1608555920;18;466830247;67433860;930;883;19;21;294;452;11;3;47120;600354505;1;92138980;79460;859;79;0.000000;5.452498;-9.100572;1.250617;-1.511347;1.424111;0.018021;-0.624610;0.772744;147.669830;-1.230813;157.985687;0.000000;0.000000;0.000000;0.000000;-451.000000;-399.000000;344.000000
1608555920;19;;;;;;;;;;;;;;;;;;0.156906;5.334818;-9.061345;1.254143;-1.507942;1.427588;0.003360;-0.628580;0.802066;147.854141;-1.193222;157.773712;0.000000;0.000000;0.000000;0.000000;-452.000000;-398.000000;345.000000
1608555921;0;;;;;;;;;;;;;;;;;;0.235360;5.334818;-9.139798;1.243564;-1.497729;1.438022;-0.002443;-0.625220;0.843910;148.041565;-1.201304;157.613831;0.000000;0.000000;0.000000;0.000000;-449.000000;-395.000000;348.000000
1608555921;1;;;;;;;;;;;;;;92132818;79516;797;79;0.313813;5.295591;-8.825985;1.240038;-1.490920;1.448455;0.019548;-0.649655;0.864069;148.141052;-1.255806;157.623291;0.000000;0.000000;0.000000;0.000000;-448.000000;-393.000000;351.000000
1608555921;2;466830636;67434387;931;884;19;20;296;431;11;3;47120;800353997;1;;;;;0.274586;5.256365;-8.355266;1.229459;-1.484111;1.476278;0.056200;-0.664010;0.881478;148.109528;-1.289565;157.852600;0.000000;0.000000;0.000000;0.000000;-445.000000;-391.000000;359.000000
1608555921;3;;;;;;;;;;;;;;92128106;79559;741;79;0.235360;5.374045;-8.198360;1.222406;-1.467088;1.493667;0.088881;-0.671341;0.914771;147.974091;-1.298147;158.287598;0.000000;0.000000;0.000000;0.000000;-443.000000;-386.000000;364.000000
1608555921;4;;;;;;;;;;;;;;;;;;0.353039;5.217138;-8.355266;1.222406;-1.463684;1.511056;0.101404;-0.678366;0.926682;147.978577;-1.373595;158.577820;0.000000;0.000000;0.000000;0.000000;-443.000000;-385.000000;369.000000
1608555921;5;;;;;;;;;;;;;;;;;;0.117680;5.256365;-8.590626;1.215353;-1.453470;1.531923;0.097738;-0.676839;0.942259;148.034607;-1.303181;158.764450;0.000000;0.000000;0.000000;0.000000;-441.000000;-382.000000;375.000000
1608555921;6;466831033;67434888;931;884;19;20;296;413;12;3;47121;353488;1;92123139;79604;689;79;0.156906;5.099458;-9.139798;1.208300;-1.433043;1.566701;0.078802;-0.681420;0.957837;148.315277;-1.258753;158.738098;0.000000;0.000000;0.000000;0.000000;-439.000000;-376.000000;385.000000
1608555921;7;;;;;;;;;;;;;;;;;;0.353039;5.452498;-9.453611;1.204774;-1.429639;1.584090;0.089492;-0.706771;0.952950;148.486282;-1.318162;158.927597;0.000000;0.000000;0.000000;0.000000;-438.000000;-375.000000;390.000000
1608555921;8;;;;;;;;;;;;;;92117578;79654;646;79;0.509946;5.256365;-8.669079;1.204774;-1.402403;1.622346;0.094990;-0.742812;0.947452;148.514679;-1.474299;159.505600;0.000000;0.000000;0.000000;0.000000;-438.000000;-367.000000;401.000000
1608555921;9;;;;;;;;;;;;;;;;;;0.470719;4.903325;-8.276813;1.197721;-1.398998;1.646691;0.105985;-0.755029;0.947146;148.598907;-1.606996;159.989868;0.000000;0.000000;0.000000;0.000000;-436.000000;-366.000000;408.000000
1608555921;10;466831435;67435373;932;884;19;20;295;396;12;3;47121;200352979;1;;;;;0.509946;4.785646;-8.355266;1.194195;-1.375167;1.684947;0.090713;-0.783129;0.929126;148.758759;-1.749456;160.466751;0.000000;0.000000;0.000000;0.000000;-435.000000;-359.000000;419.000000
1608555921;11;;;;;;;;;;;;;;92114523;79682;601;79;0.274586;4.981778;-8.865212;1.201248;-1.361549;1.709291;0.040928;-0.804815;0.908967;148.949524;-1.729184;160.868225;0.000000;0.000000;0.000000;0.000000;-437.000000;-355.000000;426.000000
1608555921;12;;;;;;;;;;;;;;;;;;0.392266;4.942552;-8.708306;1.194195;-1.334313;1.754503;-0.002138;-0.816727;0.910494;149.096802;-1.780607;161.484940;0.000000;0.000000;0.000000;0.000000;-435.000000;-347.000000;439.000000
1608555921;13;;;;;;;;;;;;;;92114475;79683;546;79;0.353039;4.981778;-9.100572;1.194195;-1.330909;1.778848;-0.037263;-0.776410;0.925155;149.317444;-1.797439;161.948990;0.000000;0.000000;0.000000;0.000000;-435.000000;-346.000000;446.000000
1608555921;14;466831853;67435845;932;885;19;20;296;380;12;3;47121;400352471;1;;;;;0.078453;5.060232;-8.943665;1.194195;-1.310482;1.831015;-0.046120;-0.734260;0.960585;149.435638;-1.661438;162.638245;0.000000;0.000000;0.000000;0.000000;-435.000000;-340.000000;461.000000
1608555921;15;;;;;;;;;;;;;;;;;;0.117680;5.217138;-8.904439;1.201248;-1.293459;1.851882;-0.022602;-0.690278;0.979217;149.455475;-1.560624;163.540466;0.000000;0.000000;0.000000;0.000000;-437.000000;-335.000000;467.000000
1608555921;16;;;;;;;;;;;;;;92118855;79643;472;79;0.274586;5.177911;-8.708306;1.204774;-1.269628;1.893616;-0.005192;-0.663400;0.993572;149.436386;-1.559810;164.629211;0.000000;0.000000;0.000000;0.000000;-438.000000;-328.000000;479.000000
1608555921;17;;;;;;;;;;;;;;;;;;0.353039;5.099458;-8.982892;1.197721;-1.252605;1.914483;0.003665;-0.662178;0.999070;149.534470;-1.599579;165.521164;0.000000;0.000000;0.000000;0.000000;-436.000000;-323.000000;485.000000
1608555921;18;466832282;67436302;932;885;19;20;297;364;12;3;47121;600351962;1;92131457;79529;357;79;0.431493;5.217138;-8.982892;1.204774;-1.228774;1.977083;-0.023213;-0.674090;0.985325;149.566299;-1.677477;166.662567;0.000000;0.000000;0.000000;0.000000;-438.000000;-316.000000;503.000000
1608555921;19;;;;;;;;;;;;;;;;;;0.470719;5.413271;-8.825985;1.197721;-1.215156;2.001428;-0.004581;-0.694859;0.964251;149.457458;-1.770036;168.042740;0.000000;0.000000;0.000000;0.000000;-436.000000;-312.000000;510.000000
1608555922;0;;;;;;;;;;;;;;;;;;0.588399;5.413271;-8.904439;1.204774;-1.191324;2.057073;0.031154;-0.716850;0.936762;149.382065;-1.916205;169.455276;0.000000;0.000000;0.000000;0.000000;-438.000000;-305.000000;526.000000
1608555922;1;;;;;;;;;;;;;;92150239;79358;204;79;0.588399;5.452498;-8.433719;1.211827;-1.181111;2.077940;0.061087;-0.749226;0.907440;149.155563;-2.059893;171.086548;0.000000;0.000000;0.000000;0.000000;-440.000000;-302.000000;532.000000
1608555922;2;466832733;67436761;932;885;19;20;304;349;12;3;47121;800351454;1;;;;;0.549172;5.452498;-8.708306;1.211827;-1.153875;2.130107;0.064752;-0.775799;0.893085;149.034851;-2.159860;172.627258;0.000000;0.000000;0.000000;0.000000;-440.000000;-294.000000;547.000000
1608555922;3;;;;;;;;;;;;;;92172200;79159;26;79;0.392266;5.295591;-8.865212;1.215353;-1.143661;2.154452;0.045815;-0.773355;0.880257;149.046204;-2.161417;173.902237;0.000000;0.000000;0.000000;0.000000;-441.000000;-291.000000;554.000000
1608555922;4;;;;;;;;;;;;;;;;;;0.117680;5.256365;-8.982892;1.225932;-1.113021;2.206619;-0.006720;-0.772744;0.866512;149.108185;-2.010056;175.211349;0.000000;0.000000;0.000000;0.000000;-444.000000;-282.000000;569.000000
1608555922;5;;;;;;;;;;;;;;;;;;0.117680;5.256365;-9.100572;1.222406;-1.106212;2.227486;-0.048564;-0.777326;0.861931;149.196365;-1.873205;176.402313;0.000000;0.000000;0.000000;0.000000;-443.000000;-280.000000;575.000000
1608555922;6;;;;;;;;;;;;;;92196183;78942;-160;79;0.235360;5.374045;-9.179025;1.225932;-1.085785;2.283131;-0.088881;-0.776410;0.853379;149.241974;-1.812646;177.721268;0.000000;0.000000;0.000000;0.000000;-444.000000;-274.000000;591.000000
1608555922;7;466833189;67437183;932;885;19;20;305;329;12;3;47122;350947;1;;;;;0.274586;5.177911;-9.492838;1.243564;-1.085785;2.303998;-0.109650;-0.767247;0.860404;149.456741;-1.776845;178.603790;0.000000;0.000000;0.000000;0.000000;-449.000000;-274.000000;597.000000
1608555922;8;;;;;;;;;;;;;;92219874;78727;-343;79;0.039227;5.256365;-9.296705;1.247091;-1.055144;2.349209;-0.107512;-0.756251;0.880562;149.562698;-1.620205;179.814789;0.000000;0.000000;0.000000;0.000000;-450.000000;-265.000000;610.000000
1608555922;9;;;;;;;;;;;;;;;;;;0.078453;5.452498;-9.022118;1.250617;-1.048335;2.366598;-0.095906;-0.744645;0.882395;149.491791;-1.500824;181.276947;0.000000;0.000000;0.000000;0.000000;-451.000000;-263.000000;615.000000
1608555922;10;466833661;67437585;932;885;19;20;306;310;11;3;47122;200350439;1;;;;;-0.039227;5.609404;-9.179025;1.261196;-1.031313;2.408332;-0.066890;-0.707993;0.915992;149.399673;-1.329849;182.820465;0.000000;0.000000;0.000000;0.000000;-454.000000;-258.000000;627.000000
1608555922;11;;;;;;;;;;;;;;92244292;78506;-516;79;0.235360;5.413271;-9.139798;1.264723;-1.024504;2.422244;-0.040623;-0.701273;0.931264;149.395996;-1.323791;184.032806;0.000000;0.000000;0.000000;0.000000;-455.000000;-256.000000;631.000000
1608555922;12;;;;;;;;;;;;;;;;;;0.196133;5.530951;-9.139798;1.271775;-1.010886;2.460500;-0.018631;-0.708298;0.921795;149.338379;-1.296591;185.351410;0.000000;0.000000;0.000000;0.000000;-457.000000;-252.000000;642.000000
1608555922;13;;;;;;;;;;;;;;;;;;0.196133;5.452498;-9.257478;1.278828;-1.000672;2.484844;-0.025045;-0.711047;0.921490;149.354813;-1.271516;186.489105;0.000000;0.000000;0.000000;0.000000;-459.000000;-249.000000;649.000000
1608555922;14;466834148;67437967;932;885;19;20;307;293;11;3;47122;400349931;1;92268372;78288;-671;79;0.156906;5.648631;-9.453611;1.282355;-0.983650;2.519622;-0.032070;-0.723875;0.907135;149.333466;-1.225993;187.714493;0.000000;0.000000;0.000000;0.000000;-460.000000;-244.000000;659.000000
1608555922;15;;;;;;;;;;;;;;;;;;0.117680;5.648631;-9.375158;1.296460;-0.966627;2.550923;-0.023824;-0.739758;0.896139;149.293198;-1.164993;188.966553;0.000000;0.000000;0.000000;0.000000;-464.000000;-239.000000;668.000000
1608555922;16;;;;;;;;;;;;;;92293256;78065;-809;79;0.156906;5.491724;-9.532064;1.303513;-0.963223;2.561356;-0.036041;-0.738231;0.904080;149.369125;-1.130210;189.900848;0.000000;0.000000;0.000000;0.000000;-466.000000;-238.000000;671.000000
1608555922;17;;;;;;;;;;;;;;;;;;0.117680;5.491724;-9.885103;1.310566;-0.949605;2.596134;-0.099876;-0.733038;0.901026;149.526764;-1.076813;190.693924;0.000000;0.000000;0.000000;0.000000;-468.000000;-234.000000;681.000000
1608555922;18;466834646;67438335;933;885;19;21;309;279;11;3;47122;600349422;1;;;;;-0.196133;5.530951;-9.924331;1.317618;-0.949605;2.610045;-0.166461;-0.719905;0.916603;149.660950;-0.870232;191.539825;0.000000;0.000000;0.000000;0.000000;-470.000000;-234.000000;685.000000
1608555922;19;;;;;;;;;;;;;;92318282;77842;-935;79;-0.039227;5.530951;-10.002784;1.328198;-0.935987;2.637868;-0.222966;-0.719599;0.929126;149.800873;-0.763545;192.298538;0.000000;0.000000;0.000000;0.000000;-473.000000;-230.000000;693.000000
1608555923;0;;;;;;;;;;;;;;;;;;0.000000;5.687857;-9.492838;1.338777;-0.939391;2.641346;-0.237627;-0.729984;0.929431;149.727905;-0.687191;193.308563;0.000000;0.000000;0.000000;0.000000;-476.000000;-231.000000;694.000000
1608555923;1;;;;;;;;;;;;;;92342275;77629;-1044;79;-0.156906;5.491724;-9.649744;1.349356;-0.942796;2.655257;-0.233350;-0.711047;0.954477;149.790680;-0.537507;194.043579;0.000000;0.000000;0.000000;0.000000;-479.000000;-232.000000;698.000000
1608555923;2;466835147;67438689;933;885;19;21;310;268;12;3;47122;800348914;1;;;;;-0.078453;5.570177;-9.375158;1.342303;-0.939391;2.658735;-0.200669;-0.683864;0.982577;149.739990;-0.442537;194.899216;0.000000;0.000000;0.000000;0.000000;-477.000000;-231.000000;699.000000
1608555923;3;;;;;;;;;;;;;;;;;;-0.039227;5.687857;-9.296705;1.359935;-0.935987;2.665691;-0.172264;-0.691805;0.986547;149.620117;-0.377662;195.779922;0.000000;0.000000;0.000000;0.000000;-482.000000;-230.000000;701.000000
1608555923;4;;;;;;;;;;;;;;92361469;77458;-1120;79;0.000000;5.570177;-9.414384;1.352882;-0.942796;2.665691;-0.142637;-0.741590;0.969138;149.596985;-0.339896;196.399734;0.000000;0.000000;0.000000;0.000000;-480.000000;-232.000000;701.000000
1608555923;5;;;;;;;;;;;;;;;;;;0.039227;5.570177;-9.257478;1.366988;-0.946200;2.669168;-0.139277;-0.764803;0.969748;149.533783;-0.326708;196.991898;0.000000;0.000000;0.000000;0.000000;-484.000000;-233.000000;702.000000
1608555923;6;466835655;67439029;933;886;19;21;310;256;12;3;47123;348406;1;92370898;77374;-1137;79;-0.274586;5.727084;-9.649744;1.370514;-0.946200;2.672646;-0.129503;-0.782518;0.977995;149.511520;-0.153862;197.584045;0.000000;0.000000;0.000000;0.000000;-485.000000;-233.000000;703.000000
1608555923;7;;;;;;;;;;;;;;;;;;-0.039227;5.962444;-9.649744;1.391672;-0.942796;2.679602;-0.116675;-0.790459;0.999375;149.389252;-0.118662;198.194870;0.000000;0.000000;0.000000;0.000000;-491.000000;-232.000000;705.000000
1608555923;8;;;;;;;;;;;;;;;;;;-0.274586;5.844764;-9.610517;1.391672;-0.946200;2.672646;-0.132252;-0.801150;0.994183;149.319702;0.033044;198.742920;0.000000;0.000000;0.000000;0.000000;-491.000000;-233.000000;703.000000
1608555923;9;;;;;;;;;;;;;;92369785;77384;-1078;79;-0.117680;5.727084;-9.885103;1.402252;-0.953009;2.669168;-0.170126;-0.813061;1.002430;149.379089;0.088757;198.918427;0.000000;0.000000;0.000000;0.000000;-494.000000;-235.000000;702.000000
1608555923;10;466836161;67439359;933;886;19;21;309;248;12;3;47123;200347898;1;;;;;-0.353039;5.805537;-10.042010;1.405778;-0.963223;2.665691;-0.204640;-0.800233;1.014342;149.437866;0.254213;199.101929;0.000000;0.000000;0.000000;0.000000;-495.000000;-238.000000;701.000000
1608555923;11;;;;;;;;;;;;;;92365152;77425;-961;79;-0.431493;5.844764;-9.806650;1.419884;-0.976841;2.644824;-0.213192;-0.772439;1.036944;149.414597;0.445245;199.331482;0.000000;0.000000;0.000000;0.000000;-499.000000;-242.000000;695.000000
1608555923;12;;;;;;;;;;;;;;;;;;-0.392266;6.001670;-9.767424;1.423410;-0.983650;2.634390;-0.197615;-0.726319;1.070847;149.316254;0.596695;199.614838;0.000000;0.000000;0.000000;0.000000;-500.000000;-244.000000;692.000000
1608555923;13;;;;;;;;;;;;;;;;;;-0.313813;5.923217;-9.963557;1.430463;-1.000672;2.617001;-0.191201;-0.684169;1.101390;149.311539;0.692106;199.593002;0.000000;0.000000;0.000000;0.000000;-502.000000;-249.000000;687.000000
1608555923;14;466836675;67439691;933;886;19;21;311;244;10;3;47123;400347389;1;92351036;77551;-789;79;-0.156906;5.962444;-9.767424;1.433989;-1.007481;2.603090;-0.178678;-0.665843;1.098030;149.240234;0.701451;199.590836;0.000000;0.000000;0.000000;0.000000;-503.000000;-251.000000;683.000000
1608555923;15;;;;;;;;;;;;;;;;;;-0.156906;6.080123;-9.963557;1.441042;-1.024504;2.575267;-0.162490;-0.675006;1.078788;149.176910;0.708323;199.471130;0.000000;0.000000;0.000000;0.000000;-505.000000;-256.000000;675.000000
1608555923;16;;;;;;;;;;;;;;92323280;77798;-546;79;0.196133;6.080123;-9.924331;1.444568;-1.034717;2.554400;-0.162490;-0.687223;1.051910;149.109863;0.540946;199.211838;0.000000;0.000000;0.000000;0.000000;-506.000000;-259.000000;669.000000
1608555923;17;;;;;;;;;;;;;;;;;;0.078453;6.080123;-10.081236;1.441042;-1.051740;2.523100;-0.162490;-0.693637;1.028391;149.089417;0.448671;198.832703;0.000000;0.000000;0.000000;0.000000;-505.000000;-264.000000;660.000000
1608555923;18;466837185;67440001;934;886;19;21;310;235;11;3;47123;600346881;1;;;;;0.000000;5.883990;-9.924331;1.437515;-1.055144;2.519622;-0.164628;-0.685085;1.012204;149.114182;0.403804;198.420319;0.000000;0.000000;0.000000;0.000000;-504.000000;-265.000000;659.000000
1608555923;19;;;;;;;;;;;;;;92287381;78117;-242;79;0.000000;5.844764;-10.238143;1.441042;-1.075571;2.481366;-0.163406;-0.687223;0.974635;149.230652;0.363423;197.739563;0.000000;0.000000;0.000000;0.000000;-505.000000;-271.000000;648.000000
1608555924;0;;;;;;;;;;;;;;;;;;0.039227;5.648631;-10.395050;1.451621;-1.089189;2.460500;-0.170126;-0.657291;0.969748;149.455658;0.308083;196.813644;0.000000;0.000000;0.000000;0.000000;-508.000000;-275.000000;642.000000
1608555924;1;;;;;;;;;;;;;;92252217;78434;86;79;-0.117680;6.237030;-10.198917;1.441042;-1.116425;2.436155;-0.191506;-0.605978;0.952950;149.365372;0.333674;196.401123;0.000000;0.000000;0.000000;0.000000;-505.000000;-283.000000;635.000000
1608555924;2;466837698;67440318;934;887;19;21;310;233;9;3;47123;800346373;1;;;;;-0.117680;6.040897;-9.963557;1.444568;-1.119830;2.408332;-0.189063;-0.544892;0.941954;149.306000;0.358171;195.920959;0.000000;0.000000;0.000000;0.000000;-506.000000;-284.000000;627.000000
1608555924;3;;;;;;;;;;;;;;;;;;-0.078453;6.119350;-10.081236;1.448095;-1.143661;2.370076;-0.186925;-0.488081;0.921795;149.249619;0.360469;195.328491;0.000000;0.000000;0.000000;0.000000;-507.000000;-291.000000;616.000000
1608555924;4;;;;;;;;;;;;;;92225950;78672;367;79;0.000000;6.080123;-10.081236;1.451621;-1.157279;2.345731;-0.163101;-0.446542;0.899499;149.215195;0.324422;194.659241;0.000000;0.000000;0.000000;0.000000;-508.000000;-295.000000;609.000000
1608555924;5;;;;;;;;;;;;;;;;;;0.039227;6.197803;-9.963557;1.444568;-1.177706;2.314431;-0.152716;-0.399506;0.861014;149.105331;0.272826;194.063629;0.000000;0.000000;0.000000;0.000000;-506.000000;-301.000000;600.000000
1608555924;6;466838207;67440634;934;887;19;22;309;232;10;3;47124;345865;1;92206692;78847;575;79;-0.039227;6.040897;-9.767424;1.444568;-1.181111;2.300520;-0.133779;-0.378126;0.801760;149.021240;0.265113;193.472061;0.000000;0.000000;0.000000;0.000000;-506.000000;-302.000000;596.000000
1608555924;7;;;;;;;;;;;;;;;;;;0.392266;6.197803;-9.688971;1.444568;-1.208347;2.265742;-0.118813;-0.367130;0.747088;148.858521;0.043270;192.880203;0.000000;0.000000;0.000000;0.000000;-506.000000;-310.000000;586.000000
1608555924;8;;;;;;;;;;;;;;;;;;0.235360;6.315483;-9.257478;1.441042;-1.211751;2.248353;-0.102014;-0.363159;0.662178;148.542480;-0.081372;192.601929;0.000000;0.000000;0.000000;0.000000;-505.000000;-311.000000;581.000000
1608555924;9;;;;;;;;;;;;;;92192169;78978;709;79;0.156906;6.080123;-9.963557;1.437515;-1.232178;2.224008;-0.109345;-0.348193;0.618806;148.548935;-0.150252;191.756439;0.000000;0.000000;0.000000;0.000000;-504.000000;-317.000000;574.000000
1608555924;10;466838705;67440940;934;887;19;22;306;230;10;3;47124;200345357;1;;;;;0.235360;5.883990;-9.806650;1.433989;-1.232178;2.210097;-0.103236;-0.332311;0.545808;148.597687;-0.253124;190.890945;0.000000;0.000000;0.000000;0.000000;-503.000000;-317.000000;570.000000
1608555924;11;;;;;;;;;;;;;;92177966;79107;795;79;0.000000;6.001670;-9.806650;1.433989;-1.245796;2.178797;-0.094073;-0.300546;0.476780;148.591263;-0.227811;190.100220;0.000000;0.000000;0.000000;0.000000;-503.000000;-321.000000;561.000000
1608555924;12;;;;;;;;;;;;;;;;;;0.039227;5.805537;-9.532064;1.433989;-1.259414;2.157930;-0.105374;-0.255647;0.434631;148.597778;-0.225168;189.276276;0.000000;0.000000;0.000000;0.000000;-503.000000;-325.000000;555.000000
1608555924;13;;;;;;;;;;;;;;;;;;0.000000;5.883990;-9.453611;1.430463;-1.266223;2.147496;-0.112094;-0.211054;0.392481;148.548172;-0.202651;188.587875;0.000000;0.000000;0.000000;0.000000;-502.000000;-327.000000;552.000000
1608555924;14;466839203;67441247;935;888;19;22;305;231;10;3;47124;400344849;1;92168045;79197;839;79;-0.078453;6.119350;-9.335931;1.423410;-1.276437;2.137063;-0.105680;-0.136834;0.361327;148.369034;-0.142118;188.152084;0.000000;0.000000;0.000000;0.000000;-500.000000;-330.000000;549.000000
1608555924;15;;;;;;;;;;;;;;;;;;-0.039227;6.119350;-9.296705;1.430463;-1.283246;2.119674;-0.109345;-0.080940;0.310319;148.196747;-0.107713;187.713287;0.000000;0.000000;0.000000;0.000000;-502.000000;-332.000000;544.000000
1608555924;16;;;;;;;;;;;;;;92157756;79290;850;79;0.117680;5.962444;-9.375158;1.419884;-1.283246;2.102285;-0.105069;-0.061697;0.257785;148.131516;-0.157625;187.121704;0.000000;0.000000;0.000000;0.000000;-499.000000;-332.000000;539.000000
1608555924;17;;;;;;;;;;;;;;;;;;0.039227;6.119350;-9.296705;1.426936;-1.296864;2.091851;-0.090713;-0.025656;0.203113;147.982971;-0.162056;186.676208;0.000000;0.000000;0.000000;0.000000;-501.000000;-336.000000;536.000000
1608555924;18;466839701;67441554;935;888;20;22;304;231;11;3;47124;600344341;1;;;;;0.039227;6.354709;-9.100572;1.419884;-1.307077;2.088373;-0.080940;0.039706;0.155160;147.692123;-0.166099;186.504486;0.000000;0.000000;0.000000;0.000000;-499.000000;-339.000000;535.000000
1608555924;19;;;;;;;;;;;;;;92146535;79392;855;79;0.039227;6.040897;-9.022118;1.423410;-1.296864;2.081418;-0.069333;0.076053;0.098349;147.542435;-0.170189;186.175415;0.000000;0.000000;0.000000;0.000000;-500.000000;-336.000000;533.000000
1608555925;0;;;;;;;;;;;;;;;;;;0.196133;6.158576;-9.179025;1.423410;-1.310482;2.074462;-0.068417;0.071166;0.020159;147.402283;-0.254824;185.821609;0.000000;0.000000;0.000000;0.000000;-500.000000;-340.000000;531.000000
1608555925;1;;;;;;;;;;;;;;92137500;79474;848;79;0.274586;5.962444;-9.218252;1.423410;-1.307077;2.067506;-0.067806;0.071166;-0.058643;147.372559;-0.372616;185.337341;0.000000;0.000000;0.000000;0.000000;-500.000000;-339.000000;529.000000
1608555925;2;466840199;67441859;935;888;20;22;302;230;11;3;47124;800343833;1;;;;;0.117680;5.766310;-8.904439;1.416357;-1.313886;2.064029;-0.081550;0.085216;-0.131947;147.342697;-0.398910;184.879333;0.000000;0.000000;0.000000;0.000000;-498.000000;-341.000000;528.000000
1608555925;3;;;;;;;;;;;;;;;;;;0.196133;6.080123;-9.100572;1.419884;-1.313886;2.060551;-0.099266;0.114537;-0.196088;147.233734;-0.461683;184.595673;0.000000;0.000000;0.000000;0.000000;-499.000000;-341.000000;527.000000
1608555925;4;;;;;;;;;;;;;;92130406;79538;826;79;0.117680;6.119350;-9.492838;1.423410;-1.313886;2.064029;-0.106291;0.133474;-0.259312;147.229675;-0.475212;184.191437;0.000000;0.000000;0.000000;0.000000;-500.000000;-341.000000;528.000000
1608555925;5;;;;;;;;;;;;;;;;;;0.117680;6.158576;-9.492838;1.416357;-1.313886;2.070984;-0.099266;0.162185;-0.304516;147.209335;-0.487275;183.871246;0.000000;0.000000;0.000000;0.000000;-498.000000;-341.000000;530.000000
1608555925;6;466840702;67442168;936;889;20;23;302;231;11;3;47125;343324;1;92120499;79628;806;79;0.000000;6.080123;-9.414384;1.416357;-1.313886;2.067506;-0.097128;0.192423;-0.358272;147.202850;-0.438548;183.556763;0.000000;0.000000;0.000000;0.000000;-498.000000;-341.000000;529.000000
1608555925;7;;;;;;;;;;;;;;;;;;0.078453;6.119350;-9.532064;1.412831;-1.313886;2.067506;-0.110567;0.255036;-0.401644;147.212631;-0.434376;183.246277;0.000000;0.000000;0.000000;0.000000;-497.000000;-341.000000;529.000000
1608555925;8;;;;;;;;;;;;;;;;;;-0.039227;6.119350;-9.571291;1.423410;-1.310482;2.070984;-0.119424;0.315817;-0.439517;147.232117;-0.371154;182.968018;0.000000;0.000000;0.000000;0.000000;-500.000000;-340.000000;530.000000
1608555925;9;;;;;;;;;;;;;;92113125;79695;783;79;0.000000;6.119350;-9.571291;1.419884;-1.307077;2.074462;-0.109345;0.335060;-0.488998;147.249664;-0.334039;182.736542;0.000000;0.000000;0.000000;0.000000;-499.000000;-339.000000;531.000000
