Time;Fraction;Latitude;Longitude;Height_ellipsoid;Height_msl;Accuracy_hor;Accuracy_ver;Speed_gnd;Heading;Satellites;Fix;TimeOfDay;Nanoseconds;Time_Valid;Pressure;Altitude;Vario;Temperature;Acc_X;Acc_Y;Acc_Z;Mag_X;Mag_Y;Mag_Z;Gyro_X;Gyro_Y;Gyro_Z;Roll;Pitch;Yaw;Quat0;Quat1;Quat2;Quat3;Temp_X;Temp_Y;Temp_Z
s;;°/1e7;°/1e7;m;m;dm;dm;dm/s;°/10;;;sec;ns;;mPA;cm;cm/s;°C/10;m/s^2;m/s^2;m/s^2;Gauss;Gauss;Gauss;rad/s;rad/s;rad/s;°;°;°;;;;;;;
1608556167;2;;;;;;;;;;;;;;;;;;0.784532;5.609404;-8.943665;1.402252;-0.758953;2.863926;0.095295;0.340863;-0.403476;146.965210;-4.451108;208.277618;0.000000;0.000000;0.000000;0.000000;-494.000000;-178.000000;758.000000
1608556167;3;466839016;67421769;905;858;27;29;172;907;12;3;47366;799723331;1;92443025;76732;793;78;0.823759;5.648631;-8.512172;1.381093;-0.752144;2.863926;0.151189;0.386372;-0.461509;146.911896;-4.467006;208.534973;0.000000;0.000000;0.000000;0.000000;-488.000000;-176.000000;758.000000
1608556167;4;;;;;;;;;;;;;;;;;;0.823759;5.648631;-8.276813;1.374041;-0.752144;2.888271;0.167377;0.418443;-0.469144;146.789505;-4.490257;208.900284;0.000000;0.000000;0.000000;0.000000;-486.000000;-176.000000;765.000000
1608556167;5;;;;;;;;;;;;;;92431058;76839;803;78;0.745305;5.609404;-8.472946;1.374041;-0.752144;2.881315;0.161879;0.452040;-0.480751;146.759964;-4.460721;209.153214;0.000000;0.000000;0.000000;0.000000;-486.000000;-176.000000;763.000000
1608556167;6;466839034;67422264;906;859;28;29;182;896;11;3;47367;-277187;1;;;;;0.509946;5.805537;-8.747532;1.352882;-0.752144;2.881315;0.158214;0.471282;-0.501520;146.726852;-4.292728;209.538788;0.000000;0.000000;0.000000;0.000000;-480.000000;-176.000000;763.000000
1608556167;7;;;;;;;;;;;;;;;;;;0.941438;5.844764;-8.590626;1.356409;-0.745335;2.874359;0.155465;0.506102;-0.506102;146.631180;-4.381180;209.782028;0.000000;0.000000;0.000000;0.000000;-481.000000;-174.000000;761.000000
1608556167;8;;;;;;;;;;;;;;92420032;76937;806;78;0.941438;5.452498;-8.943665;1.349356;-0.745335;2.870882;0.143859;0.522290;-0.532980;146.831223;-4.456643;209.626953;0.000000;0.000000;0.000000;0.000000;-479.000000;-174.000000;760.000000
1608556167;9;;;;;;;;;;;;;;;;;;0.980665;5.413271;-8.747532;1.352882;-0.741930;2.870882;0.129809;0.532064;-0.544281;146.973053;-4.555536;209.521606;0.000000;0.000000;0.000000;0.000000;-480.000000;-173.000000;760.000000
1608556167;10;466839078;67422783;907;860;28;29;190;872;12;3;47367;199722293;1;92409414;77031;803;78;0.862985;5.609404;-8.825985;1.349356;-0.738526;2.863926;0.098349;0.553749;-0.572686;147.031937;-4.571728;209.577347;0.000000;0.000000;0.000000;0.000000;-479.000000;-172.000000;758.000000
1608556167;11;;;;;;;;;;;;;;;;;;0.941438;5.491724;-9.414384;1.335250;-0.741930;2.846537;0.049786;0.557414;-0.609033;147.303116;-4.608239;209.294708;0.000000;0.000000;0.000000;0.000000;-475.000000;-173.000000;753.000000
1608556167;12;;;;;;;;;;;;;;;;;;0.784532;5.570177;-9.179025;1.335250;-0.748739;2.839581;0.045509;0.572381;-0.623999;147.447723;-4.565325;209.211105;0.000000;0.000000;0.000000;0.000000;-475.000000;-175.000000;751.000000
1608556167;13;;;;;;;;;;;;;;92398777;77126;798;78;1.019892;5.844764;-9.414384;1.317618;-0.758953;2.825670;0.042761;0.563218;-0.646601;147.519623;-4.634653;209.122559;0.000000;0.000000;0.000000;0.000000;-470.000000;-178.000000;747.000000
1608556167;14;466839127;67423321;908;861;28;29;197;852;12;3;47367;399721774;1;;;;;1.059118;5.962444;-9.139798;1.321145;-0.758953;2.811759;0.053756;0.536340;-0.689361;147.455795;-4.725529;209.174789;0.000000;0.000000;0.000000;0.000000;-471.000000;-178.000000;743.000000
1608556167;15;;;;;;;;;;;;;;92389110;77212;789;78;0.784532;5.805537;-9.100572;1.314092;-0.765762;2.794370;0.052840;0.525039;-0.707993;147.456726;-4.668659;209.213760;0.000000;0.000000;0.000000;0.000000;-469.000000;-180.000000;738.000000
1608556167;16;;;;;;;;;;;;;;;;;;0.862985;5.805537;-9.139798;1.303513;-0.769166;2.787414;0.060476;0.531453;-0.711963;147.468719;-4.657485;209.201691;0.000000;0.000000;0.000000;0.000000;-466.000000;-181.000000;736.000000
1608556167;17;;;;;;;;;;;;;;;;;;0.745305;5.883990;-9.179025;1.299986;-0.786189;2.759592;0.053756;0.531147;-0.716239;147.455765;-4.582789;209.195099;0.000000;0.000000;0.000000;0.000000;-465.000000;-186.000000;728.000000
1608556167;18;466839182;67423871;909;862;28;29;203;833;12;3;47367;599721255;1;92383622;77261;764;78;0.627626;6.040897;-9.218252;1.296460;-0.792998;2.745680;0.070860;0.554666;-0.706160;147.386444;-4.450439;209.289566;0.000000;0.000000;0.000000;0.000000;-464.000000;-188.000000;724.000000
1608556167;19;;;;;;;;;;;;;;;;;;0.509946;6.080123;-9.218252;1.289407;-0.806616;2.717858;0.062003;0.574824;-0.692721;147.307037;-4.269793;209.382446;0.000000;0.000000;0.000000;0.000000;-462.000000;-192.000000;716.000000
1608556168;0;;;;;;;;;;;;;;92384791;77250;706;78;0.549172;6.040897;-9.375158;1.285881;-0.816829;2.707424;0.063835;0.587652;-0.677755;147.296768;-4.124714;209.325058;0.000000;0.000000;0.000000;0.000000;-461.000000;-195.000000;713.000000
1608556168;1;;;;;;;;;;;;;;;;;;0.666852;5.766310;-9.335931;1.271775;-0.820234;2.676124;0.041539;0.607200;-0.664927;147.396957;-4.060009;209.022095;0.000000;0.000000;0.000000;0.000000;-457.000000;-196.000000;704.000000
1608556168;2;466839223;67424432;910;862;28;29;210;826;11;3;47367;799720737;1;;;;;0.588399;5.727084;-9.571291;1.261196;-0.833852;2.658735;0.013439;0.617890;-0.660651;147.567810;-3.955980;208.605667;0.000000;0.000000;0.000000;0.000000;-454.000000;-200.000000;699.000000
1608556168;3;;;;;;;;;;;;;;92391752;77188;610;78;0.706079;5.962444;-9.492838;1.264723;-0.847470;2.627434;-0.016799;0.591928;-0.675617;147.597748;-3.920792;208.287155;0.000000;0.000000;0.000000;0.000000;-455.000000;-204.000000;690.000000
1608556168;4;;;;;;;;;;;;;;;;;;0.862985;6.001670;-9.453611;1.250617;-0.854279;2.606568;-0.016493;0.577268;-0.676533;147.597031;-3.969405;207.955597;0.000000;0.000000;0.000000;0.000000;-451.000000;-206.000000;684.000000
1608556168;5;;;;;;;;;;;;;;92403279;77086;477;78;0.980665;6.119350;-9.375158;1.247091;-0.874706;2.564834;-0.003665;0.550084;-0.674701;147.524017;-4.073066;207.606293;0.000000;0.000000;0.000000;0.000000;-450.000000;-212.000000;672.000000
1608556168;6;466839284;67425012;910;863;28;29;216;813;11;3;47368;-279780;1;;;;;0.784532;6.080123;-9.453611;1.247091;-0.881515;2.547445;-0.001527;0.536950;-0.679282;147.496902;-4.065025;207.250671;0.000000;0.000000;0.000000;0.000000;-450.000000;-214.000000;667.000000
1608556168;7;;;;;;;;;;;;;;;;;;1.098345;6.001670;-9.532064;1.236511;-0.901942;2.502233;-0.033598;0.507324;-0.684474;147.527649;-4.215444;206.628204;0.000000;0.000000;0.000000;0.000000;-447.000000;-220.000000;654.000000
1608556168;8;;;;;;;;;;;;;;92417973;76955;321;78;0.823759;5.883990;-9.571291;1.236511;-0.908751;2.488322;-0.061697;0.462730;-0.699135;147.616760;-4.213237;206.004608;0.000000;0.000000;0.000000;0.000000;-447.000000;-222.000000;650.000000
1608556168;9;;;;;;;;;;;;;;;;;;1.098345;5.923217;-9.571291;1.232985;-0.925773;2.443110;-0.068722;0.436769;-0.678977;147.679962;-4.349241;205.269791;0.000000;0.000000;0.000000;0.000000;-446.000000;-227.000000;637.000000
1608556168;10;466839385;67425605;911;864;28;29;222;790;11;3;47368;199719700;1;92434391;76809;154;78;0.902212;6.001670;-9.532064;1.222406;-0.946200;2.425721;-0.062919;0.441350;-0.659429;147.692413;-4.372256;204.649628;0.000000;0.000000;0.000000;0.000000;-443.000000;-233.000000;632.000000
1608556168;11;;;;;;;;;;;;;;;;;;0.902212;6.237030;-9.571291;1.222406;-0.963223;2.383987;-0.062308;0.443183;-0.632551;147.614197;-4.386584;204.108276;0.000000;0.000000;0.000000;0.000000;-443.000000;-238.000000;620.000000
1608556168;12;;;;;;;;;;;;;;;;;;0.745305;6.237030;-9.414384;1.229459;-0.976841;2.370076;-0.044899;0.442266;-0.616668;147.500336;-4.325515;203.653107;0.000000;0.000000;0.000000;0.000000;-445.000000;-242.000000;616.000000
1608556168;13;;;;;;;;;;;;;;92450724;76664;-7;78;0.862985;6.158576;-9.532064;1.211827;-0.990459;2.324865;-0.044593;0.422108;-0.618501;147.463699;-4.327827;202.997437;0.000000;0.000000;0.000000;0.000000;-440.000000;-246.000000;603.000000
1608556168;14;466839486;67426208;912;864;28;29;228;774;11;3;47368;399719181;1;;;;;0.980665;6.119350;-9.610517;1.211827;-1.007481;2.303998;-0.038179;0.412945;-0.610865;147.468704;-4.386997;202.224152;0.000000;0.000000;0.000000;0.000000;-440.000000;-251.000000;597.000000
1608556168;15;;;;;;;;;;;;;;92465270;76534;-151;78;0.941438;6.001670;-9.610517;1.208300;-1.024504;2.269220;-0.045815;0.403782;-0.610865;147.523407;-4.423267;201.331955;0.000000;0.000000;0.000000;0.000000;-439.000000;-256.000000;587.000000
1608556168;16;;;;;;;;;;;;;;;;;;1.019892;6.119350;-9.610517;1.211827;-1.031313;2.244875;-0.044288;0.389732;-0.614530;147.522446;-4.492469;200.524490;0.000000;0.000000;0.000000;0.000000;-440.000000;-258.000000;580.000000
1608556168;17;;;;;;;;;;;;;;;;;;1.019892;6.197803;-9.688971;1.201248;-1.048335;2.203141;-0.053756;0.388510;-0.628275;147.509613;-4.549957;199.688690;0.000000;0.000000;0.000000;0.000000;-437.000000;-263.000000;568.000000
1608556168;18;466839616;67426812;913;865;28;30;235;754;11;3;47368;599718662;1;92476839;76431;-265;78;1.019892;6.040897;-9.610517;1.204774;-1.061953;2.192708;-0.051618;0.376904;-0.620028;147.543442;-4.608369;198.790344;0.000000;0.000000;0.000000;0.000000;-438.000000;-267.000000;565.000000
1608556168;19;;;;;;;;;;;;;;;;;;1.137571;6.040897;-9.845877;1.201248;-1.075571;2.150974;-0.060476;0.354607;-0.632245;147.636002;-4.709965;197.739151;0.000000;0.000000;0.000000;0.000000;-437.000000;-271.000000;553.000000
1608556169;0;;;;;;;;;;;;;;92487762;76334;-351;78;1.255251;5.962444;-9.924331;1.201248;-1.089189;2.126629;-0.091324;0.340863;-0.648739;147.772705;-4.857752;196.600464;0.000000;0.000000;0.000000;0.000000;-437.000000;-275.000000;546.000000
1608556169;1;;;;;;;;;;;;;;;;;;1.137571;6.315483;-9.845877;1.201248;-1.109616;2.095329;-0.084299;0.339030;-0.654237;147.727692;-4.927437;195.729080;0.000000;0.000000;0.000000;0.000000;-437.000000;-281.000000;537.000000
1608556169;2;466839741;67427424;913;866;28;30;239;743;11;3;47368;799718144;1;;;;;1.137571;6.237030;-10.159690;1.204774;-1.133448;2.050117;-0.084910;0.334143;-0.655458;147.800354;-4.979774;194.585114;0.000000;0.000000;0.000000;0.000000;-438.000000;-288.000000;524.000000
1608556169;3;;;;;;;;;;;;;;92494308;76276;-405;78;1.098345;6.354709;-9.728197;1.201248;-1.147066;2.032728;-0.080023;0.338725;-0.656680;147.704971;-5.021772;193.737030;0.000000;0.000000;0.000000;0.000000;-437.000000;-292.000000;519.000000
1608556169;4;;;;;;;;;;;;;;;;;;1.059118;6.158576;-9.806650;1.201248;-1.164088;1.997950;-0.058032;0.341779;-0.648433;147.721603;-5.042171;192.675598;0.000000;0.000000;0.000000;0.000000;-437.000000;-297.000000;509.000000
1608556169;5;;;;;;;;;;;;;;92497332;76249;-422;78;1.176798;6.119350;-10.159690;1.194195;-1.177706;1.973606;-0.067806;0.331700;-0.647822;147.843323;-5.104599;191.446289;0.000000;0.000000;0.000000;0.000000;-435.000000;-301.000000;502.000000
1608556169;6;466839883;67428038;914;867;29;30;243;730;11;3;47369;-282373;1;;;;;1.255251;6.001670;-9.728197;1.204774;-1.194729;1.931872;-0.067806;0.333838;-0.647212;147.891815;-5.220824;190.291916;0.000000;0.000000;0.000000;0.000000;-438.000000;-306.000000;490.000000
1608556169;7;;;;;;;;;;;;;;;;;;1.059118;6.315483;-9.806650;1.201248;-1.208347;1.914483;-0.052229;0.320093;-0.655764;147.824493;-5.217565;189.347229;0.000000;0.000000;0.000000;0.000000;-437.000000;-310.000000;485.000000
1608556169;8;;;;;;;;;;;;;;92498475;76239;-409;78;1.255251;6.315483;-9.649744;1.204774;-1.221965;1.876227;-0.048564;0.299018;-0.652404;147.721695;-5.316988;188.432388;0.000000;0.000000;0.000000;0.000000;-438.000000;-314.000000;474.000000
1608556169;9;;;;;;;;;;;;;;;;;;1.333704;6.119350;-9.728197;1.204774;-1.235583;1.855360;-0.056200;0.313679;-0.631940;147.732422;-5.447229;187.360718;0.000000;0.000000;0.000000;0.000000;-438.000000;-318.000000;468.000000
1608556169;10;466840038;67428659;915;868;29;30;247;721;12;3;47369;199717107;1;92494942;76270;-366;78;1.412158;6.040897;-9.806650;1.197721;-1.249201;1.827537;-0.027794;0.304516;-0.619112;147.795883;-5.601494;186.212326;0.000000;0.000000;0.000000;0.000000;-436.000000;-322.000000;460.000000
1608556169;11;;;;;;;;;;;;;;;;;;1.294478;6.119350;-9.728197;1.204774;-1.262819;1.810148;0.005498;0.282831;-0.613003;147.799194;-5.683981;185.174744;0.000000;0.000000;0.000000;0.000000;-438.000000;-326.000000;455.000000
1608556169;12;;;;;;;;;;;;;;;;;;1.333704;6.119350;-9.453611;1.208300;-1.286650;1.778848;0.010079;0.244957;-0.621555;147.727783;-5.791005;184.212097;0.000000;0.000000;0.000000;0.000000;-439.000000;-333.000000;446.000000
1608556169;13;;;;;;;;;;;;;;92487657;76335;-295;78;1.137571;6.393936;-9.296705;1.208300;-1.279841;1.771892;0.014966;0.247400;-0.583376;147.503143;-5.787614;183.587723;0.000000;0.000000;0.000000;0.000000;-439.000000;-331.000000;444.000000
1608556169;14;466840197;67429272;916;869;29;30;248;711;12;3;47369;399716589;1;;;;;1.098345;6.237030;-9.179025;1.211827;-1.303673;1.744070;0.018021;0.238848;-0.564745;147.333282;-5.774081;182.833817;0.000000;0.000000;0.000000;0.000000;-440.000000;-338.000000;436.000000
1608556169;15;;;;;;;;;;;;;;;;;;1.529837;6.001670;-9.649744;1.215353;-1.310482;1.730158;0.025656;0.197309;-0.581238;147.412003;-5.963396;181.790955;0.000000;0.000000;0.000000;0.000000;-441.000000;-340.000000;432.000000
1608556169;16;;;;;;;;;;;;;;92474494;76452;-190;78;1.647517;6.040897;-9.296705;1.222406;-1.324100;1.712769;0.030849;0.169515;-0.569021;147.369278;-6.212283;180.950134;0.000000;0.000000;0.000000;0.000000;-443.000000;-344.000000;427.000000
1608556169;17;;;;;;;;;;;;;;;;;;1.451384;6.197803;-9.492838;1.222406;-1.327504;1.698858;0.027183;0.145386;-0.555887;147.318344;-6.320601;180.153427;0.000000;0.000000;0.000000;0.000000;-443.000000;-345.000000;423.000000
1608556169;18;466840371;67429880;917;870;29;30;249;698;12;3;47369;599716071;1;92458005;76599;-61;78;1.255251;6.315483;-9.610517;1.222406;-1.344527;1.677991;-0.006720;0.150578;-0.534812;147.255463;-6.311478;179.343201;0.000000;0.000000;0.000000;0.000000;-443.000000;-350.000000;417.000000
1608556169;19;;;;;;;;;;;;;;;;;;1.255251;6.237030;-9.688971;1.229459;-1.344527;1.677991;-0.006109;0.166461;-0.496022;147.252884;-6.302034;178.539581;0.000000;0.000000;0.000000;0.000000;-445.000000;-350.000000;417.000000
1608556170;0;;;;;;;;;;;;;;;;;;1.137571;6.197803;-9.767424;1.225932;-1.368358;1.657124;-0.024129;0.165544;-0.470672;147.287933;-6.233466;177.625031;0.000000;0.000000;0.000000;0.000000;-444.000000;-357.000000;411.000000
1608556170;1;;;;;;;;;;;;;;92439726;76762;83;78;0.980665;6.158576;-9.571291;1.232985;-1.364954;1.639735;-0.009163;0.183870;-0.431271;147.283264;-6.102583;176.815567;0.000000;0.000000;0.000000;0.000000;-446.000000;-356.000000;406.000000
1608556170;2;466840560;67430484;918;870;29;31;249;685;12;3;47369;799715553;1;;;;;1.137571;6.237030;-9.492838;1.232985;-1.368358;1.636257;-0.001222;0.197615;-0.408363;147.224365;-6.064247;176.166641;0.000000;0.000000;0.000000;0.000000;-446.000000;-357.000000;405.000000
1608556170;3;;;;;;;;;;;;;;92419613;76941;237;78;1.294478;6.119350;-9.218252;1.236511;-1.371763;1.618868;-0.017104;0.148135;-0.415694;147.144196;-6.125115;175.596054;0.000000;0.000000;0.000000;0.000000;-447.000000;-358.000000;400.000000
1608556170;4;;;;;;;;;;;;;;;;;;1.647517;5.844764;-9.218252;1.240038;-1.375167;1.604957;-0.014661;0.105374;-0.420886;147.192139;-6.370951;174.925873;0.000000;0.000000;0.000000;0.000000;-448.000000;-359.000000;396.000000
1608556170;5;;;;;;;;;;;;;;;;;;1.490611;5.923217;-9.532064;1.247091;-1.381976;1.601479;-0.023824;0.089186;-0.404698;147.287262;-6.490449;174.206833;0.000000;0.000000;0.000000;0.000000;-450.000000;-361.000000;395.000000
1608556170;6;466840774;67431102;919;871;29;31;254;670;12;3;47370;-284965;1;92400571;77110;383;78;1.176798;5.962444;-9.100572;1.250617;-1.392190;1.591046;-0.007025;0.064446;-0.396451;147.235382;-6.458734;173.659378;0.000000;0.000000;0.000000;0.000000;-451.000000;-364.000000;392.000000
1608556170;7;;;;;;;;;;;;;;;;;;1.294478;5.844764;-8.747532;1.247091;-1.392190;1.584090;0.026573;0.017715;-0.392786;147.136932;-6.514323;173.240509;0.000000;0.000000;0.000000;0.000000;-450.000000;-364.000000;390.000000
1608556170;8;;;;;;;;;;;;;;92383447;77262;507;78;1.294478;5.844764;-8.433719;1.254143;-1.395594;1.573657;0.017104;0.015882;-0.381180;146.950958;-6.581906;172.971146;0.000000;0.000000;0.000000;0.000000;-452.000000;-365.000000;387.000000
1608556170;9;;;;;;;;;;;;;;;;;;1.294478;6.080123;-8.433719;1.257670;-1.398998;1.573657;0.050396;0.005498;-0.340863;146.676971;-6.633432;172.863647;0.000000;0.000000;0.000000;0.000000;-453.000000;-366.000000;387.000000
1608556170;10;;;;;;;;;;;;;;;;;;1.019892;6.040897;-9.218252;1.250617;-1.409212;1.566701;0.054062;0.015577;-0.297797;146.685532;-6.498789;172.322266;0.000000;0.000000;0.000000;0.000000;-451.000000;-369.000000;385.000000
1608556170;11;466840998;67431704;920;872;29;31;256;652;12;3;47370;199714515;1;92366736;77411;609;78;1.216025;5.923217;-8.982892;1.254143;-1.412616;1.566701;0.067195;0.029627;-0.260229;146.676956;-6.493697;171.881912;0.000000;0.000000;0.000000;0.000000;-452.000000;-370.000000;385.000000
1608556170;12;;;;;;;;;;;;;;;;;;0.941438;5.766310;-8.904439;1.261196;-1.409212;1.563223;0.073609;0.062308;-0.201280;146.716660;-6.351465;171.391037;0.000000;0.000000;0.000000;0.000000;-454.000000;-369.000000;384.000000
1608556170;13;;;;;;;;;;;;;;92348395;77574;700;78;0.941438;5.883990;-8.904439;1.257670;-1.416021;1.559745;0.078496;0.054367;-0.180511;146.699356;-6.220412;170.989746;0.000000;0.000000;0.000000;0.000000;-453.000000;-371.000000;383.000000
1608556170;14;466841220;67432286;920;873;29;31;256;636;12;3;47370;399713997;1;;;;;1.216025;5.844764;-8.865212;1.257670;-1.416021;1.559745;0.071471;0.028711;-0.163406;146.689774;-6.251671;170.662231;0.000000;0.000000;0.000000;0.000000;-453.000000;-371.000000;383.000000
1608556170;15;;;;;;;;;;;;;;;;;;1.059118;5.923217;-9.022118;1.257670;-1.416021;1.556267;0.049175;0.023824;-0.137750;146.692230;-6.186968;170.319260;0.000000;0.000000;0.000000;0.000000;-453.000000;-371.000000;382.000000
1608556170;16;;;;;;;;;;;;;;92329098;77746;784;78;1.294478;5.805537;-8.747532;1.257670;-1.419425;1.559745;0.027794;0.009163;-0.128282;146.665894;-6.271172;170.085052;0.000000;0.000000;0.000000;0.000000;-453.000000;-372.000000;383.000000
1608556170;17;;;;;;;;;;;;;;;;;;1.294478;5.805537;-8.708306;1.264723;-1.419425;1.552790;0.021380;-0.025656;-0.131336;146.630310;-6.349126;169.881424;0.000000;0.000000;0.000000;0.000000;-455.000000;-372.000000;381.000000
1608556170;18;466841445;67432863;921;874;29;31;255;624;12;3;47370;599713478;1;92311234;77905;855;78;1.176798;5.766310;-8.551399;1.257670;-1.433043;1.559745;0.020464;-0.065668;-0.121562;146.568069;-6.365133;169.693054;0.000000;0.000000;0.000000;0.000000;-453.000000;-376.000000;383.000000
1608556170;19;;;;;;;;;;;;;;;;;;1.333704;5.648631;-8.472946;1.264723;-1.422830;1.556267;0.021380;-0.098349;-0.103236;146.542267;-6.474782;169.536240;0.000000;0.000000;0.000000;0.000000;-455.000000;-373.000000;382.000000
1608556171;0;;;;;;;;;;;;;;;;;;1.333704;5.766310;-8.747532;1.257670;-1.422830;1.556267;0.030543;-0.123089;-0.097738;146.548798;-6.552761;169.345139;0.000000;0.000000;0.000000;0.000000;-453.000000;-373.000000;382.000000
1608556171;1;;;;;;;;;;;;;;92294866;78051;912;78;1.059118;5.805537;-8.825985;1.268249;-1.422830;1.556267;0.019548;-0.123700;-0.070555;146.560333;-6.469994;169.132156;0.000000;0.000000;0.000000;0.000000;-456.000000;-373.000000;382.000000
1608556171;2;466841682;67433439;922;875;29;31;257;611;12;3;47370;799712960;1;;;;;0.941438;5.687857;-8.590626;1.268249;-1.429639;1.556267;0.010996;-0.108429;-0.036346;146.553452;-6.345089;168.928467;0.000000;0.000000;0.000000;0.000000;-456.000000;-375.000000;382.000000
1608556171;3;;;;;;;;;;;;;;92279945;78184;949;78;0.784532;5.530951;-8.512172;1.275302;-1.426234;1.549312;0.037263;-0.112094;0.005192;146.596664;-6.152507;168.654907;0.000000;0.000000;0.000000;0.000000;-458.000000;-374.000000;380.000000
1608556171;4;;;;;;;;;;;;;;;;;;0.902212;5.687857;-8.590626;1.275302;-1.426234;1.549312;0.035125;-0.091630;0.037263;146.586151;-6.037710;168.494263;0.000000;0.000000;0.000000;0.000000;-458.000000;-374.000000;380.000000
1608556171;5;;;;;;;;;;;;;;;;;;0.941438;5.727084;-8.865212;1.271775;-1.429639;1.556267;0.039095;-0.101709;0.071471;146.641235;-5.943670;168.265701;0.000000;0.000000;0.000000;0.000000;-457.000000;-375.000000;382.000000
1608556171;6;466841932;67434011;923;876;28;31;260;596;12;3;47371;-287558;1;92262623;78340;981;78;1.137571;5.923217;-8.982892;1.268249;-1.422830;1.549312;0.038790;-0.139888;0.079107;146.637085;-5.952807;168.163483;0.000000;0.000000;0.000000;0.000000;-456.000000;-373.000000;380.000000
1608556171;7;;;;;;;;;;;;;;;;;;1.176798;5.609404;-9.100572;1.264723;-1.422830;1.556267;0.015577;-0.146913;0.097433;146.808502;-5.985706;167.857727;0.000000;0.000000;0.000000;0.000000;-455.000000;-373.000000;382.000000
1608556171;8;;;;;;;;;;;;;;92246029;78490;1010;78;1.059118;5.648631;-8.904439;1.271775;-1.422830;1.552790;0.005192;-0.163101;0.119730;146.888718;-5.960682;167.662704;0.000000;0.000000;0.000000;0.000000;-457.000000;-373.000000;381.000000
1608556171;9;;;;;;;;;;;;;;;;;;1.137571;5.530951;-8.669079;1.268249;-1.426234;1.563223;-0.003360;-0.148135;0.146608;146.946030;-5.995878;167.532288;0.000000;0.000000;0.000000;0.000000;-456.000000;-374.000000;384.000000
1608556171;10;466842187;67434573;924;877;28;31;261;580;11;3;47371;199711923;1;;;;;1.019892;5.609404;-8.904439;1.264723;-1.426234;1.556267;-0.007636;-0.160352;0.165544;147.030533;-5.949821;167.329514;0.000000;0.000000;0.000000;0.000000;-455.000000;-374.000000;382.000000
1608556171;11;;;;;;;;;;;;;;92232759;78610;1022;78;0.941438;5.805537;-9.139798;1.268249;-1.426234;1.566701;0.008858;-0.191812;0.183870;147.085144;-5.851758;167.182465;0.000000;0.000000;0.000000;0.000000;-456.000000;-374.000000;385.000000
1608556171;12;;;;;;;;;;;;;;;;;;1.098345;5.766310;-8.904439;1.268249;-1.426234;1.563223;0.018326;-0.203113;0.196088;147.084030;-5.857688;167.140045;0.000000;0.000000;0.000000;0.000000;-456.000000;-374.000000;384.000000
1608556171;13;;;;;;;;;;;;;;92223676;78693;1008;78;1.137571;5.766310;-8.669079;1.261196;-1.426234;1.570179;0.032376;-0.233045;0.212581;147.012619;-5.895455;167.214935;0.000000;0.000000;0.000000;0.000000;-454.000000;-374.000000;386.000000
1608556171;14;466842444;67435123;925;877;28;31;261;565;12;3;47371;399711405;1;;;;;1.098345;5.727084;-8.669079;1.250617;-1.419425;1.566701;0.055894;-0.223882;0.241903;146.966370;-5.909351;167.257172;0.000000;0.000000;0.000000;0.000000;-451.000000;-372.000000;385.000000
1608556171;15;;;;;;;;;;;;;;;;;;1.019892;5.530951;-8.982892;1.261196;-1.412616;1.577134;0.063530;-0.245568;0.249844;147.107605;-5.870638;167.083374;0.000000;0.000000;0.000000;0.000000;-454.000000;-370.000000;388.000000
1608556171;16;;;;;;;;;;;;;;92216847;78755;969;78;1.333704;5.923217;-9.139798;1.261196;-1.412616;1.580612;0.076053;-0.269392;0.254120;147.102264;-5.981720;167.154572;0.000000;0.000000;0.000000;0.000000;-454.000000;-370.000000;389.000000
1608556171;17;;;;;;;;;;;;;;;;;;1.216025;5.727084;-8.865212;1.261196;-1.405807;1.591046;0.074526;-0.271530;0.274889;147.105728;-6.040795;167.238785;0.000000;0.000000;0.000000;0.000000;-454.000000;-368.000000;392.000000
1608556171;18;466842709;67435664;925;878;27;31;261;551;12;3;47371;599710887;1;92211941;78799;912;78;1.098345;5.766310;-8.629853;1.254143;-1.402403;1.594524;0.080329;-0.273973;0.303295;147.020157;-6.040790;167.434860;0.000000;0.000000;0.000000;0.000000;-452.000000;-367.000000;393.000000
1608556171;19;;;;;;;;;;;;;;;;;;0.980665;5.570177;-8.551399;1.254143;-1.409212;1.601479;0.079718;-0.254120;0.330478;147.010223;-5.985589;167.497269;0.000000;0.000000;0.000000;0.000000;-452.000000;-369.000000;395.000000
1608556172;0;;;;;;;;;;;;;;;;;;0.941438;5.609404;-8.943665;1.254143;-1.398998;1.604957;0.057116;-0.267864;0.341474;147.099655;-5.896617;167.444183;0.000000;0.000000;0.000000;0.000000;-452.000000;-366.000000;396.000000
1608556172;1;;;;;;;;;;;;;;92209037;78825;843;78;1.098345;5.766310;-9.061345;1.254143;-1.392190;1.615390;0.030543;-0.271530;0.350026;147.142578;-5.890845;167.513092;0.000000;0.000000;0.000000;0.000000;-452.000000;-364.000000;399.000000
1608556172;2;466842982;67436193;926;879;27;31;261;536;12;3;47371;799710370;1;;;;;1.019892;5.570177;-9.100572;1.250617;-1.398998;1.625824;0.029627;-0.278249;0.355218;147.281387;-5.847767;167.422150;0.000000;0.000000;0.000000;0.000000;-451.000000;-366.000000;402.000000
1608556172;3;;;;;;;;;;;;;;92207104;78843;765;78;1.059118;5.727084;-8.982892;1.254143;-1.388785;1.632779;0.017104;-0.278860;0.375682;147.301285;-5.830745;167.542694;0.000000;0.000000;0.000000;0.000000;-452.000000;-363.000000;404.000000
1608556172;4;;;;;;;;;;;;;;;;;;1.059118;5.727084;-8.747532;1.250617;-1.385381;1.632779;0.005498;-0.284663;0.379347;147.249863;-5.826087;167.759705;0.000000;0.000000;0.000000;0.000000;-451.000000;-362.000000;404.000000
1608556172;5;;;;;;;;;;;;;;;;;;1.137571;5.570177;-8.786759;1.240038;-1.378572;1.643213;-0.010996;-0.289245;0.394924;147.287720;-5.867498;167.883698;0.000000;0.000000;0.000000;0.000000;-448.000000;-360.000000;407.000000
1608556172;6;466843271;67436712;927;880;27;31;260;523;12;3;47372;-290148;1;92205166;78860;688;78;1.176798;5.648631;-9.022118;1.240038;-1.375167;1.657124;-0.020769;-0.311541;0.392175;147.353943;-5.911617;167.991440;0.000000;0.000000;0.000000;0.000000;-448.000000;-359.000000;411.000000
1608556172;7;;;;;;;;;;;;;;;;;;1.137571;5.727084;-8.825985;1.240038;-1.368358;1.667558;0.002138;-0.321315;0.394924;147.320648;-5.937546;168.260223;0.000000;0.000000;0.000000;0.000000;-448.000000;-357.000000;414.000000
1608556172;8;;;;;;;;;;;;;;92203354;78877;613;78;1.176798;5.962444;-8.747532;1.240038;-1.371763;1.674513;0.028405;-0.332311;0.409891;147.160706;-5.978100;168.696625;0.000000;0.000000;0.000000;0.000000;-448.000000;-358.000000;416.000000
1608556172;9;;;;;;;;;;;;;;;;;;0.941438;5.923217;-9.179025;1.236511;-1.361549;1.684947;0.057421;-0.332311;0.444404;147.161240;-5.872842;168.903198;0.000000;0.000000;0.000000;0.000000;-447.000000;-355.000000;419.000000
1608556172;10;466843574;67437217;928;881;27;31;259;510;12;3;47372;199709332;1;;;;;0.980665;5.883990;-9.218252;1.236511;-1.358145;1.695380;0.058338;-0.330478;0.465785;147.190125;-5.797974;169.085342;0.000000;0.000000;0.000000;0.000000;-447.000000;-354.000000;422.000000
1608556172;11;;;;;;;;;;;;;;92201089;78897;548;78;0.823759;5.805537;-9.022118;1.232985;-1.344527;1.709291;0.053145;-0.332922;0.477086;147.195084;-5.657241;169.337967;0.000000;0.000000;0.000000;0.000000;-446.000000;-350.000000;426.000000
1608556172;12;;;;;;;;;;;;;;;;;;1.019892;5.923217;-9.296705;1.229459;-1.341122;1.716247;0.076053;-0.341779;0.501215;147.225342;-5.620121;169.569733;0.000000;0.000000;0.000000;0.000000;-445.000000;-349.000000;428.000000
1608556172;13;;;;;;;;;;;;;;92198869;78918;492;78;1.059118;5.962444;-9.335931;1.225932;-1.337718;1.737114;0.089186;-0.367435;0.494801;147.246368;-5.604255;169.845505;0.000000;0.000000;0.000000;0.000000;-444.000000;-348.000000;434.000000
1608556172;14;466843874;67437717;929;881;27;31;257;500;11;3;47372;399708814;1;;;;;1.019892;5.962444;-9.022118;1.229459;-1.334313;1.747547;0.089186;-0.384540;0.497550;147.175797;-5.582590;170.263397;0.000000;0.000000;0.000000;0.000000;-445.000000;-347.000000;437.000000
1608556172;15;;;;;;;;;;;;;;;;;;1.059118;5.923217;-9.179025;1.232985;-1.317291;1.771892;0.065973;-0.382402;0.509462;147.174820;-5.578090;170.657623;0.000000;0.000000;0.000000;0.000000;-446.000000;-342.000000;444.000000
1608556172;16;;;;;;;;;;;;;;92198242;78923;439;78;1.019892;5.923217;-9.335931;1.232985;-1.307077;1.789281;0.027183;-0.403476;0.508545;147.218033;-5.547312;171.012756;0.000000;0.000000;0.000000;0.000000;-446.000000;-339.000000;449.000000
1608556172;17;;;;;;;;;;;;;;;;;;0.902212;5.844764;-9.218252;1.222406;-1.303673;1.803192;0.018631;-0.405309;0.503658;147.258606;-5.465102;171.359375;0.000000;0.000000;0.000000;0.000000;-443.000000;-338.000000;453.000000
1608556172;18;466844175;67438207;930;882;27;32;255;492;11;3;47372;599708295;1;92196692;78937;391;78;0.784532;5.766310;-9.257478;1.218880;-1.296864;1.824059;0.014966;-0.396757;0.518319;147.340958;-5.330027;171.657349;0.000000;0.000000;0.000000;0.000000;-442.000000;-336.000000;459.000000
1608556172;19;;;;;;;;;;;;;;;;;;0.980665;5.923217;-8.982892;1.225932;-1.290055;1.841449;0.022602;-0.397979;0.521068;147.266830;-5.317781;172.237244;0.000000;0.000000;0.000000;0.000000;-444.000000;-334.000000;464.000000
1608556173;0;;;;;;;;;;;;;;;;;;1.019892;5.962444;-9.100572;1.225932;-1.273032;1.862315;0.018326;-0.401949;0.539088;147.216995;-5.321537;172.836441;0.000000;0.000000;0.000000;0.000000;-444.000000;-329.000000;470.000000
1608556173;1;;;;;;;;;;;;;;92195616;78947;349;78;1.333704;5.844764;-9.296705;1.218880;-1.273032;1.872749;0.008247;-0.407447;0.529315;147.279587;-5.481860;173.240219;0.000000;0.000000;0.000000;0.000000;-442.000000;-329.000000;473.000000
1608556173;2;466844495;67438690;930;883;27;32;256;482;12;3;47372;799707777;1;;;;;1.137571;5.883990;-9.257478;1.218880;-1.259414;1.893616;0.018631;-0.436463;0.524733;147.307663;-5.525752;173.729630;0.000000;0.000000;0.000000;0.000000;-442.000000;-325.000000;479.000000
1608556173;3;;;;;;;;;;;;;;92193498;78966;314;78;1.176798;5.844764;-8.943665;1.218880;-1.256010;1.907527;0.029627;-0.460898;0.524428;147.260406;-5.601726;174.325745;0.000000;0.000000;0.000000;0.000000;-442.000000;-324.000000;483.000000
1608556173;4;;;;;;;;;;;;;;;;;;0.941438;6.001670;-9.022118;1.218880;-1.238987;1.928394;0.045815;-0.459065;0.542754;147.171127;-5.538096;175.041092;0.000000;0.000000;0.000000;0.000000;-442.000000;-319.000000;489.000000
1608556173;5;;;;;;;;;;;;;;;;;;0.902212;5.883990;-9.100572;1.229459;-1.238987;1.935349;0.062308;-0.425162;0.573908;147.165558;-5.460191;175.578827;0.000000;0.000000;0.000000;0.000000;-445.000000;-319.000000;491.000000
1608556173;6;466844828;67439172;931;884;27;32;259;470;12;3;47373;-292741;1;92192784;78973;284;78;0.862985;6.001670;-9.139798;1.222406;-1.225369;1.977083;0.058032;-0.429744;0.584292;147.119919;-5.365447;176.269852;0.000000;0.000000;0.000000;0.000000;-443.000000;-315.000000;503.000000
1608556173;7;;;;;;;;;;;;;;;;;;1.019892;5.648631;-9.179025;1.222406;-1.218560;1.984039;0.050396;-0.429133;0.591928;147.247192;-5.369475;176.650970;0.000000;0.000000;0.000000;0.000000;-443.000000;-313.000000;505.000000
1608556173;8;;;;;;;;;;;;;;92193615;78965;250;78;1.137571;5.609404;-9.414384;1.222406;-1.198133;2.018817;0.043371;-0.443488;0.593150;147.443695;-5.425159;177.001892;0.000000;0.000000;0.000000;0.000000;-443.000000;-307.000000;515.000000
1608556173;9;;;;;;;;;;;;;;;;;;1.294478;5.766310;-9.296705;1.225932;-1.194729;2.029250;0.051618;-0.462730;0.591928;147.518402;-5.557473;177.509918;0.000000;0.000000;0.000000;0.000000;-444.000000;-306.000000;518.000000
1608556173;10;466845162;67439644;932;885;27;32;259;461;12;3;47373;199706740;1;;;;;0.941438;5.962444;-9.218252;1.225932;-1.174302;2.064029;0.060170;-0.452651;0.605062;147.477066;-5.491856;178.300323;0.000000;0.000000;0.000000;0.000000;-444.000000;-300.000000;528.000000
1608556173;11;;;;;;;;;;;;;;92196019;78943;210;78;1.098345;5.687857;-9.492838;1.229459;-1.170897;2.077940;0.054978;-0.471588;0.608116;147.636475;-5.509477;178.719925;0.000000;0.000000;0.000000;0.000000;-445.000000;-299.000000;532.000000
1608556173;12;;;;;;;;;;;;;;;;;;1.137571;6.001670;-9.414384;1.236511;-1.160684;2.105762;0.051313;-0.484416;0.600480;147.621094;-5.540308;179.441742;0.000000;0.000000;0.000000;0.000000;-447.000000;-296.000000;540.000000
1608556173;13;;;;;;;;;;;;;;92199915;78908;161;78;1.176798;5.883990;-9.806650;1.229459;-1.143661;2.119674;0.032070;-0.495717;0.582154;147.762619;-5.573779;179.925262;0.000000;0.000000;0.000000;0.000000;-445.000000;-291.000000;544.000000
1608556173;14;466845486;67440110;933;886;27;32;256;456;11;3;47373;399706222;1;;;;;1.216025;6.119350;-9.492838;1.229459;-1.130043;2.157930;0.030849;-0.514043;0.587652;147.705673;-5.630923;180.774750;0.000000;0.000000;0.000000;0.000000;-445.000000;-287.000000;555.000000
1608556173;15;;;;;;;;;;;;;;;;;;1.098345;6.158576;-9.492838;1.232985;-1.123234;2.168363;0.036652;-0.511600;0.576046;147.637726;-5.622236;181.621277;0.000000;0.000000;0.000000;0.000000;-446.000000;-285.000000;558.000000
1608556173;16;;;;;;;;;;;;;;92203762;78873;111;78;0.902212;6.393936;-9.571291;1.236511;-1.113021;2.206619;0.034208;-0.509462;0.585514;147.499542;-5.508189;182.649414;0.000000;0.000000;0.000000;0.000000;-447.000000;-282.000000;569.000000
1608556173;17;;;;;;;;;;;;;;;;;;0.902212;6.276256;-9.845877;1.243564;-1.102807;2.213575;0.034514;-0.509462;0.589485;147.498047;-5.399215;183.415115;0.000000;0.000000;0.000000;0.000000;-449.000000;-279.000000;571.000000
1608556173;18;466845804;67440558;934;887;28;32;252;450;11;3;47373;599705704;1;92208564;78830;60;78;0.941438;6.276256;-9.649744;1.232985;-1.089189;2.244875;0.030849;-0.518319;0.605978;147.444229;-5.326842;184.299683;0.000000;0.000000;0.000000;0.000000;-446.000000;-275.000000;580.000000
1608556173;19;;;;;;;;;;;;;;;;;;0.980665;6.354709;-9.492838;1.247091;-1.085785;2.258786;0.031460;-0.520457;0.584292;147.319901;-5.284818;185.238312;0.000000;0.000000;0.000000;0.000000;-450.000000;-274.000000;584.000000
1608556174;0;;;;;;;;;;;;;;;;;;0.823759;6.276256;-9.610517;1.250617;-1.075571;2.286609;0.025045;-0.518930;0.593150;147.273224;-5.166822;186.092041;0.000000;0.000000;0.000000;0.000000;-451.000000;-271.000000;592.000000
1608556174;1;;;;;;;;;;;;;;92215590;78766;2;78;0.902212;6.197803;-9.610517;1.257670;-1.061953;2.300520;0.016493;-0.499993;0.599259;147.264130;-5.101238;186.855118;0.000000;0.000000;0.000000;0.000000;-453.000000;-267.000000;596.000000
1608556174;2;466846135;67441009;935;888;28;32;252;447;11;3;47373;799705185;1;;;;;1.098345;6.315483;-9.649744;1.261196;-1.055144;2.335298;0.008247;-0.479224;0.609033;147.217377;-5.135145;187.652588;0.000000;0.000000;0.000000;0.000000;-454.000000;-265.000000;606.000000
1608556174;3;;;;;;;;;;;;;;92221577;78712;-53;78;1.019892;6.119350;-9.728197;1.257670;-1.041526;2.345731;0.000000;-0.489608;0.611171;147.278534;-5.128756;188.283859;0.000000;0.000000;0.000000;0.000000;-453.000000;-261.000000;609.000000
1608556174;4;;;;;;;;;;;;;;;;;;0.862985;6.315483;-9.845877;1.264723;-1.031313;2.377032;-0.000916;-0.487776;0.617279;147.282944;-5.037824;189.054276;0.000000;0.000000;0.000000;0.000000;-455.000000;-258.000000;618.000000
1608556174;5;;;;;;;;;;;;;;;;;;0.823759;6.237030;-9.806650;1.257670;-1.031313;2.383987;0.005192;-0.485943;0.621861;147.309021;-4.939472;189.739365;0.000000;0.000000;0.000000;0.000000;-453.000000;-258.000000;620.000000
1608556174;6;466846486;67441464;936;889;28;32;255;441;11;3;47374;-295332;1;92226569;78666;-99;78;0.902212;6.315483;-9.688971;1.268249;-1.017695;2.404855;0.003971;-0.480751;0.631329;147.268417;-4.891579;190.511627;0.000000;0.000000;0.000000;0.000000;-456.000000;-254.000000;626.000000
1608556174;7;;;;;;;;;;;;;;;;;;0.980665;6.119350;-9.453611;1.275302;-1.014290;2.422244;0.012523;-0.493274;0.634383;147.250076;-4.900113;191.187714;0.000000;0.000000;0.000000;0.000000;-458.000000;-253.000000;631.000000
1608556174;8;;;;;;;;;;;;;;92230042;78635;-132;78;1.059118;5.805537;-9.335931;1.271775;-1.007481;2.439633;0.026878;-0.531147;0.605367;147.337540;-4.960379;191.662521;0.000000;0.000000;0.000000;0.000000;-457.000000;-251.000000;636.000000
1608556174;9;;;;;;;;;;;;;;;;;;1.216025;5.805537;-9.218252;1.282355;-0.993863;2.453544;0.009468;-0.562607;0.589485;147.383575;-5.101256;192.157730;0.000000;0.000000;0.000000;0.000000;-460.000000;-247.000000;640.000000
1608556174;10;466846843;67441914;938;890;28;32;256;435;10;3;47374;199704148;1;;;;;1.216025;5.727084;-9.375158;1.289407;-0.976841;2.481366;-0.020769;-0.555276;0.583071;147.503250;-5.222756;192.574234;0.000000;0.000000;0.000000;0.000000;-462.000000;-242.000000;648.000000
1608556174;11;;;;;;;;;;;;;;92231936;78618;-149;78;0.941438;5.648631;-9.335931;1.289407;-0.983650;2.495278;-0.030238;-0.551917;0.587041;147.635376;-5.193593;192.974716;0.000000;0.000000;0.000000;0.000000;-462.000000;-244.000000;652.000000
1608556174;12;;;;;;;;;;;;;;;;;;0.784532;5.609404;-9.061345;1.292934;-0.973436;2.512667;-0.034514;-0.536034;0.598953;147.695908;-5.095263;193.521561;0.000000;0.000000;0.000000;0.000000;-463.000000;-241.000000;657.000000
1608556174;13;;;;;;;;;;;;;;92233773;78601;-156;78;0.823759;5.530951;-8.825985;1.299986;-0.970032;2.537011;-0.033598;-0.537256;0.608422;147.718933;-5.037932;194.091980;0.000000;0.000000;0.000000;0.000000;-465.000000;-240.000000;664.000000
1608556174;14;466847192;67442367;939;892;28;32;257;433;10;3;47374;399703630;1;;;;;0.666852;5.452498;-8.551399;1.299986;-0.959818;2.537011;-0.047953;-0.540310;0.614836;147.694839;-4.910334;194.748230;0.000000;0.000000;0.000000;0.000000;-465.000000;-237.000000;664.000000
1608556174;15;;;;;;;;;;;;;;;;;;0.784532;5.413271;-8.747532;1.310566;-0.953009;2.557878;-0.043982;-0.529620;0.633467;147.750305;-4.855419;195.226105;0.000000;0.000000;0.000000;0.000000;-468.000000;-235.000000;670.000000
1608556174;16;;;;;;;;;;;;;;92234632;78593;-155;78;0.784532;5.452498;-8.865212;1.310566;-0.956414;2.561356;-0.072388;-0.508545;0.638659;147.815948;-4.800954;195.629868;0.000000;0.000000;0.000000;0.000000;-468.000000;-236.000000;671.000000
1608556174;17;;;;;;;;;;;;;;;;;;0.784532;5.295591;-8.708306;1.314092;-0.953009;2.575267;-0.073915;-0.527482;0.641103;147.903961;-4.761025;195.971649;0.000000;0.000000;0.000000;0.000000;-469.000000;-235.000000;675.000000
1608556174;18;466847552;67442807;940;893;28;32;258;427;11;3;47374;599703111;1;92234353;78596;-144;78;0.823759;5.334818;-8.472946;1.314092;-0.946200;2.582223;-0.060170;-0.541532;0.639270;147.894012;-4.755251;196.434418;0.000000;0.000000;0.000000;0.000000;-469.000000;-233.000000;677.000000
1608556174;19;;;;;;;;;;;;;;;;;;0.823759;5.334818;-8.472946;1.328198;-0.949605;2.596134;-0.043982;-0.554055;0.645990;147.885056;-4.750054;196.847107;0.000000;0.000000;0.000000;0.000000;-473.000000;-234.000000;681.000000
1608556175;0;;;;;;;;;;;;;;;;;;0.666852;5.413271;-8.590626;1.331724;-0.939391;2.603090;-0.015577;-0.576962;0.659734;147.874908;-4.650795;197.311630;0.000000;0.000000;0.000000;0.000000;-474.000000;-231.000000;683.000000
1608556175;1;;;;;;;;;;;;;;92231724;78620;-121;78;0.784532;5.452498;-8.472946;1.335250;-0.935987;2.617001;0.013134;-0.590401;0.675617;147.811234;-4.630943;197.800705;0.000000;0.000000;0.000000;0.000000;-475.000000;-230.000000;687.000000
1608556175;2;466847903;67443262;941;894;29;32;259;425;11;3;47374;799702592;1;;;;;0.509946;5.452498;-8.394493;1.345829;-0.932582;2.627434;0.024740;-0.589485;0.696081;147.729614;-4.459486;198.385910;0.000000;0.000000;0.000000;0.000000;-478.000000;-229.000000;690.000000
1608556175;3;;;;;;;;;;;;;;92224883;78682;-76;78;0.509946;5.413271;-8.747532;1.342303;-0.932582;2.630912;0.006720;-0.592234;0.720821;147.781601;-4.297331;198.731277;0.000000;0.000000;0.000000;0.000000;-477.000000;-229.000000;691.000000
1608556175;4;;;;;;;;;;;;;;;;;;0.509946;5.256365;-8.825985;1.356409;-0.925773;2.637868;-0.021991;-0.558942;0.736093;147.925842;-4.151787;198.898193;0.000000;0.000000;0.000000;0.000000;-481.000000;-227.000000;693.000000
1608556175;5;;;;;;;;;;;;;;;;;;0.353039;5.374045;-8.982892;1.359935;-0.925773;2.644824;-0.059559;-0.546419;0.744950;148.044266;-3.929775;199.129425;0.000000;0.000000;0.000000;0.000000;-482.000000;-227.000000;695.000000
1608556175;6;466848269;67443711;942;895;29;32;260;419;11;3;47375;-297925;1;92214543;78775;-7;78;0.627626;5.177911;-8.904439;1.363461;-0.925773;2.648302;-0.086743;-0.546419;0.753808;148.222061;-3.885479;199.132111;0.000000;0.000000;0.000000;0.000000;-483.000000;-227.000000;696.000000
1608556175;7;;;;;;;;;;;;;;;;;;0.666852;5.256365;-8.747532;1.370514;-0.929178;2.651779;-0.104763;-0.551306;0.748004;148.299713;-3.870791;199.239517;0.000000;0.000000;0.000000;0.000000;-485.000000;-228.000000;697.000000
1608556175;8;;;;;;;;;;;;;;92202259;78887;81;78;0.706079;5.295591;-8.708306;1.370514;-0.932582;2.648302;-0.131031;-0.544586;0.751364;148.339340;-3.880009;199.355896;0.000000;0.000000;0.000000;0.000000;-485.000000;-229.000000;696.000000
1608556175;9;;;;;;;;;;;;;;;;;;0.745305;5.334818;-8.551399;1.377567;-0.932582;2.648302;-0.132252;-0.557720;0.742201;148.309601;-3.914920;199.537933;0.000000;0.000000;0.000000;0.000000;-487.000000;-229.000000;696.000000
1608556175;10;466848640;67444165;943;896;29;32;263;416;11;3;47375;199701555;1;;;;;0.627626;5.295591;-8.590626;1.377567;-0.935987;2.641346;-0.141415;-0.567188;0.733038;148.313522;-3.879305;199.671906;0.000000;0.000000;0.000000;0.000000;-487.000000;-230.000000;694.000000
1608556175;11;;;;;;;;;;;;;;92184570;79047;193;78;0.627626;5.374045;-8.551399;1.391672;-0.939391;2.627434;-0.146608;-0.578184;0.714407;148.267487;-3.846966;199.819504;0.000000;0.000000;0.000000;0.000000;-491.000000;-231.000000;690.000000
1608556175;12;;;;;;;;;;;;;;;;;;0.745305;5.334818;-8.590626;1.388146;-0.939391;2.630912;-0.141721;-0.578489;0.691499;148.256699;-3.883793;199.878922;0.000000;0.000000;0.000000;0.000000;-490.000000;-231.000000;691.000000
1608556175;13;;;;;;;;;;;;;;92159877;79271;336;78;0.706079;5.491724;-8.551399;1.402252;-0.953009;2.623957;-0.120340;-0.586736;0.683864;148.160172;-3.892842;200.011734;0.000000;0.000000;0.000000;0.000000;-494.000000;-235.000000;689.000000
1608556175;14;466849019;67444613;945;897;29;32;265;414;11;3;47375;399701036;1;;;;;0.666852;5.374045;-8.237586;1.398725;-0.956414;2.620479;-0.079718;-0.588569;0.673173;148.032196;-3.891431;200.187714;0.000000;0.000000;0.000000;0.000000;-493.000000;-236.000000;688.000000
1608556175;15;;;;;;;;;;;;;;;;;;0.627626;5.413271;-8.159133;1.405778;-0.959818;2.606568;-0.057116;-0.573297;0.665232;147.872711;-3.869044;200.383270;0.000000;0.000000;0.000000;0.000000;-495.000000;-237.000000;684.000000
1608556175;16;;;;;;;;;;;;;;92128853;79552;516;78;0.549172;5.256365;-8.159133;1.409304;-0.966627;2.603090;-0.057727;-0.550389;0.652099;147.806366;-3.805988;200.439331;0.000000;0.000000;0.000000;0.000000;-496.000000;-239.000000;683.000000
1608556175;17;;;;;;;;;;;;;;;;;;0.549172;5.217138;-8.159133;1.419884;-0.973436;2.582223;-0.057727;-0.533896;0.644463;147.766159;-3.749944;200.393311;0.000000;0.000000;0.000000;0.000000;-499.000000;-241.000000;677.000000
1608556175;18;466849414;67445064;946;899;29;32;269;412;12;3;47375;599700517;1;92096999;79841;716;78;0.588399;5.177911;-8.159133;1.416357;-0.973436;2.582223;-0.064446;-0.518319;0.629191;147.749573;-3.723389;200.313446;0.000000;0.000000;0.000000;0.000000;-498.000000;-241.000000;677.000000
1608556175;19;;;;;;;;;;;;;;;;;;0.627626;5.256365;-8.316040;1.419884;-0.983650;2.564834;-0.066584;-0.488998;0.615752;147.745026;-3.716081;200.156036;0.000000;0.000000;0.000000;0.000000;-499.000000;-244.000000;672.000000
1608556176;0;;;;;;;;;;;;;;;;;;0.588399;5.138685;-7.923773;1.426936;-0.983650;2.561356;-0.065057;-0.455095;0.605367;147.674133;-3.700982;200.106216;0.000000;0.000000;0.000000;0.000000;-501.000000;-244.000000;671.000000
1608556176;1;;;;;;;;;;;;;;92064126;80139;916;78;0.392266;5.177911;-8.276813;1.426936;-0.993863;2.543967;-0.064141;-0.431271;0.573602;147.703751;-3.560967;199.923843;0.000000;0.000000;0.000000;0.000000;-501.000000;-247.000000;666.000000
1608556176;2;;;;;;;;;;;;;;;;;;0.706079;5.295591;-8.119907;1.423410;-1.004077;2.537011;-0.052534;-0.401033;0.546113;147.622253;-3.621453;199.796997;0.000000;0.000000;0.000000;0.000000;-500.000000;-250.000000;664.000000
1608556176;3;466849803;67445517;947;900;29;32;271;411;12;3;47375;799699999;1;92032425;80426;1099;78;0.627626;5.413271;-8.237586;1.430463;-1.010886;2.519622;-0.053756;-0.394313;0.495412;147.528976;-3.623635;199.682404;0.000000;0.000000;0.000000;0.000000;-502.000000;-252.000000;659.000000
1608556176;4;;;;;;;;;;;;;;;;;;0.902212;5.334818;-8.276813;1.426936;-1.010886;2.516145;-0.052840;-0.373239;0.467006;147.495712;-3.784765;199.429153;0.000000;0.000000;0.000000;0.000000;-501.000000;-252.000000;658.000000
1608556176;5;;;;;;;;;;;;;;;;;;0.666852;5.413271;-8.316040;1.430463;-1.024504;2.498755;-0.054978;-0.355218;0.430049;147.439972;-3.790765;199.231247;0.000000;0.000000;0.000000;0.000000;-502.000000;-256.000000;653.000000
1608556176;6;;;;;;;;;;;;;;92006181;80664;1240;78;0.823759;5.334818;-8.237586;1.433989;-1.024504;2.495278;-0.051007;-0.348193;0.380569;147.403198;-3.891480;198.982025;0.000000;0.000000;0.000000;0.000000;-503.000000;-256.000000;652.000000
1608556176;7;466850203;67445978;948;901;29;32;275;409;12;3;47376;-300518;1;;;;;0.902212;5.570177;-8.119907;1.430463;-1.038122;2.491800;-0.044593;-0.345750;0.325286;147.217911;-4.025842;198.922119;0.000000;0.000000;0.000000;0.000000;-502.000000;-260.000000;651.000000
1608556176;8;;;;;;;;;;;;;;91983690;80868;1334;78;0.941438;5.334818;-8.629853;1.437515;-1.041526;2.470933;-0.055283;-0.314901;0.294132;147.323776;-4.153399;198.415222;0.000000;0.000000;0.000000;0.000000;-504.000000;-261.000000;645.000000
1608556176;9;;;;;;;;;;;;;;;;;;0.666852;5.256365;-8.002227;1.433989;-1.041526;2.467455;-0.041233;-0.285579;0.265726;147.261475;-4.136487;198.243896;0.000000;0.000000;0.000000;0.000000;-503.000000;-261.000000;644.000000
1608556176;10;;;;;;;;;;;;;;;;;;0.706079;4.981778;-7.923773;1.433989;-1.044931;2.453544;-0.038179;-0.257785;0.227242;147.319534;-4.154250;197.870377;0.000000;0.000000;0.000000;0.000000;-503.000000;-262.000000;640.000000
1608556176;11;466850591;67446453;949;902;29;32;278;412;12;3;47376;199698963;1;91963642;81050;1388;78;0.784532;5.177911;-8.080680;1.444568;-1.051740;2.443110;-0.040317;-0.222966;0.190284;147.322510;-4.206151;197.549286;0.000000;0.000000;0.000000;0.000000;-506.000000;-264.000000;637.000000
1608556176;12;;;;;;;;;;;;;;;;;;0.588399;5.374045;-8.041454;1.444568;-1.048335;2.436155;-0.024740;-0.174402;0.172875;147.214813;-4.133672;197.470596;0.000000;0.000000;0.000000;0.000000;-506.000000;-263.000000;635.000000
1608556176;13;;;;;;;;;;;;;;91944424;81224;1411;78;0.549172;5.334818;-8.080680;1.441042;-1.058549;2.432677;-0.012217;-0.115454;0.137445;147.150085;-4.044916;197.329941;0.000000;0.000000;0.000000;0.000000;-505.000000;-266.000000;634.000000
1608556176;14;466850991;67446928;950;903;29;32;280;412;12;3;47376;399698444;1;;;;;0.588399;5.413271;-8.472946;1.441042;-1.061953;2.429199;0.003665;-0.084605;0.098349;147.177689;-3.975341;197.051468;0.000000;0.000000;0.000000;0.000000;-505.000000;-267.000000;633.000000
1608556176;15;;;;;;;;;;;;;;;;;;0.862985;5.256365;-8.316040;1.437515;-1.061953;2.425721;0.003360;-0.060781;0.049786;147.230331;-4.079121;196.695221;0.000000;0.000000;0.000000;0.000000;-504.000000;-267.000000;632.000000
1608556176;16;;;;;;;;;;;;;;91923742;81411;1427;78;0.784532;5.413271;-8.394493;1.441042;-1.061953;2.415288;0.006109;-0.032987;0.001527;147.225677;-4.120306;196.450104;0.000000;0.000000;0.000000;0.000000;-505.000000;-267.000000;629.000000
1608556176;17;;;;;;;;;;;;;;;;;;0.706079;5.452498;-8.943665;1.441042;-1.072167;2.411810;0.001833;-0.001833;-0.044593;147.366272;-4.093913;195.994781;0.000000;0.000000;0.000000;0.000000;-505.000000;-270.000000;628.000000
1608556176;18;;;;;;;;;;;;;;91907740;81557;1421;78;0.862985;5.609404;-8.512172;1.441042;-1.061953;2.415288;0.008552;0.009774;-0.102931;147.291229;-4.168401;195.891266;0.000000;0.000000;0.000000;0.000000;-505.000000;-267.000000;629.000000
1608556176;19;466851391;67447411;951;904;29;32;283;415;12;3;47376;599697926;1;;;;;0.862985;5.491724;-8.276813;1.444568;-1.061953;2.418766;0.016188;0.007941;-0.169515;147.205658;-4.248104;195.822723;0.000000;0.000000;0.000000;0.000000;-506.000000;-267.000000;630.000000
1608556177;0;;;;;;;;;;;;;;;;;;0.823759;5.491724;-8.472946;1.448095;-1.065358;2.411810;0.025656;0.034819;-0.214414;147.190186;-4.289704;195.657196;0.000000;0.000000;0.000000;0.000000;-507.000000;-268.000000;628.000000
1608556177;1;;;;;;;;;;;;;;91890997;81708;1402;78;0.666852;5.452498;-8.394493;1.444568;-1.061953;2.418766;0.047037;0.068722;-0.251066;147.170670;-4.241873;195.572617;0.000000;0.000000;0.000000;0.000000;-506.000000;-267.000000;630.000000
1608556177;2;466851789;67447900;952;905;29;32;285;416;12;3;47376;799697408;1;;;;;0.588399;5.452498;-8.512172;1.441042;-1.061953;2.425721;0.052534;0.108123;-0.308181;147.189438;-4.150811;195.474854;0.000000;0.000000;0.000000;0.000000;-505.000000;-267.000000;632.000000
1608556177;3;;;;;;;;;;;;;;91874854;81855;1381;78;0.549172;5.452498;-8.276813;1.448095;-1.048335;2.429199;0.088881;0.134390;-0.343612;147.132950;-4.052872;195.543976;0.000000;0.000000;0.000000;0.000000;-507.000000;-263.000000;633.000000
1608556177;4;;;;;;;;;;;;;;;;;;0.666852;5.334818;-8.119907;1.441042;-1.048335;2.443110;0.119424;0.181427;-0.382402;147.089157;-4.040231;195.595184;0.000000;0.000000;0.000000;0.000000;-505.000000;-263.000000;637.000000
1608556177;5;;;;;;;;;;;;;;;;;;0.549172;5.374045;-8.394493;1.448095;-1.038122;2.446588;0.155771;0.226020;-0.404087;147.117569;-3.951573;195.598541;0.000000;0.000000;0.000000;0.000000;-507.000000;-260.000000;638.000000
1608556177;6;;;;;;;;;;;;;;91858837;82000;1354;78;0.627626;5.452498;-8.669079;1.437515;-1.031313;2.463977;0.174402;0.272140;-0.443488;147.188995;-3.907110;195.576141;0.000000;0.000000;0.000000;0.000000;-504.000000;-258.000000;643.000000
1608556177;7;466852186;67448400;953;906;29;32;289;419;12;3;47377;-303109;1;;;;;0.745305;5.217138;-8.512172;1.441042;-1.027908;2.474411;0.155160;0.316734;-0.479529;147.319687;-3.943331;195.448898;0.000000;0.000000;0.000000;0.000000;-505.000000;-257.000000;646.000000
1608556177;8;;;;;;;;;;;;;;91843727;82137;1327;78;0.784532;5.374045;-8.394493;1.433989;-1.017695;2.491800;0.151800;0.350637;-0.525039;147.325043;-3.999047;195.558517;0.000000;0.000000;0.000000;0.000000;-503.000000;-254.000000;651.000000
1608556177;9;;;;;;;;;;;;;;;;;;0.862985;5.452498;-8.825985;1.441042;-1.014290;2.502233;0.145691;0.378431;-0.561996;147.421860;-4.074658;195.529343;0.000000;0.000000;0.000000;0.000000;-505.000000;-253.000000;654.000000
1608556177;10;466852587;67448914;954;907;29;31;293;421;11;3;47377;199696372;1;;;;;0.862985;5.374045;-8.708306;1.433989;-0.993863;2.526578;0.150273;0.381791;-0.619723;147.511749;-4.149246;195.598709;0.000000;0.000000;0.000000;0.000000;-503.000000;-247.000000;661.000000
1608556177;11;;;;;;;;;;;;;;91831278;82250;1290;78;0.941438;5.413271;-8.472946;1.433989;-0.990459;2.530056;0.162490;0.387899;-0.670730;147.503174;-4.269239;195.785690;0.000000;0.000000;0.000000;0.000000;-503.000000;-246.000000;662.000000
1608556177;12;;;;;;;;;;;;;;;;;;0.902212;5.530951;-8.669079;1.430463;-0.980245;2.561356;0.153633;0.392481;-0.729373;147.499039;-4.343725;196.044449;0.000000;0.000000;0.000000;0.000000;-502.000000;-243.000000;671.000000
1608556177;13;;;;;;;;;;;;;;91820077;82351;1243;78;0.902212;5.334818;-8.590626;1.426936;-0.980245;2.561356;0.129503;0.397979;-0.765719;147.565094;-4.419190;196.174088;0.000000;0.000000;0.000000;0.000000;-501.000000;-243.000000;671.000000
1608556177;14;466852997;67449435;955;908;29;31;297;423;11;3;47377;399695854;1;;;;;0.706079;5.374045;-8.590626;1.433989;-0.959818;2.585701;0.113010;0.419359;-0.808785;147.605713;-4.375868;196.457901;0.000000;0.000000;0.000000;0.000000;-503.000000;-237.000000;678.000000
1608556177;15;;;;;;;;;;;;;;;;;;0.745305;5.217138;-8.512172;1.430463;-0.949605;2.592656;0.122784;0.448070;-0.805120;147.694733;-4.365212;196.663605;0.000000;0.000000;0.000000;0.000000;-502.000000;-234.000000;680.000000
1608556177;16;;;;;;;;;;;;;;91809271;82449;1192;78;0.706079;5.334818;-8.747532;1.423410;-0.949605;2.620479;0.142637;0.484721;-0.824668;147.787521;-4.322910;196.897446;0.000000;0.000000;0.000000;0.000000;-500.000000;-234.000000;688.000000
1608556177;17;;;;;;;;;;;;;;;;;;0.588399;5.295591;-8.708306;1.430463;-0.942796;2.623957;0.159130;0.527177;-0.821919;147.878372;-4.221028;197.145950;0.000000;0.000000;0.000000;0.000000;-502.000000;-232.000000;689.000000
1608556177;18;466853406;67449955;956;908;29;31;300;424;11;3;47377;599695336;1;91802270;82513;1129;78;0.470719;5.295591;-8.590626;1.412831;-0.932582;2.644824;0.151495;0.562912;-0.820697;147.925415;-4.065984;197.541840;0.000000;0.000000;0.000000;0.000000;-497.000000;-229.000000;695.000000
1608556177;19;;;;;;;;;;;;;;;;;;0.549172;5.413271;-8.316040;1.409304;-0.922369;2.648302;0.161574;0.598648;-0.823446;147.826706;-3.976167;198.120544;0.000000;0.000000;0.000000;0.000000;-496.000000;-226.000000;696.000000
1608556178;0;;;;;;;;;;;;;;;;;;0.509946;5.295591;-8.355266;1.412831;-0.908751;2.669168;0.169515;0.623082;-0.810923;147.807388;-3.873653;198.616364;0.000000;0.000000;0.000000;0.000000;-497.000000;-222.000000;702.000000
1608556178;1;;;;;;;;;;;;;;91801212;82522;1040;78;0.627626;5.256365;-8.355266;1.405778;-0.908751;2.676124;0.181122;0.621250;-0.827722;147.809235;-3.850095;199.012344;0.000000;0.000000;0.000000;0.000000;-495.000000;-222.000000;704.000000
1608556178;2;466853835;67450491;957;909;29;31;305;426;11;3;47377;799694818;1;;;;;0.470719;5.334818;-8.472946;1.395199;-0.895133;2.686558;0.194255;0.602618;-0.835358;147.808746;-3.734252;199.498352;0.000000;0.000000;0.000000;0.000000;-492.000000;-218.000000;707.000000
1608556178;3;;;;;;;;;;;;;;91811748;82427;897;78;0.706079;5.295591;-8.394493;1.395199;-0.891728;2.693513;0.189063;0.598342;-0.843299;147.803345;-3.767741;199.876709;0.000000;0.000000;0.000000;0.000000;-492.000000;-217.000000;709.000000
1608556178;4;;;;;;;;;;;;;;;;;;0.666852;5.256365;-8.865212;1.391672;-0.888324;2.700469;0.189368;0.580322;-0.838412;147.956573;-3.761172;200.024811;0.000000;0.000000;0.000000;0.000000;-491.000000;-216.000000;711.000000
1608556178;5;;;;;;;;;;;;;;;;;;0.706079;5.295591;-8.786759;1.374041;-0.888324;2.703947;0.184481;0.575435;-0.840550;148.053284;-3.778768;200.235229;0.000000;0.000000;0.000000;0.000000;-486.000000;-216.000000;712.000000
1608556178;6;466854269;67451038;957;910;29;31;309;430;11;3;47378;-305700;1;91829503;82266;699;78;0.902212;5.256365;-8.708306;1.356409;-0.884919;2.707424;0.193644;0.551611;-0.840550;148.136444;-3.907767;200.401031;0.000000;0.000000;0.000000;0.000000;-481.000000;-215.000000;713.000000
1608556178;7;;;;;;;;;;;;;;;;;;0.823759;5.256365;-8.629853;1.374041;-0.878110;2.714380;0.184176;0.544586;-0.819781;148.188293;-3.983052;200.615204;0.000000;0.000000;0.000000;0.000000;-486.000000;-213.000000;715.000000
1608556178;8;;;;;;;;;;;;;;91852447;82058;466;78;0.627626;5.374045;-8.551399;1.363461;-0.881515;2.717858;0.175624;0.541227;-0.806037;148.154785;-3.940338;201.007751;0.000000;0.000000;0.000000;0.000000;-483.000000;-214.000000;716.000000
1608556178;9;;;;;;;;;;;;;;;;;;0.627626;5.256365;-8.551399;1.352882;-0.871301;2.717858;0.174707;0.549779;-0.776410;148.181503;-3.904090;201.315674;0.000000;0.000000;0.000000;0.000000;-480.000000;-211.000000;716.000000
1608556178;10;466854697;67451598;958;911;29;31;313;432;11;3;47378;199693780;1;;;;;0.509946;5.256365;-8.669079;1.342303;-0.878110;2.717858;0.168293;0.546724;-0.760222;148.240372;-3.801634;201.581619;0.000000;0.000000;0.000000;0.000000;-477.000000;-213.000000;716.000000
1608556178;11;;;;;;;;;;;;;;91875708;81847;218;78;0.470719;5.295591;-8.904439;1.338777;-0.871301;2.703947;0.163712;0.565356;-0.740369;148.342300;-3.681619;201.763824;0.000000;0.000000;0.000000;0.000000;-476.000000;-211.000000;712.000000
1608556178;12;;;;;;;;;;;;;;;;;;0.509946;5.374045;-8.629853;1.338777;-0.871301;2.707424;0.165544;0.550084;-0.702800;148.316925;-3.600613;202.098953;0.000000;0.000000;0.000000;0.000000;-476.000000;-211.000000;713.000000
1608556178;13;;;;;;;;;;;;;;91901092;81617;-28;78;0.509946;5.295591;-8.708306;1.331724;-0.874706;2.686558;0.137445;0.568715;-0.678366;148.354828;-3.526985;202.273239;0.000000;0.000000;0.000000;0.000000;-474.000000;-212.000000;707.000000
1608556178;14;466855127;67452160;959;912;29;31;316;434;11;3;47378;399693261;1;;;;;0.549172;5.334818;-8.865212;1.324671;-0.871301;2.700469;0.095600;0.551611;-0.666148;148.415527;-3.478114;202.418793;0.000000;0.000000;0.000000;0.000000;-472.000000;-211.000000;711.000000
1608556178;15;;;;;;;;;;;;;;;;;;0.784532;5.099458;-8.747532;1.324671;-0.881515;2.669168;0.054978;0.521679;-0.676839;148.549942;-3.573354;202.257996;0.000000;0.000000;0.000000;0.000000;-472.000000;-214.000000;702.000000
1608556178;16;;;;;;;;;;;;;;91928603;81367;-266;78;0.823759;5.217138;-8.708306;1.314092;-0.881515;2.669168;0.057727;0.494495;-0.675311;148.602386;-3.679938;202.221741;0.000000;0.000000;0.000000;0.000000;-469.000000;-214.000000;702.000000
1608556178;17;;;;;;;;;;;;;;;;;;0.823759;5.256365;-8.316040;1.310566;-0.895133;2.651779;0.076969;0.473726;-0.677144;148.512558;-3.790580;202.329514;0.000000;0.000000;0.000000;0.000000;-468.000000;-218.000000;697.000000
1608556178;18;466855554;67452734;960;913;29;31;320;435;10;3;47378;599692742;1;91951432;81160;-469;78;0.784532;5.177911;-8.119907;1.314092;-0.895133;2.644824;0.098044;0.447764;-0.685696;148.408829;-3.877251;202.453094;0.000000;0.000000;0.000000;0.000000;-469.000000;-218.000000;695.000000
1608556178;19;;;;;;;;;;;;;;;;;;0.745305;5.060232;-8.394493;1.307039;-0.905346;2.623957;0.107512;0.419970;-0.685696;148.459778;-3.924357;202.307755;0.000000;0.000000;0.000000;0.000000;-467.000000;-221.000000;689.000000
1608556179;0;;;;;;;;;;;;;;;;;;0.941438;5.138685;-8.472946;1.303513;-0.908751;2.620479;0.109039;0.409891;-0.685391;148.490204;-4.074627;202.129562;0.000000;0.000000;0.000000;0.000000;-466.000000;-222.000000;688.000000
1608556179;1;;;;;;;;;;;;;;91969987;80992;-624;78;0.862985;5.060232;-8.433719;1.289407;-0.912155;2.592656;0.087659;0.396146;-0.699135;148.544815;-4.168613;201.911865;0.000000;0.000000;0.000000;0.000000;-462.000000;-223.000000;680.000000
1608556179;2;466855982;67453317;961;914;30;31;323;435;10;3;47378;799692223;1;;;;;0.745305;4.981778;-8.355266;1.289407;-0.918964;2.589179;0.087048;0.412945;-0.681420;148.609818;-4.189878;201.699661;0.000000;0.000000;0.000000;0.000000;-462.000000;-225.000000;679.000000
1608556179;3;;;;;;;;;;;;;;91984257;80863;-727;78;0.784532;5.177911;-8.629853;1.282355;-0.932582;2.564834;0.060781;0.445626;-0.651793;148.652466;-4.216632;201.457230;0.000000;0.000000;0.000000;0.000000;-460.000000;-229.000000;672.000000
1608556179;4;;;;;;;;;;;;;;;;;;0.627626;4.981778;-8.316040;1.275302;-0.932582;2.557878;0.023824;0.481362;-0.643546;148.694839;-4.165404;201.270828;0.000000;0.000000;0.000000;0.000000;-458.000000;-229.000000;670.000000
1608556179;5;;;;;;;;;;;;;;;;;;0.549172;5.021005;-8.551399;1.278828;-0.946200;2.533534;0.004276;0.503047;-0.634383;148.783417;-4.065843;200.958694;0.000000;0.000000;0.000000;0.000000;-459.000000;-233.000000;663.000000
1608556179;6;466856410;67453910;962;915;30;31;326;437;11;3;47379;-308295;1;91996134;80755;-786;78;0.941438;5.021005;-8.472946;1.271775;-0.956414;2.516145;-0.014355;0.511905;-0.627969;148.840027;-4.205278;200.548080;0.000000;0.000000;0.000000;0.000000;-457.000000;-236.000000;658.000000
1608556179;7;;;;;;;;;;;;;;;;;;0.862985;5.138685;-8.394493;1.268249;-0.966627;2.488322;-0.015882;0.516181;-0.615141;148.808746;-4.285839;200.257294;0.000000;0.000000;0.000000;0.000000;-456.000000;-239.000000;650.000000
1608556179;8;;;;;;;;;;;;;;92004812;80677;-806;78;0.784532;5.413271;-8.865212;1.271775;-0.970032;2.481366;0.010996;0.531453;-0.606589;148.786987;-4.289180;199.992630;0.000000;0.000000;0.000000;0.000000;-457.000000;-240.000000;648.000000
1608556179;9;;;;;;;;;;;;;;;;;;0.941438;5.138685;-8.472946;1.257670;-0.983650;2.446588;0.040317;0.534507;-0.593761;148.784698;-4.402968;199.586563;0.000000;0.000000;0.000000;0.000000;-453.000000;-244.000000;638.000000
1608556179;10;466856833;67454513;963;916;30;31;329;440;10;3;47379;199691185;1;;;;;1.412158;5.138685;-8.433719;1.261196;-0.993863;2.432677;0.068111;0.512516;-0.606589;148.770844;-4.776428;199.075226;0.000000;0.000000;0.000000;0.000000;-454.000000;-247.000000;634.000000
